{
"type": "FeatureCollection",
"crs": { "type": "name", "properties": { "name": "urn:ogc:def:crs:OGC:1.3:CRS84" } },
"features": [
	{ "type": "Feature", "properties": { "osm_id": "308920990", "other_tags": "\"shop\"=>\"butcher\"" }, "geometry": { "type": "Point", "coordinates": [ -1.771823, 53.8090249 ] } },
	{ "type": "Feature", "properties": { "osm_id": "497392239", "name": "Sutcliffe's", "other_tags": "\"shop\"=>\"butcher\",\"addr:city\"=>\"Shipley\",\"addr:street\"=>\"Katherine Street\",\"addr:country\"=>\"GB\",\"addr:village\"=>\"Saltaire\",\"addr:postcode\"=>\"BD18 4LZ\",\"opening_hours\"=>\"Mo 08:00-16:00; We-Fr 08:00-16:30; Sa 08:00-13:00\",\"addr:housenumber\"=>\"14\"" }, "geometry": { "type": "Point", "coordinates": [ -1.7930488, 53.836071 ] } },
	{ "type": "Feature", "properties": { "osm_id": "662441234", "name": "Chelwood Butchers", "other_tags": "\"shop\"=>\"butcher\"" }, "geometry": { "type": "Point", "coordinates": [ -1.721666, 53.7713869 ] } },
	{ "type": "Feature", "properties": { "osm_id": "872399543", "name": "John R. Summers", "other_tags": "\"shop\"=>\"butcher\"" }, "geometry": { "type": "Point", "coordinates": [ -1.8218449, 53.7825013 ] } },
	{ "type": "Feature", "properties": { "osm_id": "2082529838", "name": "IH & J Hewitt", "other_tags": "\"shop\"=>\"butcher\",\"addr:city\"=>\"Keighley\",\"addr:street\"=>\"Bar Lane\",\"addr:postcode\"=>\"BD20 5AT\",\"addr:housenumber\"=>\"26\"" }, "geometry": { "type": "Point", "coordinates": [ -1.8857209, 53.8773734 ] } },
	{ "type": "Feature", "properties": { "osm_id": "2195805627", "other_tags": "\"shop\"=>\"butcher\"" }, "geometry": { "type": "Point", "coordinates": [ -1.7579464, 53.7963973 ] } },
	{ "type": "Feature", "properties": { "osm_id": "2195805638", "other_tags": "\"shop\"=>\"butcher\"" }, "geometry": { "type": "Point", "coordinates": [ -1.7578606, 53.7962169 ] } },
	{ "type": "Feature", "properties": { "osm_id": "2195805678", "other_tags": "\"shop\"=>\"butcher\"" }, "geometry": { "type": "Point", "coordinates": [ -1.757807, 53.7963087 ] } },
	{ "type": "Feature", "properties": { "osm_id": "2358605899", "name": "John Kearns", "other_tags": "\"shop\"=>\"butcher\",\"fhrs:id\"=>\"327696\",\"addr:city\"=>\"Shipley\",\"addr:street\"=>\"Market Square\",\"source:addr\"=>\"FHRS Open Data\",\"addr:postcode\"=>\"BD18 3QJ\",\"addr:housenumber\"=>\"38\"" }, "geometry": { "type": "Point", "coordinates": [ -1.7778624, 53.8338167 ] } },
	{ "type": "Feature", "properties": { "osm_id": "2661206215", "name": "Lishman's", "other_tags": "\"shop\"=>\"butcher\"" }, "geometry": { "type": "Point", "coordinates": [ -1.821616, 53.9263725 ] } },
	{ "type": "Feature", "properties": { "osm_id": "3660972192", "name": "Ellisons Butchers", "other_tags": "\"shop\"=>\"butcher\",\"fhrs:id\"=>\"327522\",\"addr:city\"=>\"Bradford\",\"wheelchair\"=>\"no\",\"addr:street\"=>\"Halifax Road\",\"addr:village\"=>\"Cullingworth\",\"addr:postcode\"=>\"BD13 5HD\",\"addr:housenumber\"=>\"52-56\"" }, "geometry": { "type": "Point", "coordinates": [ -1.898589, 53.8270966 ] } },
	{ "type": "Feature", "properties": { "osm_id": "5299643512", "name": "Stuart Price Butchers", "other_tags": "\"shop\"=>\"butcher\",\"fhrs:id\"=>\"327604\",\"addr:city\"=>\"Bingley\",\"addr:street\"=>\"Lime Court\",\"addr:village\"=>\"Crossflatts\",\"addr:postcode\"=>\"BD16 2BW\",\"addr:housenumber\"=>\"7\"" }, "geometry": { "type": "Point", "coordinates": [ -1.8445135, 53.8607171 ] } }
]
}
