{
"type": "FeatureCollection",
"crs": { "type": "name", "properties": { "name": "urn:ogc:def:crs:OGC:1.3:CRS84" } },
"features": [
	{ "type": "Feature", "properties": { "osm_id": "28164064", "name": "Bar t'at", "amenity": "bar", "other_tags": "\"website\"=>\"http:\/\/www.markettowntaverns.co.uk\/bar-t-at.asp?Tavern=Bar-t-at&Section=Main\",\"alt_name\"=>\"Bart'at;Bar t'at Ale & Wine Bar\",\"operator\"=>\"Market Town Taverns Ltd\",\"addr:city\"=>\"Ilkley\",\"addr:street\"=>\"Cunliffe Road\",\"addr:postcode\"=>\"LS29 9DZ\",\"opening_hours\"=>\"Mo-Sa 12:00-23:00; Su 12:00-22:30\",\"addr:housenumber\"=>\"7\"" }, "geometry": { "type": "Point", "coordinates": [ -1.8260615, 53.9250549 ] } },
	{ "type": "Feature", "properties": { "osm_id": "314620850", "name": "Amp Bar", "amenity": "bar" }, "geometry": { "type": "Point", "coordinates": [ -1.7680885, 53.7912927 ] } },
	{ "type": "Feature", "properties": { "osm_id": "4682012093", "name": "The Record Cafe", "amenity": "bar", "other_tags": "\"addr:housenumber\"=>\"45-47\",\"addr:postcode\"=>\"BD1 3JH\",\"addr:street\"=>\"North Parade\",\"fhrs:id\"=>\"722279\",\"opening_hours\"=>\"Mo-Th 11:00-23:00; Fr-Sa 11:00-00:00; Su 12:00-23:00\",\"phone\"=>\"+44 1274 723143\",\"website\"=>\"http:\/\/therecordcafe.co.uk\/\"" }, "geometry": { "type": "Point", "coordinates": [ -1.7569793, 53.797702 ] } },
	{ "type": "Feature", "properties": { "osm_id": "5209226909", "name": "Winston Churchill", "amenity": "bar", "other_tags": "\"addr:city\"=>\"Bradford\",\"addr:housenumber\"=>\"431\",\"addr:postcode\"=>\"BD4 7EJ\",\"addr:street\"=>\"Wakefield Road\",\"fhrs:id\"=>\"326487\",\"outdoor_seating\"=>\"yes\"" }, "geometry": { "type": "Point", "coordinates": [ -1.7340265, 53.7836039 ] } },
	{ "type": "Feature", "properties": { "osm_id": "5247872546", "name": "Hullabaloo", "amenity": "bar", "other_tags": "\"addr:housenumber\"=>\"41\",\"addr:street\"=>\"Westgate\",\"opening_hours\"=>\"We-Fr 16:00-23:00; Sa 12:00-23:00; Su 12:00-22:30\"" }, "geometry": { "type": "Point", "coordinates": [ -1.7789528, 53.8346642 ] } },
	{ "type": "Feature", "properties": { "osm_id": "5284195322", "name": "Twelve Cafe Bar", "amenity": "bar", "other_tags": "\"name:en\"=>\"Twelve Cafe Bar\"" }, "geometry": { "type": "Point", "coordinates": [ -1.7664173, 53.8537997 ] } },
	{ "type": "Feature", "properties": { "osm_id": null, "centroid": { "latitude": 53.865528, "longitude": -1.909872 }, "osm_way_id": "154045693", "name": "K2", "amenity": "bar", "building": "yes" }, "geometry": { "type": "Polygon", "coordinates": [ [ [ -1.9099562, 53.8655922 ], [ -1.9097818, 53.8655889 ], [ -1.9097885, 53.8654641 ], [ -1.909963, 53.8654673 ], [ -1.9099562, 53.8655922 ] ] ] } }
]
}
