{
"type": "FeatureCollection",
"crs": { "type": "name", "properties": { "name": "urn:ogc:def:crs:OGC:1.3:CRS84" } },
"features": [
	{ "type": "Feature", "properties": { "osm_id": "269032231", "name": "Eccleshill Police Station", "amenity": "police", "other_tags": "\"addr:city\"=>\"Bradford\",\"addr:housename\"=>\"Javelin House\",\"addr:postcode\"=>\"BD10 8SD\",\"addr:street\"=>\"Javelin Close\"" }, "geometry": { "type": "Point", "coordinates": [ -1.7355951, 53.8260661 ] } },
	{ "type": "Feature", "properties": { "osm_id": "300980451", "name": "West Yorkshire Police", "amenity": "police" }, "geometry": { "type": "Point", "coordinates": [ -1.7510976, 53.7880369 ] } },
	{ "type": "Feature", "properties": { "osm_id": "430980768", "name": "Shipley Police Station", "amenity": "police" }, "geometry": { "type": "Point", "coordinates": [ -1.7785478, 53.8310022 ] } },
	{ "type": "Feature", "properties": { "osm_id": "1122562173", "name": "West Yorkshire Police Data Centre", "amenity": "police" }, "geometry": { "type": "Point", "coordinates": [ -1.7257974, 53.7756589 ] } },
	{ "type": "Feature", "properties": { "osm_id": "1208023027", "amenity": "police", "other_tags": "\"entrance\"=>\"yes\"" }, "geometry": { "type": "Point", "coordinates": [ -1.8951192, 53.8016926 ] } },
	{ "type": "Feature", "properties": { "osm_id": "1541252391", "name": "Ilkley Police Station", "amenity": "police" }, "geometry": { "type": "Point", "coordinates": [ -1.8245537, 53.9240132 ] } },
	{ "type": "Feature", "properties": { "osm_id": "1652847045", "amenity": "police" }, "geometry": { "type": "Point", "coordinates": [ -1.7475809, 53.7882104 ] } }
]
}
