{
"type": "FeatureCollection",
"crs": { "type": "name", "properties": { "name": "urn:ogc:def:crs:OGC:1.3:CRS84" } },
"features": [
	{ "type": "Feature", "properties": { "osm_id": "2358555952", "name": "Elsie Russell", "other_tags": "\"shop\"=>\"florist\"" }, "geometry": { "type": "Point", "coordinates": [ -1.7786483, 53.8345732 ] } },
	{ "type": "Feature", "properties": { "osm_id": "3497988098", "name": "Mrs Bouquet", "other_tags": "\"shop\"=>\"florist\"" }, "geometry": { "type": "Point", "coordinates": [ -1.7090229, 53.7674583 ] } },
	{ "type": "Feature", "properties": { "osm_id": "5266826723", "name": "Rustic Garden", "other_tags": "\"shop\"=>\"florist\",\"addr:city\"=>\"Bingley\",\"addr:street\"=>\"Main Street\"" }, "geometry": { "type": "Point", "coordinates": [ -1.8376985, 53.847699 ] } },
	{ "type": "Feature", "properties": { "osm_id": "5434991092", "name": "flower couture", "other_tags": "\"shop\"=>\"florist\",\"addr:city\"=>\"Bingley\",\"addr:street\"=>\"Main Street\"" }, "geometry": { "type": "Point", "coordinates": [ -1.8405364, 53.8505421 ] } },
	{ "type": "Feature", "properties": { "osm_id": "5643784150", "name": "Butterfly's Florist", "other_tags": "\"shop\"=>\"florist\",\"addr:city\"=>\"Shipley\"" }, "geometry": { "type": "Point", "coordinates": [ -1.7780567, 53.8340384 ] } },
	{ "type": "Feature", "properties": { "osm_id": "5659255751", "name": "Bramles & Blooms", "other_tags": "\"shop\"=>\"florist\",\"phone\"=>\"+441274594079\",\"addr:city\"=>\"Shipley\",\"addr:village\"=>\"Saltaire\",\"opening_hours\"=>\"Mo-Sa 08:30-17:30\"" }, "geometry": { "type": "Point", "coordinates": [ -1.7915725, 53.834812 ] } },
	{ "type": "Feature", "properties": { "osm_id": "6836932341", "name": "The Green Room", "other_tags": "\"shop\"=>\"florist\"" }, "geometry": { "type": "Point", "coordinates": [ -1.8244562, 53.9249965 ] } }
]
}
