{
"type": "FeatureCollection",
"crs": { "type": "name", "properties": { "name": "urn:ogc:def:crs:OGC:1.3:CRS84" } },
"features": [
	{ "type": "Feature", "properties": { "osm_id": "28150154", "name": "Mario's Pizzas", "amenity": "fast_food" }, "geometry": { "type": "Point", "coordinates": [ -1.824967, 53.9264012 ] } },
	{ "type": "Feature", "properties": { "osm_id": "28164119", "name": "Papa's Pizzas", "amenity": "fast_food", "other_tags": "\"cuisine\"=>\"pizza\"" }, "geometry": { "type": "Point", "coordinates": [ -1.819639, 53.9243773 ] } },
	{ "type": "Feature", "properties": { "osm_id": "28196079", "name": "Pizza House", "amenity": "fast_food", "other_tags": "\"cuisine\"=>\"pizza\"" }, "geometry": { "type": "Point", "coordinates": [ -1.8231914, 53.9255578 ] } },
	{ "type": "Feature", "properties": { "osm_id": "28196080", "name": "Paninis Subs", "amenity": "fast_food", "other_tags": "\"cuisine\"=>\"sandwich\"" }, "geometry": { "type": "Point", "coordinates": [ -1.8232021, 53.9256479 ] } },
	{ "type": "Feature", "properties": { "osm_id": "28196085", "name": "Lemon Tree", "amenity": "fast_food", "other_tags": "\"addr:city\"=>\"Ilkley\",\"addr:housenumber\"=>\"5\",\"addr:postcode\"=>\"LS29 8DH\",\"addr:street\"=>\"Leeds Road\",\"cuisine\"=>\"chinese\",\"fhrs:id\"=>\"326951\",\"source:addr\"=>\"FHRS Open Data\"" }, "geometry": { "type": "Point", "coordinates": [ -1.8230025, 53.9262093 ] } },
	{ "type": "Feature", "properties": { "osm_id": "28196095", "name": "Franko'z", "amenity": "fast_food", "other_tags": "\"cuisine\"=>\"fish_and_chips\"" }, "geometry": { "type": "Point", "coordinates": [ -1.8223395, 53.9263183 ] } },
	{ "type": "Feature", "properties": { "osm_id": "28196526", "name": "The Shalimar", "amenity": "fast_food", "other_tags": "\"addr:city\"=>\"Ilkley\",\"addr:housenumber\"=>\"13\",\"addr:postcode\"=>\"LS29 8DQ\",\"addr:street\"=>\"New Brook Street\",\"cuisine\"=>\"indian\",\"fhrs:id\"=>\"327067\",\"source:addr\"=>\"FHRS Open Data\"" }, "geometry": { "type": "Point", "coordinates": [ -1.8232369, 53.9266617 ] } },
	{ "type": "Feature", "properties": { "osm_id": "289815017", "name": "McDonald's", "amenity": "fast_food", "other_tags": "\"addr:city\"=>\"Bradford\",\"addr:housenumber\"=>\"1003\",\"addr:postcode\"=>\"BD3 7NH\",\"addr:street\"=>\"Leeds Road\",\"cuisine\"=>\"burger\",\"fhrs:id\"=>\"325982\",\"source:addr\"=>\"FHRS Open Data\",\"toilets:wheelchair\"=>\"yes\",\"wheelchair\"=>\"yes\",\"wheelchair:description\"=>\"wheelchair door doesn't work but staff assisted. Card points a little high but reachable\"" }, "geometry": { "type": "Point", "coordinates": [ -1.7089446, 53.8007154 ] } },
	{ "type": "Feature", "properties": { "osm_id": "300600259", "name": "McDonald's", "amenity": "fast_food", "other_tags": "\"addr:city\"=>\"Bradford\",\"addr:postcode\"=>\"BD5 8JY\",\"addr:street\"=>\"Rooley Lane\",\"cuisine\"=>\"burger\",\"fhrs:id\"=>\"326266\",\"source:addr\"=>\"FHRS Open Data\"" }, "geometry": { "type": "Point", "coordinates": [ -1.7476201, 53.7687856 ] } },
	{ "type": "Feature", "properties": { "osm_id": "300938720", "name": "McDonald's", "amenity": "fast_food", "other_tags": "\"brand\"=>\"McDonald's\",\"brand:wikidata\"=>\"Q38076\",\"brand:wikipedia\"=>\"en:McDonald's\",\"cuisine\"=>\"burger\",\"takeaway\"=>\"yes\"" }, "geometry": { "type": "Point", "coordinates": [ -1.7535808, 53.8010447 ] } },
	{ "type": "Feature", "properties": { "osm_id": "301279822", "name": "Fish & Chips", "amenity": "fast_food" }, "geometry": { "type": "Point", "coordinates": [ -1.7747069, 53.7762962 ] } },
	{ "type": "Feature", "properties": { "osm_id": "302740026", "name": "Fish & Chips", "amenity": "fast_food" }, "geometry": { "type": "Point", "coordinates": [ -1.7597617, 53.7750655 ] } },
	{ "type": "Feature", "properties": { "osm_id": "311529858", "name": "McDonald's", "amenity": "fast_food", "other_tags": "\"addr:city\"=>\"Bradford\",\"addr:housenumber\"=>\"285\",\"addr:postcode\"=>\"BD10 8EG\",\"addr:street\"=>\"Bradford Road\",\"addr:village\"=>\"Idle\",\"cuisine\"=>\"burger\",\"fhrs:id\"=>\"326654\",\"source:addr\"=>\"FHRS Open Data\"" }, "geometry": { "type": "Point", "coordinates": [ -1.7349055, 53.8245257 ] } },
	{ "type": "Feature", "properties": { "osm_id": "316226176", "name": "Piri Piri Chicken", "amenity": "fast_food" }, "geometry": { "type": "Point", "coordinates": [ -1.7588608, 53.790226 ] } },
	{ "type": "Feature", "properties": { "osm_id": "321446267", "name": "Paley Chinese Take Away", "amenity": "fast_food", "other_tags": "\"cuisine\"=>\"chinese\",\"addr:street\"=>\"Paley Road\"" }, "geometry": { "type": "Point", "coordinates": [ -1.7399603, 53.7829802 ] } },
	{ "type": "Feature", "properties": { "osm_id": "337430058", "name": "Springs", "amenity": "fast_food", "other_tags": "\"addr:city\"=>\"Bradford\",\"addr:housenumber\"=>\"16a\",\"addr:postcode\"=>\"BD7 1RD\",\"addr:street\"=>\"Laisteridge Lane\",\"fhrs:id\"=>\"324908\",\"source:addr\"=>\"FHRS Open Data\"" }, "geometry": { "type": "Point", "coordinates": [ -1.7669256, 53.7886011 ] } },
	{ "type": "Feature", "properties": { "osm_id": "382568484", "name": "Chach Valley", "amenity": "fast_food", "other_tags": "\"addr:city\"=>\"Bradford\",\"addr:housenumber\"=>\"107-109\",\"addr:postcode\"=>\"BD8 9DS\",\"addr:street\"=>\"Whetley Lane\",\"fhrs:id\"=>\"324793\",\"source:addr\"=>\"FHRS Open Data\"" }, "geometry": { "type": "Point", "coordinates": [ -1.7787987, 53.8027764 ] } },
	{ "type": "Feature", "properties": { "osm_id": "382568575", "name": "Dial a Roti", "amenity": "fast_food", "other_tags": "\"addr:city\"=>\"Bradford\",\"addr:housenumber\"=>\"20\",\"addr:postcode\"=>\"BD8 8RA\",\"addr:street\"=>\"Heaton Road\",\"fhrs:id\"=>\"325330\",\"source:addr\"=>\"FHRS Open Data\"" }, "geometry": { "type": "Point", "coordinates": [ -1.7759784, 53.8069282 ] } },
	{ "type": "Feature", "properties": { "osm_id": "413272871", "name": "Goodall of Tongs Icecream", "amenity": "fast_food", "other_tags": "\"addr:city\"=>\"Bradford\",\"addr:postcode\"=>\"BD4 0RP\",\"addr:street\"=>\"Tong Lane\",\"addr:village\"=>\"Tong\"" }, "geometry": { "type": "Point", "coordinates": [ -1.6624802, 53.7716016 ] } },
	{ "type": "Feature", "properties": { "osm_id": "415990591", "name": "Mahmood's", "amenity": "fast_food", "other_tags": "\"addr:city\"=>\"Bradford\",\"addr:housenumber\"=>\"346\",\"addr:postcode\"=>\"BD7 1QJ\",\"addr:street\"=>\"Great Horton Road\",\"fhrs:id\"=>\"328188\",\"source:addr\"=>\"FHRS Open Data\"" }, "geometry": { "type": "Point", "coordinates": [ -1.7736887, 53.7872462 ] } },
	{ "type": "Feature", "properties": { "osm_id": "426615128", "name": "Paprika Lounge", "amenity": "fast_food", "other_tags": "\"addr:city\"=>\"Bradford\",\"addr:housenumber\"=>\"46-50\",\"addr:postcode\"=>\"BD9 4BE\",\"addr:street\"=>\"Highgate\",\"addr:village\"=>\"Heaton\",\"cuisine\"=>\"asian\",\"fhrs:id\"=>\"328260\",\"old_name\"=>\"The Delvers\",\"takeaway\"=>\"yes\",\"was:amenity\"=>\"pub\"" }, "geometry": { "type": "Point", "coordinates": [ -1.7873817, 53.8159418 ] } },
	{ "type": "Feature", "properties": { "osm_id": "455680104", "name": "McDonald's", "amenity": "fast_food", "other_tags": "\"addr:city\"=>\"Keighley\",\"addr:country\"=>\"GB\",\"addr:postcode\"=>\"BD21 3NB\",\"addr:street\"=>\"Hard Ings Road\",\"brand\"=>\"McDonald's\",\"brand:wikidata\"=>\"Q38076\",\"brand:wikipedia\"=>\"en:McDonald's\",\"cuisine\"=>\"burger\",\"fhrs:id\"=>\"325170\",\"source:addr\"=>\"FHRS Open Data\",\"takeaway\"=>\"yes\",\"wheelchair\"=>\"yes\"" }, "geometry": { "type": "Point", "coordinates": [ -1.9035396, 53.8744649 ] } },
	{ "type": "Feature", "properties": { "osm_id": "457933894", "name": "Beckside Fisheries", "amenity": "fast_food", "other_tags": "\"addr:city\"=>\"Bingley\",\"addr:housenumber\"=>\"1\",\"addr:postcode\"=>\"BD16 1SE\",\"addr:street\"=>\"Main Street\",\"addr:village\"=>\"Cottingley\",\"cuisine\"=>\"fish_and_chips\",\"fhrs:id\"=>\"327650\"" }, "geometry": { "type": "Point", "coordinates": [ -1.8211214, 53.8286719 ] } },
	{ "type": "Feature", "properties": { "osm_id": "462198231", "name": "Terminus Fisheries", "amenity": "fast_food", "other_tags": "\"addr:city\"=>\"Bradford\",\"addr:housenumber\"=>\"520-522\",\"addr:postcode\"=>\"BD13 3NH\",\"addr:street\"=>\"Thornton Road\",\"addr:village\"=>\"Thornton\",\"delivery\"=>\"yes\",\"description\"=>\"Fish & Chips\",\"fhrs:id\"=>\"324684\",\"source:addr\"=>\"FHRS Open Data\",\"takeaway\"=>\"yes\"" }, "geometry": { "type": "Point", "coordinates": [ -1.8548254, 53.7907478 ] } },
	{ "type": "Feature", "properties": { "osm_id": "494080737", "name": "Greengates Fisheries", "amenity": "fast_food" }, "geometry": { "type": "Point", "coordinates": [ -1.7106051, 53.8318416 ] } },
	{ "type": "Feature", "properties": { "osm_id": "497392244", "name": "Curryosity", "amenity": "fast_food", "other_tags": "\"addr:city\"=>\"Shipley\",\"addr:housenumber\"=>\"69\",\"addr:postcode\"=>\"BD18 4SB\",\"addr:street\"=>\"Bingley Road\",\"addr:village\"=>\"Saltaire\",\"fhrs:id\"=>\"327363\",\"source:addr\"=>\"FHRS Open Data\"" }, "geometry": { "type": "Point", "coordinates": [ -1.7924733, 53.8351551 ] } },
	{ "type": "Feature", "properties": { "osm_id": "497396119", "name": "Saltaire Pizza & Balti", "amenity": "fast_food", "other_tags": "\"addr:city\"=>\"Shipley\",\"addr:housenumber\"=>\"43\",\"addr:postcode\"=>\"BD18 3HZ\",\"addr:street\"=>\"Saltaire Road\",\"cuisine\"=>\"pizza;indian\",\"fhrs:id\"=>\"327803\",\"source:addr\"=>\"FSA Food Hygiene Ratings Database\"" }, "geometry": { "type": "Point", "coordinates": [ -1.7861885, 53.8361317 ] } },
	{ "type": "Feature", "properties": { "osm_id": "497396131", "name": "New Rainbow", "amenity": "fast_food", "other_tags": "\"addr:city\"=>\"Shipley\",\"addr:housenumber\"=>\"65\",\"addr:postcode\"=>\"BD18 3JN\",\"addr:street\"=>\"Saltaire Road\",\"fhrs:id\"=>\"327807\",\"opening_hours\"=>\"Mo 17:00-23:00, We,Th 17:00-23:30, Fr,Sa 17:00-24:00, Su 17:30-23:30, PH 17:00-23:00\",\"source:addr\"=>\"FHRS Open Data\"" }, "geometry": { "type": "Point", "coordinates": [ -1.7883523, 53.8363066 ] } },
	{ "type": "Feature", "properties": { "osm_id": "506368975", "name": "Fat Joes", "amenity": "fast_food", "other_tags": "\"addr:city\"=>\"Keighley\",\"addr:housenumber\"=>\"71\",\"addr:postcode\"=>\"BD21 1AD\",\"addr:street\"=>\"South Street\",\"cuisine\"=>\"fast_food\",\"fhrs:id\"=>\"984971\",\"source:addr\"=>\"FHRS Open Data\",\"takeaway\"=>\"yes\"" }, "geometry": { "type": "Point", "coordinates": [ -1.9112852, 53.8634051 ] } },
	{ "type": "Feature", "properties": { "osm_id": "506368976", "name": "Bardgett's Fish & Chips", "amenity": "fast_food", "other_tags": "\"addr:city\"=>\"Keighley\",\"addr:housenumber\"=>\"213\",\"addr:postcode\"=>\"BD21 1AG\",\"addr:street\"=>\"South Street\",\"cuisine\"=>\"fish_and_chips\",\"fhrs:id\"=>\"327182\"" }, "geometry": { "type": "Point", "coordinates": [ -1.9110332, 53.8604983 ] } },
	{ "type": "Feature", "properties": { "osm_id": "572435018", "name": "Great Northern Fisheries", "amenity": "fast_food", "other_tags": "\"addr:city\"=>\"Bradford\",\"addr:housenumber\"=>\"413\",\"addr:postcode\"=>\"BD13 3JN\",\"addr:street\"=>\"Thornton Road\",\"addr:village\"=>\"Thornton\",\"description\"=>\"Fish & Chips\",\"fhrs:id\"=>\"940603\",\"source:addr\"=>\"FHRS Open Data\"" }, "geometry": { "type": "Point", "coordinates": [ -1.853993, 53.790557 ] } },
	{ "type": "Feature", "properties": { "osm_id": "634606882", "name": "Mango's", "amenity": "fast_food", "other_tags": "\"addr:city\"=>\"Keighley\",\"addr:country\"=>\"GB\",\"addr:housenumber\"=>\"131\",\"addr:postcode\"=>\"BD21 3AD\",\"addr:street\"=>\"North Street\",\"fhrs:id\"=>\"327075\",\"source:addr\"=>\"FHRS Open Data\"" }, "geometry": { "type": "Point", "coordinates": [ -1.9097979, 53.8696571 ] } },
	{ "type": "Feature", "properties": { "osm_id": "647225417", "name": "Five Star Wook", "amenity": "fast_food", "other_tags": "\"addr:city\"=>\"Bradford\",\"addr:housenumber\"=>\"1\",\"addr:postcode\"=>\"BD4 6HN\",\"addr:street\"=>\"Dawson Lane\",\"addr:suburb\"=>\"Tong\",\"cuisine\"=>\"chinese\",\"fhrs:id\"=>\"328113\",\"source:addr\"=>\"FHRS Open Data\"" }, "geometry": { "type": "Point", "coordinates": [ -1.7207979, 53.7703846 ] } },
	{ "type": "Feature", "properties": { "osm_id": "656736021", "name": "Bierley Fisheries", "amenity": "fast_food", "other_tags": "\"addr:city\"=>\"Bradford\",\"addr:housenumber\"=>\"120\",\"addr:postcode\"=>\"BD4 6AS\",\"addr:street\"=>\"Bierley Lane\",\"cuisine\"=>\"fish_and_chips\",\"fhrs:id\"=>\"326269\",\"source:addr\"=>\"FHRS Open Data\"" }, "geometry": { "type": "Point", "coordinates": [ -1.7325098, 53.7666892 ] } },
	{ "type": "Feature", "properties": { "osm_id": "656736588", "name": "Supreme Sandwich Bar", "amenity": "fast_food", "other_tags": "\"cuisine\"=>\"sandwich\"" }, "geometry": { "type": "Point", "coordinates": [ -1.7208761, 53.7712337 ] } },
	{ "type": "Feature", "properties": { "osm_id": "676622224", "name": "Sizzlers Balti House", "amenity": "fast_food", "other_tags": "\"cuisine\"=>\"curry\"" }, "geometry": { "type": "Point", "coordinates": [ -1.7085182, 53.7672702 ] } },
	{ "type": "Feature", "properties": { "osm_id": "676622225", "name": "Pizza Corner", "amenity": "fast_food", "other_tags": "\"addr:city\"=>\"Bradford\",\"addr:housenumber\"=>\"435\",\"addr:postcode\"=>\"BD4 6NA\",\"addr:street\"=>\"Tong Street\",\"cuisine\"=>\"pizza\",\"fhrs:id\"=>\"326420\",\"source:addr\"=>\"FHRS Open Data\"" }, "geometry": { "type": "Point", "coordinates": [ -1.7088205, 53.7673916 ] } },
	{ "type": "Feature", "properties": { "osm_id": "676622251", "name": "Adeel's Spice - Pizza & Fisheries", "amenity": "fast_food" }, "geometry": { "type": "Point", "coordinates": [ -1.7098568, 53.7705708 ] } },
	{ "type": "Feature", "properties": { "osm_id": "685938454", "name": "Parade Fisheries", "amenity": "fast_food", "other_tags": "\"addr:city\"=>\"Bradford\",\"addr:housenumber\"=>\"8\",\"addr:postcode\"=>\"BD4 9HN\",\"addr:street\"=>\"The Parade\",\"cuisine\"=>\"fish_and_chips\",\"fhrs:id\"=>\"326390\",\"source:addr\"=>\"FHRS Open Data\"" }, "geometry": { "type": "Point", "coordinates": [ -1.7115159, 53.7787124 ] } },
	{ "type": "Feature", "properties": { "osm_id": "687080942", "name": "Tasty Snacks", "amenity": "fast_food" }, "geometry": { "type": "Point", "coordinates": [ -1.7158438, 53.7696039 ] } },
	{ "type": "Feature", "properties": { "osm_id": "687080951", "name": "Tong Street Fisheries", "amenity": "fast_food" }, "geometry": { "type": "Point", "coordinates": [ -1.7150704, 53.7693021 ] } },
	{ "type": "Feature", "properties": { "osm_id": "687081052", "name": "Happy Budha Takeaway", "amenity": "fast_food" }, "geometry": { "type": "Point", "coordinates": [ -1.7124842, 53.768373 ] } },
	{ "type": "Feature", "properties": { "osm_id": "687081058", "name": "Belly Busters", "amenity": "fast_food" }, "geometry": { "type": "Point", "coordinates": [ -1.7117854, 53.7682657 ] } },
	{ "type": "Feature", "properties": { "osm_id": "687081091", "name": "Mr B's Pizza, Burgers, Kebabs, S.F.C., Curries", "amenity": "fast_food" }, "geometry": { "type": "Point", "coordinates": [ -1.7110211, 53.7681195 ] } },
	{ "type": "Feature", "properties": { "osm_id": "687081095", "name": "Mega-Bites", "amenity": "fast_food", "other_tags": "\"addr:city\"=>\"Bradford\",\"addr:housenumber\"=>\"405\",\"addr:postcode\"=>\"BD4 6LX\",\"addr:street\"=>\"Tong Street\",\"fhrs:id\"=>\"326414\",\"source:addr\"=>\"FHRS Open Data\"" }, "geometry": { "type": "Point", "coordinates": [ -1.7101709, 53.767901 ] } },
	{ "type": "Feature", "properties": { "osm_id": "687081099", "name": "Triumph Fisheries", "amenity": "fast_food", "other_tags": "\"addr:city\"=>\"Bradford\",\"addr:housenumber\"=>\"417\",\"addr:postcode\"=>\"BD4 6LX\",\"addr:street\"=>\"Tong Street\",\"fhrs:id\"=>\"326416\",\"source:addr\"=>\"FHRS Open Data\"" }, "geometry": { "type": "Point", "coordinates": [ -1.7095749, 53.767714 ] } },
	{ "type": "Feature", "properties": { "osm_id": "747527923", "name": "Menston Spice", "amenity": "fast_food", "other_tags": "\"addr:city\"=>\"Ilkley\",\"addr:housenumber\"=>\"33a\",\"addr:postcode\"=>\"LS29 6NB\",\"addr:street\"=>\"Main Street\",\"addr:village\"=>\"Menston\",\"cuisine\"=>\"indian\",\"fhrs:id\"=>\"327623\",\"source:addr\"=>\"FHRS Open Data\"" }, "geometry": { "type": "Point", "coordinates": [ -1.7454052, 53.8912178 ] } },
	{ "type": "Feature", "properties": { "osm_id": "777459083", "name": "Cross Roads Chip Shop", "amenity": "fast_food", "other_tags": "\"addr:city\"=>\"Keighley\",\"addr:housenumber\"=>\"50\",\"addr:postcode\"=>\"BD22 9DL\",\"addr:street\"=>\"Haworth Road\",\"addr:village\"=>\"Cross Roads\",\"fhrs:id\"=>\"326859\"" }, "geometry": { "type": "Point", "coordinates": [ -1.9351662, 53.8352825 ] } },
	{ "type": "Feature", "properties": { "osm_id": "777468703", "amenity": "fast_food" }, "geometry": { "type": "Point", "coordinates": [ -1.8606085, 53.8238832 ] } },
	{ "type": "Feature", "properties": { "osm_id": "778671341", "name": "Mamas Pizza", "amenity": "fast_food", "other_tags": "\"addr:city\"=>\"Bingley\",\"addr:housenumber\"=>\"24\",\"addr:postcode\"=>\"BD16 4JD\",\"addr:street\"=>\"Park Road\",\"cuisine\"=>\"pizza\",\"fhrs:id\"=>\"327777\"" }, "geometry": { "type": "Point", "coordinates": [ -1.8368776, 53.84945 ] } },
	{ "type": "Feature", "properties": { "osm_id": "798294786", "name": "Happy Garden", "amenity": "fast_food", "other_tags": "\"addr:city\"=>\"Bradford\",\"addr:housenumber\"=>\"198\",\"addr:postcode\"=>\"BD9 6NJ\",\"addr:street\"=>\"Haworth Road\",\"fhrs:id\"=>\"328226\",\"source:addr\"=>\"FHRS Open Data\"" }, "geometry": { "type": "Point", "coordinates": [ -1.8154076, 53.8160881 ] } },
	{ "type": "Feature", "properties": { "osm_id": "798527568", "name": "Chicken Time", "amenity": "fast_food", "other_tags": "\"addr:city\"=>\"Keighley\",\"addr:postcode\"=>\"BD22 8NQ\",\"addr:street\"=>\"Mill Hey\",\"addr:village\"=>\"Haworth\"" }, "geometry": { "type": "Point", "coordinates": [ -1.947697, 53.8314685 ] } },
	{ "type": "Feature", "properties": { "osm_id": "798527597", "name": "Bronte Balti", "amenity": "fast_food", "other_tags": "\"addr:city\"=>\"Keighley\",\"addr:housenumber\"=>\"19\",\"addr:postcode\"=>\"BD22 8NQ\",\"addr:street\"=>\"Mill Hey\",\"addr:village\"=>\"Haworth\",\"fhrs:id\"=>\"327042\"" }, "geometry": { "type": "Point", "coordinates": [ -1.9475575, 53.83188 ] } },
	{ "type": "Feature", "properties": { "osm_id": "798527603", "name": "Hong Kong", "amenity": "fast_food", "other_tags": "\"addr:city\"=>\"Keighley\",\"addr:housenumber\"=>\"37\",\"addr:postcode\"=>\"BD22 8NQ\",\"addr:street\"=>\"Mill Hey\",\"addr:village\"=>\"Haworth\",\"fhrs:id\"=>\"327045\",\"source:addr\"=>\"FHRS Open Data\"" }, "geometry": { "type": "Point", "coordinates": [ -1.9471391, 53.8322726 ] } },
	{ "type": "Feature", "properties": { "osm_id": "798527608", "name": "Pizza Time", "amenity": "fast_food", "other_tags": "\"addr:city\"=>\"Keighley\",\"addr:housenumber\"=>\"14\",\"addr:postcode\"=>\"BD22 8NQ\",\"addr:street\"=>\"Mill Hey\",\"addr:village\"=>\"Haworth\",\"fhrs:id\"=>\"327051\"" }, "geometry": { "type": "Point", "coordinates": [ -1.9476005, 53.8315254 ] } },
	{ "type": "Feature", "properties": { "osm_id": "854470022", "name": "Subway", "amenity": "fast_food", "other_tags": "\"addr:city\"=>\"Bradford\",\"addr:housenumber\"=>\"51\",\"addr:postcode\"=>\"BD7 1AZ\",\"addr:street\"=>\"Great Horton Road\",\"fhrs:id\"=>\"325143\",\"source:addr\"=>\"FHRS Open Data\"" }, "geometry": { "type": "Point", "coordinates": [ -1.7627936, 53.7907029 ] } },
	{ "type": "Feature", "properties": { "osm_id": "856416215", "name": "Websters", "amenity": "fast_food", "other_tags": "\"addr:city\"=>\"Shipley\",\"addr:housenumber\"=>\"37-39\",\"addr:postcode\"=>\"BD17 6LB\",\"addr:street\"=>\"Northgate\",\"addr:village\"=>\"Baildon\",\"fhrs:id\"=>\"327749\",\"source:addr\"=>\"FHRS Open Data\"" }, "geometry": { "type": "Point", "coordinates": [ -1.7662928, 53.8546288 ] } },
	{ "type": "Feature", "properties": { "osm_id": "858682306", "name": "Subway", "amenity": "fast_food", "other_tags": "\"addr:city\"=>\"Bradford\",\"addr:housename\"=>\"Unit B\",\"addr:housenumber\"=>\"45\",\"addr:postcode\"=>\"BD8 9AH\",\"addr:street\"=>\"Ingleby Road\",\"fhrs:id\"=>\"325613\",\"source:addr\"=>\"FHRS Open Data\"" }, "geometry": { "type": "Point", "coordinates": [ -1.7840105, 53.7973831 ] } },
	{ "type": "Feature", "properties": { "osm_id": "858682311", "name": "Domino's", "amenity": "fast_food", "other_tags": "\"addr:city\"=>\"Bradford\",\"addr:housename\"=>\"Unit A Ingleby Road Retail Park\",\"addr:postcode\"=>\"BD8 9AP\",\"addr:street\"=>\"Ingleby Road\",\"addr:village\"=>\"Girlington\",\"fhrs:id\"=>\"325589\",\"source:addr\"=>\"FHRS Open Data\"" }, "geometry": { "type": "Point", "coordinates": [ -1.7839998, 53.7972944 ] } },
	{ "type": "Feature", "properties": { "osm_id": "1100603213", "name": "McDonald's", "amenity": "fast_food", "other_tags": "\"brand\"=>\"McDonald's\",\"brand:wikidata\"=>\"Q38076\",\"brand:wikipedia\"=>\"en:McDonald's\",\"cuisine\"=>\"burger\",\"takeaway\"=>\"yes\"" }, "geometry": { "type": "Point", "coordinates": [ -1.7518395, 53.7984846 ] } },
	{ "type": "Feature", "properties": { "osm_id": "1163032595", "name": "Grandad Nichol's", "amenity": "fast_food", "other_tags": "\"addr:city\"=>\"Ilkley\",\"addr:housenumber\"=>\"109\",\"addr:postcode\"=>\"LS29 8EG\",\"addr:street\"=>\"Leeds Road\",\"cuisine\"=>\"fish_and_chips\",\"fhrs:id\"=>\"325795\",\"outdoor_seating\"=>\"yes\",\"phone\"=>\"+44 1943 600220\",\"takeaway\"=>\"yes\"" }, "geometry": { "type": "Point", "coordinates": [ -1.8153733, 53.9286741 ] } },
	{ "type": "Feature", "properties": { "osm_id": "1283414235", "name": "50's Grill", "amenity": "fast_food", "other_tags": "\"addr:city\"=>\"Keighley\",\"addr:country\"=>\"GB\",\"addr:housenumber\"=>\"5c\",\"addr:postcode\"=>\"BD21 3JD\",\"addr:street\"=>\"Alice Street\",\"fhrs:id\"=>\"326577\",\"source:addr\"=>\"FHRS Open Data\"" }, "geometry": { "type": "Point", "coordinates": [ -1.9089295, 53.8694404 ] } },
	{ "type": "Feature", "properties": { "osm_id": "1295263423", "name": "Double Luck", "amenity": "fast_food", "other_tags": "\"cuisine\"=>\"chinese\"" }, "geometry": { "type": "Point", "coordinates": [ -1.9113433, 53.8589987 ] } },
	{ "type": "Feature", "properties": { "osm_id": "1447395267", "name": "Deli Touch", "amenity": "fast_food", "other_tags": "\"addr:city\"=>\"Keighley\",\"addr:country\"=>\"GB\",\"addr:housenumber\"=>\"1\",\"addr:postcode\"=>\"BD21 3EG\",\"addr:street\"=>\"Emily Street\",\"fhrs:id\"=>\"326804\",\"source:addr\"=>\"FHRS Open Data\"" }, "geometry": { "type": "Point", "coordinates": [ -1.9044725, 53.8709875 ] } },
	{ "type": "Feature", "properties": { "osm_id": "1487486722", "name": "Rook lane Fisheries", "amenity": "fast_food", "other_tags": "\"addr:city\"=>\"Bradford\",\"addr:housenumber\"=>\"77\",\"addr:postcode\"=>\"BD4 9NE\",\"addr:street\"=>\"Compton Street\",\"cuisine\"=>\"fish_and_chips\",\"fhrs:id\"=>\"327687\",\"source:addr\"=>\"FHRS Open Data\"" }, "geometry": { "type": "Point", "coordinates": [ -1.727853, 53.7728721 ] } },
	{ "type": "Feature", "properties": { "osm_id": "1487487783", "name": "Cosy corner", "amenity": "fast_food", "other_tags": "\"cuisine\"=>\"sandwich\"" }, "geometry": { "type": "Point", "coordinates": [ -1.7266567, 53.7728975 ] } },
	{ "type": "Feature", "properties": { "osm_id": "1487496993", "name": "McDonald's", "amenity": "fast_food", "other_tags": "\"brand\"=>\"McDonald's\",\"brand:wikidata\"=>\"Q38076\",\"brand:wikipedia\"=>\"en:McDonald's\",\"cuisine\"=>\"burger\",\"takeaway\"=>\"yes\"" }, "geometry": { "type": "Point", "coordinates": [ -1.7326005, 53.7720193 ] } },
	{ "type": "Feature", "properties": { "osm_id": "1487503906", "amenity": "fast_food", "other_tags": "\"cuisine\"=>\"sandwich\"" }, "geometry": { "type": "Point", "coordinates": [ -1.7253961, 53.7728499 ] } },
	{ "type": "Feature", "properties": { "osm_id": "1487506076", "name": "Rapeedo pizza", "amenity": "fast_food", "other_tags": "\"addr:city\"=>\"Bradford\",\"addr:housenumber\"=>\"20a\",\"addr:postcode\"=>\"BD4 9LU\",\"addr:street\"=>\"Tong Street\",\"cuisine\"=>\"pizza\",\"fhrs:id\"=>\"801535\",\"source:addr\"=>\"FHRS Open Data\"" }, "geometry": { "type": "Point", "coordinates": [ -1.7263295, 53.7738581 ] } },
	{ "type": "Feature", "properties": { "osm_id": "1644954233", "name": "KFC", "amenity": "fast_food", "other_tags": "\"addr:city\"=>\"Keighley\",\"addr:country\"=>\"GB\",\"addr:housename\"=>\"Keighley Retail Park\",\"addr:postcode\"=>\"BD21 3NJ\",\"addr:street\"=>\"Hard Ings Road\",\"addr:unit\"=>\"8\",\"alt_name\"=>\"Kentucky Fried Chicken\",\"brand\"=>\"KFC\",\"brand:wikidata\"=>\"Q524757\",\"brand:wikipedia\"=>\"en:KFC\",\"cuisine\"=>\"chicken\",\"fhrs:id\"=>\"326852\",\"source:addr\"=>\"FHRS Open Data\",\"takeaway\"=>\"yes\"" }, "geometry": { "type": "Point", "coordinates": [ -1.9050505, 53.8745675 ] } },
	{ "type": "Feature", "properties": { "osm_id": "1657772816", "name": "Spicy Ranch", "amenity": "fast_food" }, "geometry": { "type": "Point", "coordinates": [ -1.7510983, 53.9125465 ] } },
	{ "type": "Feature", "properties": { "osm_id": "1678305299", "amenity": "fast_food", "other_tags": "\"addr:city\"=>\"Shipley\",\"addr:housenumber\"=>\"95\",\"addr:postcode\"=>\"BD17 7LT\",\"addr:street\"=>\"Coach Road\",\"addr:village\"=>\"Baildon\",\"cuisine\"=>\"sandwich\"" }, "geometry": { "type": "Point", "coordinates": [ -1.7885541, 53.8411506 ] } },
	{ "type": "Feature", "properties": { "osm_id": "1678305319", "amenity": "fast_food", "other_tags": "\"addr:city\"=>\"Shipley\",\"addr:housenumber\"=>\"89\",\"addr:postcode\"=>\"BD17 7LT\",\"addr:street\"=>\"Coach Road\",\"addr:village\"=>\"Baildon\",\"cuisine\"=>\"fish_and_chips\"" }, "geometry": { "type": "Point", "coordinates": [ -1.7883945, 53.8410754 ] } },
	{ "type": "Feature", "properties": { "osm_id": "1685191613", "name": "Pizza One", "amenity": "fast_food", "other_tags": "\"addr:city\"=>\"Ilkley\",\"addr:district\"=>\"Burley In Wharfedale\",\"addr:housenumber\"=>\"121\",\"addr:postcode\"=>\"LS29 7JN\",\"addr:street\"=>\"Main Street\",\"fhrs:id\"=>\"650481\",\"historic\"=>\"monument\",\"source:addr\"=>\"FHRS Open Data\"" }, "geometry": { "type": "Point", "coordinates": [ -1.7508493, 53.9138851 ] } },
	{ "type": "Feature", "properties": { "osm_id": "1702714788", "name": "Saltaire Sandwiches", "amenity": "fast_food", "other_tags": "\"addr:city\"=>\"Shipley\",\"addr:housenumber\"=>\"16\",\"addr:postcode\"=>\"BD18 3LQ\",\"addr:street\"=>\"Victoria Road\",\"addr:village\"=>\"Saltaire\",\"cuisine\"=>\"sandwich\",\"fhrs:id\"=>\"327867\",\"source:addr\"=>\"FHRS Open Data\"" }, "geometry": { "type": "Point", "coordinates": [ -1.7901877, 53.8367736 ] } },
	{ "type": "Feature", "properties": { "osm_id": "1847520182", "name": "Addingham Fisheries", "amenity": "fast_food", "other_tags": "\"cuisine\"=>\"fish_and_chips\"" }, "geometry": { "type": "Point", "coordinates": [ -1.8827218, 53.9439073 ] } },
	{ "type": "Feature", "properties": { "osm_id": "1875074588", "name": "Worth Valley Fisheries", "amenity": "fast_food", "other_tags": "\"addr:city\"=>\"Keighley\",\"addr:postcode\"=>\"BD21 5EH\",\"addr:street\"=>\"Wesley Place\",\"addr:village\"=>\"Ingrow\",\"cuisine\"=>\"fish_and_chips\",\"fhrs:id\"=>\"327288\"" }, "geometry": { "type": "Point", "coordinates": [ -1.916407, 53.8530469 ] } },
	{ "type": "Feature", "properties": { "osm_id": "1876629781", "name": "Rooster's", "amenity": "fast_food", "other_tags": "\"cuisine\"=>\"chicken\",\"phone\"=>\"+441535 608899\"" }, "geometry": { "type": "Point", "coordinates": [ -1.9041474, 53.8674458 ] } },
	{ "type": "Feature", "properties": { "osm_id": "1940702312", "name": "Crown Pizza and Spices", "amenity": "fast_food" }, "geometry": { "type": "Point", "coordinates": [ -1.9090397, 53.8694433 ] } },
	{ "type": "Feature", "properties": { "osm_id": "1957539341", "name": "Pizza Time", "amenity": "fast_food", "other_tags": "\"addr:city\"=>\"Shipley\",\"addr:housenumber\"=>\"6\",\"addr:postcode\"=>\"BD18 3SR\",\"addr:street\"=>\"Commercial Street\",\"fhrs:id\"=>\"327450\",\"source:addr\"=>\"FHRS Open Data\"" }, "geometry": { "type": "Point", "coordinates": [ -1.7765272, 53.8346744 ] } },
	{ "type": "Feature", "properties": { "osm_id": "1957539342", "name": "Saltaire Freid Chicken & Deli", "amenity": "fast_food", "other_tags": "\"old_name\"=>\"Sizzlers\",\"telephone\"=>\"01274 98026\"" }, "geometry": { "type": "Point", "coordinates": [ -1.7812953, 53.835222 ] } },
	{ "type": "Feature", "properties": { "osm_id": "2196334957", "amenity": "fast_food" }, "geometry": { "type": "Point", "coordinates": [ -1.8173791, 53.8162373 ] } },
	{ "type": "Feature", "properties": { "osm_id": "2196359277", "name": "Pizza Nuovo", "amenity": "fast_food", "other_tags": "\"addr:city\"=>\"Bradford\",\"addr:housenumber\"=>\"208\",\"addr:postcode\"=>\"BD9 6NJ\",\"addr:street\"=>\"Haworth Road\",\"cuisine\"=>\"pizza\",\"fhrs:id\"=>\"328229\",\"source:addr\"=>\"FHRS Open Data\"" }, "geometry": { "type": "Point", "coordinates": [ -1.8157993, 53.8161201 ] } },
	{ "type": "Feature", "properties": { "osm_id": "2196359311", "name": "Sandwich Bar", "amenity": "fast_food", "other_tags": "\"addr:city\"=>\"Bradford\",\"addr:street\"=>\"Haworth Road\"" }, "geometry": { "type": "Point", "coordinates": [ -1.8158931, 53.8161249 ] } },
	{ "type": "Feature", "properties": { "osm_id": "2214805608", "name": "Super Wok", "amenity": "fast_food", "other_tags": "\"addr:city\"=>\"Keighley\",\"addr:housenumber\"=>\"170-172\",\"addr:postcode\"=>\"BD21 1BB\",\"addr:street\"=>\"South Street\",\"cuisine\"=>\"chinese\",\"fhrs:id\"=>\"327179\"" }, "geometry": { "type": "Point", "coordinates": [ -1.9144707, 53.8565702 ] } },
	{ "type": "Feature", "properties": { "osm_id": "2262845209", "name": "Balti Ranch", "amenity": "fast_food", "other_tags": "\"addr:city\"=>\"Bradford\",\"addr:housenumber\"=>\"16\",\"addr:postcode\"=>\"BD5 8LX\",\"addr:street\"=>\"Rooley Lane\",\"cuisine\"=>\"indian\",\"fhrs:id\"=>\"326259\"" }, "geometry": { "type": "Point", "coordinates": [ -1.7619315, 53.7681282 ] } },
	{ "type": "Feature", "properties": { "osm_id": "2358538877", "name": "Greens Sandwich Bar", "amenity": "fast_food", "other_tags": "\"cuisine\"=>\"sandwich\"" }, "geometry": { "type": "Point", "coordinates": [ -1.7796004, 53.8347584 ] } },
	{ "type": "Feature", "properties": { "osm_id": "2358548414", "name": "The Cedar Tree", "amenity": "fast_food", "other_tags": "\"addr:city\"=>\"Shipley\",\"addr:housenumber\"=>\"56-58\",\"addr:postcode\"=>\"BD18 3QX\",\"addr:street\"=>\"Westgate\",\"cuisine\"=>\"pizza;kebab;burger\",\"fhrs:id\"=>\"327890\",\"source:addr\"=>\"FHRS Open Data\"" }, "geometry": { "type": "Point", "coordinates": [ -1.7795146, 53.8347346 ] } },
	{ "type": "Feature", "properties": { "osm_id": "2358612133", "name": "Doyle's Fisheries Shipley", "amenity": "fast_food", "other_tags": "\"addr:housenumber\"=>\"67\",\"addr:street\"=>\"Otley Road\",\"cuisine\"=>\"fish_and_chips\",\"phone\"=>\"+44 1274 598555\"" }, "geometry": { "type": "Point", "coordinates": [ -1.7759044, 53.8332137 ] } },
	{ "type": "Feature", "properties": { "osm_id": "2358646363", "name": "Subway", "amenity": "fast_food", "other_tags": "\"addr:city\"=>\"Shipley\",\"addr:housenumber\"=>\"45\",\"addr:postcode\"=>\"BD18 3PY\",\"addr:street\"=>\"Otley Road\",\"cuisine\"=>\"sandwich\",\"fhrs:id\"=>\"325557\",\"source:addr\"=>\"FHRS Open Data\"" }, "geometry": { "type": "Point", "coordinates": [ -1.7760465, 53.8335951 ] } },
	{ "type": "Feature", "properties": { "osm_id": "2974837290", "name": "KFC", "amenity": "fast_food", "other_tags": "\"addr:city\"=>\"Bradford\",\"addr:country\"=>\"GB\",\"addr:housenumber\"=>\"800\",\"addr:postcode\"=>\"BD10 0QS\",\"addr:street\"=>\"Harrogate Road\",\"alt_name\"=>\"Kentucky Fried Chicken\",\"brand\"=>\"KFC\",\"brand:wikidata\"=>\"Q524757\",\"brand:wikipedia\"=>\"en:KFC\",\"cuisine\"=>\"chicken\",\"fhrs:id\"=>\"325114\",\"source:addr\"=>\"FHRS Open Data\",\"takeaway\"=>\"yes\"" }, "geometry": { "type": "Point", "coordinates": [ -1.7121569, 53.8306374 ] } },
	{ "type": "Feature", "properties": { "osm_id": "2974837291", "amenity": "fast_food", "other_tags": "\"cuisine\"=>\"fish_and_chips\"" }, "geometry": { "type": "Point", "coordinates": [ -1.7137126, 53.8316838 ] } },
	{ "type": "Feature", "properties": { "osm_id": "2974837292", "amenity": "fast_food", "other_tags": "\"cuisine\"=>\"sandwich\",\"wheelchair\"=>\"no\"" }, "geometry": { "type": "Point", "coordinates": [ -1.7127282, 53.8310569 ] } },
	{ "type": "Feature", "properties": { "osm_id": "3370130675", "name": "KFC", "amenity": "fast_food", "other_tags": "\"alt_name\"=>\"Kentucky Fried Chicken\",\"brand\"=>\"KFC\",\"brand:wikidata\"=>\"Q524757\",\"brand:wikipedia\"=>\"en:KFC\",\"cuisine\"=>\"chicken\",\"takeaway\"=>\"yes\"" }, "geometry": { "type": "Point", "coordinates": [ -1.7696424, 53.8393862 ] } },
	{ "type": "Feature", "properties": { "osm_id": "3379071693", "name": "Great Wall", "amenity": "fast_food", "other_tags": "\"addr:city\"=>\"Keighley\",\"addr:housenumber\"=>\"159\",\"addr:postcode\"=>\"BD21 2NE\",\"addr:street\"=>\"West lane\",\"fhrs:id\"=>\"327292\",\"toilets:wheelchair\"=>\"no\",\"wheelchair\"=>\"limited\"" }, "geometry": { "type": "Point", "coordinates": [ -1.9189987, 53.8664993 ] } },
	{ "type": "Feature", "properties": { "osm_id": "3443058100", "name": "Casa Pizza", "amenity": "fast_food", "other_tags": "\"addr:city\"=>\"Bradford\",\"addr:housenumber\"=>\"2a\",\"addr:postcode\"=>\"BD14 6JA\",\"addr:street\"=>\"Station Road\",\"cuisine\"=>\"pizza\",\"delivery\"=>\"yes\",\"fhrs:id\"=>\"324619\",\"operator\"=>\"Casa Piza\",\"phone\"=>\"+44 1274 818186\",\"takeaway\"=>\"yes\"" }, "geometry": { "type": "Point", "coordinates": [ -1.8179131, 53.7809665 ] } },
	{ "type": "Feature", "properties": { "osm_id": "3497988097", "name": "Bo King", "amenity": "fast_food", "other_tags": "\"addr:city\"=>\"Bradford\",\"addr:housenumber\"=>\"431\",\"addr:postcode\"=>\"BD4 6LX\",\"addr:street\"=>\"Tong Street\",\"cuisine\"=>\"chinese\",\"fhrs:id\"=>\"326419\",\"source:addr\"=>\"FHRS Open Data\",\"takeaway\"=>\"yes\"" }, "geometry": { "type": "Point", "coordinates": [ -1.709131, 53.7674886 ] } },
	{ "type": "Feature", "properties": { "osm_id": "3497988100", "name": "Spice Balti", "amenity": "fast_food", "other_tags": "\"cuisine\"=>\"curry\",\"takeaway\"=>\"yes\"" }, "geometry": { "type": "Point", "coordinates": [ -1.7093323, 53.7675767 ] } },
	{ "type": "Feature", "properties": { "osm_id": "3660963444", "name": "Fish and Chips", "amenity": "fast_food", "other_tags": "\"cuisine\"=>\"fish_and_chips\"" }, "geometry": { "type": "Point", "coordinates": [ -1.8988384, 53.8264111 ] } },
	{ "type": "Feature", "properties": { "osm_id": "3660969239", "name": "Yama Oriental Cuisine", "amenity": "fast_food", "other_tags": "\"addr:city\"=>\"Bradford\",\"addr:housenumber\"=>\"1\",\"addr:postcode\"=>\"BD13 5DD\",\"addr:street\"=>\"Halifax Road\",\"addr:village\"=>\"Cullingworth\",\"cuisine\"=>\"chinese\",\"fhrs:id\"=>\"327518\"" }, "geometry": { "type": "Point", "coordinates": [ -1.8987043, 53.8261673 ] } },
	{ "type": "Feature", "properties": { "osm_id": "3743299839", "name": "Dave's Village Bakery", "amenity": "fast_food", "other_tags": "\"addr:city\"=>\"Bingley\",\"addr:postcode\"=>\"BD16 2EZ\",\"addr:street\"=>\"Keighley Road\",\"addr:village\"=>\"Crossflatts\",\"cuisine\"=>\"sandwich\"" }, "geometry": { "type": "Point", "coordinates": [ -1.8455789, 53.8613602 ] } },
	{ "type": "Feature", "properties": { "osm_id": "3743299840", "name": "Hot Shots", "amenity": "fast_food", "other_tags": "\"addr:city\"=>\"Bingley\",\"addr:housenumber\"=>\"32\",\"addr:postcode\"=>\"BD16 2EZ\",\"addr:street\"=>\"Keighley Road\",\"addr:village\"=>\"Crossflatts\",\"cuisine\"=>\"pizza;burger\",\"fhrs:id\"=>\"325165\"" }, "geometry": { "type": "Point", "coordinates": [ -1.8456646, 53.8614518 ] } },
	{ "type": "Feature", "properties": { "osm_id": "4037571613", "name": "Southfield Balti", "amenity": "fast_food", "other_tags": "\"addr:city\"=>\"Bradford\",\"addr:housenumber\"=>\"259\",\"addr:postcode\"=>\"BD7 3NN\",\"addr:street\"=>\"Southfield Lane\",\"cuisine\"=>\"pizza,_burger,_kebab\",\"delivery\"=>\"yes\",\"drive_through\"=>\"no\",\"fhrs:id\"=>\"326330\",\"takeaway\"=>\"yes\",\"website\"=>\"https:\/\/take-a-way.co.uk\/menu\/8502\/Southfield%20Balti%20-%20Bradford\/\"" }, "geometry": { "type": "Point", "coordinates": [ -1.7824796, 53.7785405 ] } },
	{ "type": "Feature", "properties": { "osm_id": "4046355971", "name": "Hot Spot", "amenity": "fast_food", "other_tags": "\"addr:city\"=>\"Bradford\",\"addr:housenumber\"=>\"6\",\"addr:postcode\"=>\"BD4 9HN\",\"addr:street\"=>\"The Parade\",\"cuisine\"=>\"pizza,_Burger,_Curry\",\"drive_through\"=>\"no\",\"fhrs:id\"=>\"704453\",\"smoking\"=>\"no\",\"source:addr\"=>\"FHRS Open Data\"" }, "geometry": { "type": "Point", "coordinates": [ -1.7114247, 53.7785745 ] } },
	{ "type": "Feature", "properties": { "osm_id": "4053780091", "name": "Manzil Balti House", "amenity": "fast_food", "other_tags": "\"addr:city\"=>\"Bradford\",\"addr:housenumber\"=>\"4\",\"addr:postcode\"=>\"BD6 3PD\",\"addr:street\"=>\"Torre Road\",\"cuisine\"=>\"indian\",\"delivery\"=>\"yes\",\"fhrs:id\"=>\"325003\",\"takeaway\"=>\"yes\",\"website\"=>\"https:\/\/take-a-way.co.uk\/menu\/8560\/Manzil%20Balti%20House%20-%20Bradford\/\"" }, "geometry": { "type": "Point", "coordinates": [ -1.8088354, 53.7680572 ] } }
]
}
