{
"type": "FeatureCollection",
"crs": { "type": "name", "properties": { "name": "urn:ogc:def:crs:OGC:1.3:CRS84" } },
"features": [
	{ "type": "Feature", "properties": { "osm_id": "317593437", "amenity": "taxi" }, "geometry": { "type": "Point", "coordinates": [ -1.7505784, 53.7917674 ] } },
	{ "type": "Feature", "properties": { "osm_id": "3845064813", "name": "Silsden & Steeton Taxis", "amenity": "taxi", "other_tags": "\"addr:city\"=>\"Keighley\",\"addr:housenumber\"=>\"8\",\"addr:postcode\"=>\"BD20 9LS\",\"addr:street\"=>\"Bradley Road\",\"addr:village\"=>\"Silsden\",\"operator\"=>\"Silsden Steeton Cottingley & Nab Wood Ltd\",\"phone\"=>\"+44 1535 656566\",\"website\"=>\"http:\/\/www.silsdentaxis.co.uk\/\"" }, "geometry": { "type": "Point", "coordinates": [ -1.9391658, 53.91534 ] } },
	{ "type": "Feature", "properties": { "osm_id": "5001106353", "name": "Marquis Taxis", "amenity": "taxi", "other_tags": "\"office\"=>\"yes\",\"phone\"=>\"+44 1274 880188\"" }, "geometry": { "type": "Point", "coordinates": [ -1.8466828, 53.7687429 ] } },
	{ "type": "Feature", "properties": { "osm_id": "5220637778", "amenity": "taxi" }, "geometry": { "type": "Point", "coordinates": [ -1.7558628, 53.7962627 ] } },
	{ "type": "Feature", "properties": { "osm_id": "8280382338", "amenity": "taxi", "other_tags": "\"capacity\"=>\"5\"" }, "geometry": { "type": "Point", "coordinates": [ -1.8380694, 53.8487117 ] } },
	{ "type": "Feature", "properties": { "osm_way_id": "1010188705", "name": "ZIP Private Hire", "amenity": "taxi", "other_tags": "\"addr:city\"=>\"Bradford\",\"addr:housenumber\"=>\"387\",\"addr:postcode\"=>\"BD4 9RU\",\"addr:street\"=>\"Tong Street\",\"branch\"=>\"01274 689999\",\"operator\"=>\"ZIP private hire\",\"website\"=>\"wearezip.co.uk\"" }, "geometry": { "type": "Polygon", "coordinates": [ [ [ -1.7109058, 53.7681964 ], [ -1.7111129, 53.76825 ], [ -1.7111409, 53.7682122 ], [ -1.7112405, 53.768238 ], [ -1.7111782, 53.7683221 ], [ -1.7108715, 53.7682428 ], [ -1.7109058, 53.7681964 ] ] ] } }
]
}
