{
"type": "FeatureCollection",
"crs": { "type": "name", "properties": { "name": "urn:ogc:def:crs:OGC:1.3:CRS84" } },
"features": [
	{ "type": "Feature", "properties": { "osm_id": "747717878", "name": "Walkers Fruit & Veg", "other_tags": "\"shop\"=>\"greengrocer\"" }, "geometry": { "type": "Point", "coordinates": [ -1.7436217, 53.8905197 ] } },
	{ "type": "Feature", "properties": { "osm_id": "2083601550", "name": "N.J Holmes", "other_tags": "\"shop\"=>\"greengrocer\",\"fhrs:id\"=>\"326887\",\"addr:city\"=>\"Keighley\",\"addr:street\"=>\"Hospital Road\",\"source:addr\"=>\"FHRS Open Data\",\"addr:village\"=>\"Riddlesden\",\"addr:postcode\"=>\"BD20 5EP\",\"addr:housenumber\"=>\"3\"" }, "geometry": { "type": "Point", "coordinates": [ -1.880678, 53.8770851 ] } },
	{ "type": "Feature", "properties": { "osm_id": "2971244390", "name": "The Fruit Bowl", "other_tags": "\"shop\"=>\"greengrocer\",\"fhrs:id\"=>\"326801\",\"addr:city\"=>\"Keighley\",\"addr:street\"=>\"Elmsley Street\",\"source:addr\"=>\"FHRS Open Data\",\"addr:village\"=>\"Steeton With Eastburn\",\"addr:postcode\"=>\"BD20 6SE\",\"addr:housenumber\"=>\"4\"" }, "geometry": { "type": "Point", "coordinates": [ -1.9510933, 53.8961599 ] } },
	{ "type": "Feature", "properties": { "osm_id": "3627169425", "other_tags": "\"shop\"=>\"greengrocer\"" }, "geometry": { "type": "Point", "coordinates": [ -1.7503911, 53.9137139 ] } },
	{ "type": "Feature", "properties": { "osm_id": "4525205473", "name": "The Orange Grove", "other_tags": "\"shop\"=>\"greengrocer\",\"phone\"=>\"+441274595005\",\"fhrs:id\"=>\"327356\",\"addr:city\"=>\"Shipley\",\"addr:street\"=>\"Bingley Road\",\"source:addr\"=>\"FHRS Open Data\",\"addr:village\"=>\"Saltaire\",\"addr:postcode\"=>\"BD18 4RS\",\"opening_hours\"=>\"Mo-Sa 08:30-17:30\",\"addr:housenumber\"=>\"26\"" }, "geometry": { "type": "Point", "coordinates": [ -1.7915119, 53.8347995 ] } }
]
}
