{
"type": "FeatureCollection",
"crs": { "type": "name", "properties": { "name": "urn:ogc:def:crs:OGC:1.3:CRS84" } },
"features": [
	{ "type": "Feature", "properties": { "osm_id": "333427400", "name": "Saltaire Newsagents", "other_tags": "\"shop\"=>\"newsagent\",\"addr:city\"=>\"Shipley\",\"addr:village\"=>\"Saltaire\"" }, "geometry": { "type": "Point", "coordinates": [ -1.7899365, 53.8377762 ] } },
	{ "type": "Feature", "properties": { "osm_id": "446295700", "name": "Barnetts News", "other_tags": "\"shop\"=>\"newsagent\"" }, "geometry": { "type": "Point", "coordinates": [ -1.881237, 53.8765254 ] } },
	{ "type": "Feature", "properties": { "osm_id": "446308493", "name": "Ruby News", "other_tags": "\"shop\"=>\"newsagent\",\"wheelchair\"=>\"no\"" }, "geometry": { "type": "Point", "coordinates": [ -1.9197326, 53.8667767 ] } },
	{ "type": "Feature", "properties": { "osm_id": "493712317", "name": "Village News", "other_tags": "\"shop\"=>\"newsagent\"" }, "geometry": { "type": "Point", "coordinates": [ -1.7455824, 53.8913383 ] } },
	{ "type": "Feature", "properties": { "osm_id": "1400456972", "name": "Bargain Booze", "other_tags": "\"shop\"=>\"newsagent\",\"alcohol\"=>\"yes\",\"fhrs:id\"=>\"327805\",\"addr:city\"=>\"Shipley\",\"addr:street\"=>\"Saltaire Road\",\"source:addr\"=>\"FHRS Open Data\",\"addr:postcode\"=>\"BD18 3JN\",\"addr:housenumber\"=>\"59-61\"" }, "geometry": { "type": "Point", "coordinates": [ -1.7878437, 53.8362778 ] } },
	{ "type": "Feature", "properties": { "osm_id": "1584075255", "name": "Keighley Newsagent", "other_tags": "\"shop\"=>\"newsagent\"" }, "geometry": { "type": "Point", "coordinates": [ -1.9097834, 53.8695549 ] } },
	{ "type": "Feature", "properties": { "osm_id": "2054473273", "other_tags": "\"shop\"=>\"newsagent\"" }, "geometry": { "type": "Point", "coordinates": [ -1.7455659, 53.8913553 ] } },
	{ "type": "Feature", "properties": { "osm_id": "2358605898", "name": "Martin's", "other_tags": "\"shop\"=>\"newsagent\",\"fhrs:id\"=>\"327697\",\"addr:city\"=>\"Shipley\",\"addr:street\"=>\"Market Square\",\"source:addr\"=>\"FHRS Open Data\",\"addr:postcode\"=>\"BD18 3QJ\",\"addr:housenumber\"=>\"39\"" }, "geometry": { "type": "Point", "coordinates": [ -1.7778704, 53.8338437 ] } },
	{ "type": "Feature", "properties": { "osm_id": "2414265476", "name": "2001 video library", "other_tags": "\"shop\"=>\"newsagent\"" }, "geometry": { "type": "Point", "coordinates": [ -1.7202274, 53.7974889 ] } },
	{ "type": "Feature", "properties": { "osm_id": "4718321294", "name": "Queensbury Post Office", "amenity": "post_office", "other_tags": "\"shop\"=>\"newsagent\",\"alcohol\"=>\"yes\",\"fhrs:id\"=>\"326304\",\"addr:city\"=>\"Bradford\",\"ref:pol_id\"=>\"134364\",\"addr:street\"=>\"Sandbeds\",\"source:addr\"=>\"FHRS Open Data\",\"addr:village\"=>\"Queensbury\",\"addr:postcode\"=>\"BD13 1AF\",\"addr:housename\"=>\"Cottage News & Off Licence\",\"addr:housenumber\"=>\"22-24\",\"opening_hours:post_office\"=>\"Mo-Sa 09:00-19:30\"" }, "geometry": { "type": "Point", "coordinates": [ -1.8418041, 53.7688796 ] } },
	{ "type": "Feature", "properties": { "osm_id": "5688842052", "name": "Bingley News", "other_tags": "\"shop\"=>\"newsagent\",\"fhrs:id\"=>\"327668\",\"addr:city\"=>\"Bingley\",\"addr:street\"=>\"Main Street\",\"addr:postcode\"=>\"BD16 2HR\",\"addr:housenumber\"=>\"156\"" }, "geometry": { "type": "Point", "coordinates": [ -1.8387455, 53.8486143 ] } }
]
}
