{
"type": "FeatureCollection",
"crs": { "type": "name", "properties": { "name": "urn:ogc:def:crs:OGC:1.3:CRS84" } },
"features": [
	{ "type": "Feature", "properties": { "osm_id": "28164064", "name": "Bar t'at", "amenity": "bar", "other_tags": "\"fhrs:id\"=>\"326760\",\"website\"=>\"http:\/\/www.markettowntaverns.co.uk\/bar-t-at.asp?Tavern=Bar-t-at&Section=Main\",\"alt_name\"=>\"Bart'at;Bar t'at Ale & Wine Bar\",\"operator\"=>\"Market Town Taverns Ltd\",\"addr:city\"=>\"Ilkley\",\"addr:street\"=>\"Cunliffe Road\",\"addr:postcode\"=>\"LS29 9DZ\",\"opening_hours\"=>\"Mo-Sa 12:00-23:00; Su 12:00-22:30\",\"addr:housenumber\"=>\"7\"" }, "geometry": { "type": "Point", "coordinates": [ -1.8260615, 53.9250549 ] } },
	{ "type": "Feature", "properties": { "osm_id": "314620850", "name": "Amp Bar", "amenity": "bar" }, "geometry": { "type": "Point", "coordinates": [ -1.7680885, 53.7912927 ] } },
	{ "type": "Feature", "properties": { "osm_id": "4682012093", "name": "The Record Cafe", "amenity": "bar", "other_tags": "\"phone\"=>\"+44 1274 723143\",\"fhrs:id\"=>\"722279\",\"website\"=>\"https:\/\/therecordcafe.co.uk\/\",\"addr:city\"=>\"Bradford\",\"addr:street\"=>\"North Parade\",\"addr:postcode\"=>\"BD1 3JH\",\"opening_hours\"=>\"Mo-Th 11:00-23:00; Fr-Sa 11:00-00:00; Su 12:00-23:00\",\"addr:housenumber\"=>\"45-47\"" }, "geometry": { "type": "Point", "coordinates": [ -1.7569793, 53.797702 ] } },
	{ "type": "Feature", "properties": { "osm_id": "5209226909", "name": "Winston Churchill", "amenity": "bar", "other_tags": "\"fhrs:id\"=>\"326487\",\"addr:city\"=>\"Bradford\",\"addr:street\"=>\"Wakefield Road\",\"addr:postcode\"=>\"BD4 7EJ\",\"outdoor_seating\"=>\"yes\",\"addr:housenumber\"=>\"431\"" }, "geometry": { "type": "Point", "coordinates": [ -1.7340265, 53.7836039 ] } },
	{ "type": "Feature", "properties": { "osm_id": "5247872546", "name": "Hullabaloo", "amenity": "bar", "other_tags": "\"fhrs:id\"=>\"1176117\",\"addr:city\"=>\"Shipley\",\"addr:street\"=>\"Westgate\",\"source:addr\"=>\"FHRS Open Data\",\"addr:postcode\"=>\"BD18 3QX\",\"opening_hours\"=>\"We-Fr 16:00-23:00; Sa 12:00-23:00; Su 12:00-22:30\",\"addr:housenumber\"=>\"41\"" }, "geometry": { "type": "Point", "coordinates": [ -1.7789528, 53.8346642 ] } },
	{ "type": "Feature", "properties": { "osm_id": "5284195322", "name": "Twelve Cafe Bar", "amenity": "bar", "other_tags": "\"name:en\"=>\"Twelve Cafe Bar\"" }, "geometry": { "type": "Point", "coordinates": [ -1.7664173, 53.8537997 ] } },
	{ "type": "Feature", "properties": { "osm_id": "5684881346", "name": "99 & Main", "amenity": "bar", "other_tags": "\"addr:city\"=>\"Bingley\",\"addr:housenumber\"=>\"99\",\"addr:postcode\"=>\"BD16 2HT\",\"addr:street\"=>\"Main Street\",\"old_name\"=>\"Opulence\",\"shop\"=>\"closed\",\"url\"=>\"http:\/\/99main.co.uk\/\"" }, "geometry": { "type": "Point", "coordinates": [ -1.8382701, 53.8484922 ] } },
	{ "type": "Feature", "properties": { "osm_id": "6379620613", "name": "the bowl pub", "amenity": "bar" }, "geometry": { "type": "Point", "coordinates": [ -1.7463126, 53.7915584 ] } },
	{ "type": "Feature", "properties": { "osm_id": "6506990185", "name": "Brick Box Rooms", "amenity": "bar", "other_tags": "\"fhrs:id\"=>\"873173\",\"addr:city\"=>\"Bradford\",\"addr:street\"=>\"Ivegate\",\"source:addr\"=>\"FHRS Open Data\",\"addr:postcode\"=>\"BD1 1SQ\",\"opening_hours\"=>\"We-Fr 16:00-23:00; Sa 12:00-23:00\",\"addr:housenumber\"=>\"21\"" }, "geometry": { "type": "Point", "coordinates": [ -1.7542355, 53.7938341 ] } },
	{ "type": "Feature", "properties": { "osm_id": "6506990285", "name": "Wallers Brewery (Sunbridgewells)", "amenity": "bar", "other_tags": "\"fhrs:id\"=>\"973022\",\"addr:city\"=>\"Bradford\",\"addr:street\"=>\"Upper Millergate\",\"addr:postcode\"=>\"BD1 1SX\",\"opening_hours\"=>\"Su-Th 11:00-23:00; Fr-Sa 11:00-02:00\",\"addr:housenumber\"=>\"11\"" }, "geometry": { "type": "Point", "coordinates": [ -1.7551068, 53.7940059 ] } },
	{ "type": "Feature", "properties": { "osm_id": "6836869169", "name": "The Gin Lounge", "amenity": "bar" }, "geometry": { "type": "Point", "coordinates": [ -1.8236559, 53.9259971 ] } },
	{ "type": "Feature", "properties": { "osm_id": "7847715690", "name": "Ticket Office Bar", "amenity": "bar", "other_tags": "\"addr:street\"=>\"Station Road\",\"brewery\"=>\"yes\"" }, "geometry": { "type": "Point", "coordinates": [ -1.8217543, 53.9246465 ] } },
	{ "type": "Feature", "properties": { "osm_id": "7878691620", "name": "Fuggle & Golding Tap House", "amenity": "bar", "other_tags": "\"addr:city\"=>\"Ilkley\",\"addr:housenumber\"=>\"30\",\"addr:postcode\"=>\"LS29 8DS\",\"addr:street\"=>\"Leeds Road\",\"fhrs:id\"=>\"1113582\"" }, "geometry": { "type": "Point", "coordinates": [ -1.8210481, 53.9261822 ] } },
	{ "type": "Feature", "properties": { "osm_id": "7878691622", "name": "Brooks", "amenity": "bar", "other_tags": "\"addr:city\"=>\"Ilkley\",\"addr:housenumber\"=>\"26\",\"addr:postcode\"=>\"LS29 8DE\",\"addr:street\"=>\"Brook Street\",\"fhrs:id\"=>\"831147\"" }, "geometry": { "type": "Point", "coordinates": [ -1.8232301, 53.9255966 ] } },
	{ "type": "Feature", "properties": { "osm_id": "7931918471", "name": "The Ambassador Club", "amenity": "bar", "other_tags": "\"addr:city\"=>\"Bradford\",\"addr:housenumber\"=>\"90\",\"addr:postcode\"=>\"BD1 2NJ\",\"addr:street\"=>\"Sunbridge Road\",\"fhrs:id\"=>\"1273604\"" }, "geometry": { "type": "Point", "coordinates": [ -1.7573336, 53.7941539 ] } },
	{ "type": "Feature", "properties": { "osm_id": null, "centroid": { "latitude": 53.865528, "longitude": -1.909872 }, "osm_way_id": "154045693", "name": "K2", "amenity": "bar", "building": "yes" }, "geometry": { "type": "Polygon", "coordinates": [ [ [ -1.9099562, 53.8655922 ], [ -1.9097818, 53.8655889 ], [ -1.9097885, 53.8654641 ], [ -1.909963, 53.8654673 ], [ -1.9099562, 53.8655922 ] ] ] } },
	{ "type": "Feature", "properties": { "osm_id": null, "centroid": { "latitude": 53.912420, "longitude": -1.937798 }, "osm_way_id": "296153929", "amenity": "bar", "building": "yes" }, "geometry": { "type": "Polygon", "coordinates": [ [ [ -1.9378758, 53.9123788 ], [ -1.9378856, 53.9124583 ], [ -1.9377443, 53.9124622 ], [ -1.9377194, 53.9124502 ], [ -1.9377101, 53.9123883 ], [ -1.9378758, 53.9123788 ] ] ] } },
	{ "type": "Feature", "properties": { "osm_id": null, "centroid": { "latitude": 53.834986, "longitude": -1.794212 }, "osm_way_id": "501055387", "name": "Cap&Collar", "amenity": "bar", "building": "yes", "other_tags": "\"addr:city\"=>\"Shipley\",\"addr:housenumber\"=>\"4\",\"addr:postcode\"=>\"BD18 4SJ\",\"addr:street\"=>\"Queen's Road\",\"addr:village\"=>\"Saltaire\",\"fhrs:id\"=>\"722275\",\"name:en\"=>\"Cap and Collar\",\"opening_hours\"=>\"Tu-Th 17:00-22:00; Fr 16:00-23:00; Sa 13:00-23:00; Su 13:00-18:00\"" }, "geometry": { "type": "Polygon", "coordinates": [ [ [ -1.7940955, 53.8350171 ], [ -1.7941132, 53.8349579 ], [ -1.7941204, 53.8349337 ], [ -1.7943286, 53.8349554 ], [ -1.7943037, 53.8350388 ], [ -1.7941693, 53.8350248 ], [ -1.7940955, 53.8350171 ] ] ] } }
]
}
