{
"type": "FeatureCollection",
"crs": { "type": "name", "properties": { "name": "urn:ogc:def:crs:OGC:1.3:CRS84" } },
"features": [
	{ "type": "Feature", "properties": { "osm_id": "747717878", "name": "Walkers Fruit & Veg", "other_tags": "\"shop\"=>\"greengrocer\"" }, "geometry": { "type": "Point", "coordinates": [ -1.7436217, 53.8905197 ] } },
	{ "type": "Feature", "properties": { "osm_id": "2083601550", "name": "N.J Holmes", "other_tags": "\"addr:city\"=>\"Keighley\",\"addr:housenumber\"=>\"3\",\"addr:postcode\"=>\"BD20 5EP\",\"addr:street\"=>\"Hospital Road\",\"addr:village\"=>\"Riddlesden\",\"fhrs:id\"=>\"326887\",\"shop\"=>\"greengrocer\",\"source:addr\"=>\"FHRS Open Data\"" }, "geometry": { "type": "Point", "coordinates": [ -1.880678, 53.8770851 ] } },
	{ "type": "Feature", "properties": { "osm_id": "2971244390", "name": "The Fruit Bowl", "other_tags": "\"addr:city\"=>\"Keighley\",\"addr:housenumber\"=>\"4\",\"addr:postcode\"=>\"BD20 6SE\",\"addr:street\"=>\"Elmsley Street\",\"addr:village\"=>\"Steeton With Eastburn\",\"fhrs:id\"=>\"326801\",\"shop\"=>\"greengrocer\",\"source:addr\"=>\"FHRS Open Data\"" }, "geometry": { "type": "Point", "coordinates": [ -1.9510933, 53.8961599 ] } },
	{ "type": "Feature", "properties": { "osm_id": "3627169425", "other_tags": "\"shop\"=>\"greengrocer\"" }, "geometry": { "type": "Point", "coordinates": [ -1.7503911, 53.9137139 ] } },
	{ "type": "Feature", "properties": { "osm_id": "4525205473", "name": "The Orange Grove", "other_tags": "\"addr:city\"=>\"Shipley\",\"addr:housenumber\"=>\"26\",\"addr:postcode\"=>\"BD18 4RS\",\"addr:street\"=>\"Bingley Road\",\"addr:village\"=>\"Saltaire\",\"fhrs:id\"=>\"327356\",\"opening_hours\"=>\"Mo-Sa 08:30-17:30\",\"phone\"=>\"+441274595005\",\"shop\"=>\"greengrocer\",\"source:addr\"=>\"FHRS Open Data\"" }, "geometry": { "type": "Point", "coordinates": [ -1.7915119, 53.8347995 ] } }
]
}
