{
"type": "FeatureCollection",
"crs": { "type": "name", "properties": { "name": "urn:ogc:def:crs:OGC:1.3:CRS84" } },
"features": [
	{ "type": "Feature", "properties": { "osm_id": "308920990", "other_tags": "\"shop\"=>\"butcher\"" }, "geometry": { "type": "Point", "coordinates": [ -1.771823, 53.8090249 ] } },
	{ "type": "Feature", "properties": { "osm_id": "497392239", "name": "Sutcliffe's", "other_tags": "\"addr:city\"=>\"Shipley\",\"addr:country\"=>\"GB\",\"addr:housenumber\"=>\"14\",\"addr:postcode\"=>\"BD18 4LZ\",\"addr:street\"=>\"Katherine Street\",\"addr:village\"=>\"Saltaire\",\"opening_hours\"=>\"Mo 08:00-16:00; We-Fr 08:00-16:30; Sa 08:00-13:00\",\"shop\"=>\"butcher\"" }, "geometry": { "type": "Point", "coordinates": [ -1.7930488, 53.836071 ] } },
	{ "type": "Feature", "properties": { "osm_id": "662441234", "name": "Chelwood Butchers", "other_tags": "\"shop\"=>\"butcher\"" }, "geometry": { "type": "Point", "coordinates": [ -1.721666, 53.7713869 ] } },
	{ "type": "Feature", "properties": { "osm_id": "872399543", "name": "John R. Summers", "other_tags": "\"shop\"=>\"butcher\"" }, "geometry": { "type": "Point", "coordinates": [ -1.8218449, 53.7825013 ] } },
	{ "type": "Feature", "properties": { "osm_id": "2082529838", "name": "IH & J Hewitt", "other_tags": "\"addr:city\"=>\"Keighley\",\"addr:housenumber\"=>\"26\",\"addr:postcode\"=>\"BD20 5AT\",\"addr:street\"=>\"Bar Lane\",\"shop\"=>\"butcher\"" }, "geometry": { "type": "Point", "coordinates": [ -1.8857209, 53.8773734 ] } },
	{ "type": "Feature", "properties": { "osm_id": "2195805627", "other_tags": "\"shop\"=>\"butcher\"" }, "geometry": { "type": "Point", "coordinates": [ -1.7579464, 53.7963973 ] } },
	{ "type": "Feature", "properties": { "osm_id": "2195805638", "other_tags": "\"shop\"=>\"butcher\"" }, "geometry": { "type": "Point", "coordinates": [ -1.7578606, 53.7962169 ] } },
	{ "type": "Feature", "properties": { "osm_id": "2195805678", "other_tags": "\"shop\"=>\"butcher\"" }, "geometry": { "type": "Point", "coordinates": [ -1.757807, 53.7963087 ] } },
	{ "type": "Feature", "properties": { "osm_id": "2358605899", "name": "John Kearns", "other_tags": "\"addr:city\"=>\"Shipley\",\"addr:housenumber\"=>\"38\",\"addr:postcode\"=>\"BD18 3QJ\",\"addr:street\"=>\"Market Square\",\"fhrs:id\"=>\"327696\",\"shop\"=>\"butcher\",\"source:addr\"=>\"FHRS Open Data\"" }, "geometry": { "type": "Point", "coordinates": [ -1.7778624, 53.8338167 ] } },
	{ "type": "Feature", "properties": { "osm_id": "2661206215", "name": "Lishman's", "other_tags": "\"shop\"=>\"butcher\"" }, "geometry": { "type": "Point", "coordinates": [ -1.821616, 53.9263725 ] } },
	{ "type": "Feature", "properties": { "osm_id": "3660972192", "name": "Ellisons Butchers", "other_tags": "\"addr:city\"=>\"Bradford\",\"addr:housenumber\"=>\"52-56\",\"addr:postcode\"=>\"BD13 5HD\",\"addr:street\"=>\"Halifax Road\",\"addr:village\"=>\"Cullingworth\",\"fhrs:id\"=>\"327522\",\"shop\"=>\"butcher\",\"wheelchair\"=>\"no\"" }, "geometry": { "type": "Point", "coordinates": [ -1.898589, 53.8270966 ] } }
]
}
