{
"type": "FeatureCollection",
"crs": { "type": "name", "properties": { "name": "urn:ogc:def:crs:OGC:1.3:CRS84" } },
"features": [
	{ "type": "Feature", "properties": { "osm_id": "28164064", "name": "Bar t'at", "amenity": "bar", "other_tags": "\"fhrs:id\"=>\"326760\",\"website\"=>\"http:\/\/www.markettowntaverns.co.uk\/bar-t-at.asp?Tavern=Bar-t-at&Section=Main\",\"alt_name\"=>\"Bart'at;Bar t'at Ale & Wine Bar\",\"operator\"=>\"Market Town Taverns Ltd\",\"addr:city\"=>\"Ilkley\",\"addr:street\"=>\"Cunliffe Road\",\"addr:postcode\"=>\"LS29 9DZ\",\"opening_hours\"=>\"Mo-Sa 12:00-23:00; Su 12:00-22:30\",\"addr:housenumber\"=>\"7\"" }, "geometry": { "type": "Point", "coordinates": [ -1.8260615, 53.9250549 ] } },
	{ "type": "Feature", "properties": { "osm_id": "314620850", "name": "Amp Bar", "amenity": "bar" }, "geometry": { "type": "Point", "coordinates": [ -1.7680885, 53.7912927 ] } },
	{ "type": "Feature", "properties": { "osm_id": "4682012093", "name": "The Record Cafe", "amenity": "bar", "other_tags": "\"phone\"=>\"+44 1274 723143\",\"fhrs:id\"=>\"722279\",\"website\"=>\"https:\/\/therecordcafe.co.uk\/\",\"addr:city\"=>\"Bradford\",\"addr:street\"=>\"North Parade\",\"addr:postcode\"=>\"BD1 3JH\",\"opening_hours\"=>\"Mo-Th 11:00-23:00; Fr-Sa 11:00-00:00; Su 12:00-23:00\",\"addr:housenumber\"=>\"45-47\"" }, "geometry": { "type": "Point", "coordinates": [ -1.7569793, 53.797702 ] } },
	{ "type": "Feature", "properties": { "osm_id": "5209226909", "name": "Winston Churchill", "amenity": "bar", "other_tags": "\"fhrs:id\"=>\"326487\",\"addr:city\"=>\"Bradford\",\"addr:street\"=>\"Wakefield Road\",\"addr:postcode\"=>\"BD4 7EJ\",\"outdoor_seating\"=>\"yes\",\"addr:housenumber\"=>\"431\"" }, "geometry": { "type": "Point", "coordinates": [ -1.7340265, 53.7836039 ] } },
	{ "type": "Feature", "properties": { "osm_id": "5247872546", "name": "Hullabaloo", "amenity": "bar", "other_tags": "\"fhrs:id\"=>\"1176117\",\"addr:city\"=>\"Shipley\",\"addr:street\"=>\"Westgate\",\"source:addr\"=>\"FHRS Open Data\",\"addr:postcode\"=>\"BD18 3QX\",\"opening_hours\"=>\"We-Fr 16:00-23:00; Sa 12:00-23:00; Su 12:00-22:30\",\"addr:housenumber\"=>\"41\"" }, "geometry": { "type": "Point", "coordinates": [ -1.7789528, 53.8346642 ] } },
	{ "type": "Feature", "properties": { "osm_id": "5284195322", "name": "Twelve Cafe Bar", "amenity": "bar", "other_tags": "\"name:en\"=>\"Twelve Cafe Bar\"" }, "geometry": { "type": "Point", "coordinates": [ -1.7664173, 53.8537997 ] } },
	{ "type": "Feature", "properties": { "osm_id": "5684881346", "name": "99 & Main", "amenity": "bar", "other_tags": "\"shop\"=>\"closed\",\"old_name\"=>\"Opulence\",\"addr:city\"=>\"Bingley\",\"addr:street\"=>\"Main Street\",\"addr:housenumber\"=>\"99\"" }, "geometry": { "type": "Point", "coordinates": [ -1.8382701, 53.8484922 ] } },
	{ "type": "Feature", "properties": { "osm_id": "6379620613", "name": "the bowl pub", "amenity": "bar" }, "geometry": { "type": "Point", "coordinates": [ -1.7463126, 53.7915584 ] } },
	{ "type": "Feature", "properties": { "osm_id": "6506990185", "name": "Brick Box Rooms", "amenity": "bar", "other_tags": "\"fhrs:id\"=>\"873173\",\"addr:city\"=>\"Bradford\",\"addr:street\"=>\"Ivegate\",\"source:addr\"=>\"FHRS Open Data\",\"addr:postcode\"=>\"BD1 1SQ\",\"opening_hours\"=>\"We-Fr 16:00-23:00; Sa 12:00-23:00\",\"addr:housenumber\"=>\"21\"" }, "geometry": { "type": "Point", "coordinates": [ -1.7542355, 53.7938341 ] } },
	{ "type": "Feature", "properties": { "osm_id": "6506990285", "name": "Wallers Brewery (Sunbridgewells)", "amenity": "bar", "other_tags": "\"fhrs:id\"=>\"973022\",\"addr:city\"=>\"Bradford\",\"addr:street\"=>\"Upper Millergate\",\"addr:postcode\"=>\"BD1 1SX\",\"opening_hours\"=>\"Su-Th 11:00-23:00; Fr-Sa 11:00-02:00\",\"addr:housenumber\"=>\"11\"" }, "geometry": { "type": "Point", "coordinates": [ -1.7551068, 53.7940059 ] } },
	{ "type": "Feature", "properties": { "osm_id": "6836869169", "name": "The Gin Lounge", "amenity": "bar" }, "geometry": { "type": "Point", "coordinates": [ -1.8236559, 53.9259971 ] } },
	{ "type": "Feature", "properties": { "osm_id": "7847715690", "name": "Ticket Office Bar", "amenity": "bar", "other_tags": "\"addr:street\"=>\"Station Road\",\"brewery\"=>\"yes\"" }, "geometry": { "type": "Point", "coordinates": [ -1.8217543, 53.9246465 ] } }
]
}
