{
"type": "FeatureCollection",
"crs": { "type": "name", "properties": { "name": "urn:ogc:def:crs:OGC:1.3:CRS84" } },
"features": [
	{ "type": "Feature", "properties": { "osm_id": "529090412", "name": "Wynsors World of Shoes", "other_tags": "\"shop\"=>\"shoes\"" }, "geometry": { "type": "Point", "coordinates": [ -1.7091309, 53.7662573 ] } },
	{ "type": "Feature", "properties": { "osm_id": "2195805644", "name": "Clarks", "other_tags": "\"shop\"=>\"shoes\",\"brand\"=>\"Clarks\",\"brand:wikidata\"=>\"Q1095857\",\"brand:wikipedia\"=>\"en:C. & J. Clark\"" }, "geometry": { "type": "Point", "coordinates": [ -1.7550389, 53.8016379 ] } },
	{ "type": "Feature", "properties": { "osm_id": "4920487989", "name": "Shoe Zone", "other_tags": "\"shop\"=>\"shoes\"" }, "geometry": { "type": "Point", "coordinates": [ -1.779044, 53.8325272 ] } },
	{ "type": "Feature", "properties": { "osm_id": "5288501711", "name": "Shoobox", "other_tags": "\"shop\"=>\"shoes\",\"addr:city\"=>\"Bingley\",\"addr:street\"=>\"Main Street\",\"addr:postcode\"=>\"BD16 1AJ\",\"addr:housenumber\"=>\"137\"" }, "geometry": { "type": "Point", "coordinates": [ -1.8374533, 53.8474166 ] } },
	{ "type": "Feature", "properties": { "osm_id": "6836930079", "name": "Ilkley Shoe Company", "other_tags": "\"shop\"=>\"shoes\"" }, "geometry": { "type": "Point", "coordinates": [ -1.8243861, 53.9249948 ] } }
]
}
