{
"type": "FeatureCollection",
"crs": { "type": "name", "properties": { "name": "urn:ogc:def:crs:OGC:1.3:CRS84" } },
"features": [
	{ "type": "Feature", "properties": { "osm_id": "1655189889", "name": "Pets at Home", "amenity": "shop", "other_tags": "\"shop\"=>\"pet\",\"addr:city\"=>\"Keighley\",\"addr:street\"=>\"Hard Ings Road\",\"addr:district\"=>\"Keighley Retail Park\",\"addr:postcode\"=>\"BD21 3NJ\"" }, "geometry": { "type": "Point", "coordinates": [ -1.906269, 53.8746382 ] } },
	{ "type": "Feature", "properties": { "osm_id": "1655189898", "name": "Poundstretcher", "amenity": "shop", "other_tags": "\"shop\"=>\"supermarket\",\"old_name\"=>\"Dreams\",\"addr:city\"=>\"Keighley\",\"addr:street\"=>\"Hard Ings Road\",\"addr:district\"=>\"Keighley Retail Park\",\"addr:postcode\"=>\"BD21 3NJ\",\"addr:housename\"=>\"Unit 1\"" }, "geometry": { "type": "Point", "coordinates": [ -1.9064402, 53.8749997 ] } },
	{ "type": "Feature", "properties": { "osm_id": "1655189902", "name": "Halfords", "amenity": "shop", "other_tags": "\"shop\"=>\"car_parts;bicycle\",\"addr:city\"=>\"Keighley\",\"addr:street\"=>\"Hard Ings Road\",\"addr:district\"=>\"Keighley Retail Park\",\"addr:postcode\"=>\"BD21 3NJ\"" }, "geometry": { "type": "Point", "coordinates": [ -1.9063535, 53.8748209 ] } },
	{ "type": "Feature", "properties": { "osm_id": "5688842047", "name": "Little England", "amenity": "shop", "other_tags": "\"shop\"=>\"house_interior\",\"website\"=>\"http:\/\/littleengland.build\/\",\"addr:city\"=>\"Bingley\",\"addr:street\"=>\"Main Street\",\"old:fhrs:id\"=>\"327665\",\"addr:postcode\"=>\"BD16 2HL\",\"addr:housenumber\"=>\"132\"" }, "geometry": { "type": "Point", "coordinates": [ -1.8393222, 53.8494006 ] } },
	{ "type": "Feature", "properties": { "osm_id": "5688842049", "name": "Feature Radiators Ltd", "amenity": "shop", "other_tags": "\"shop\"=>\"radiators\",\"website\"=>\"https:\/\/www.featureradiators.co.uk\/\",\"addr:city\"=>\"Bingley\",\"addr:street\"=>\"Main Street\",\"addr:postcode\"=>\"BD16 2HL\",\"addr:housename\"=>\"The Old Post Office\",\"addr:housenumber\"=>\"134-140\"" }, "geometry": { "type": "Point", "coordinates": [ -1.8392551, 53.8493136 ] } }
]
}
