{
"type": "FeatureCollection",
"crs": { "type": "name", "properties": { "name": "urn:ogc:def:crs:OGC:1.3:CRS84" } },
"features": [
	{ "type": "Feature", "properties": { "osm_id": "333427397", "name": "Salts Village Bakery & Café", "amenity": "cafe", "other_tags": "\"addr:city\"=>\"Shipley\",\"addr:housenumber\"=>\"8\",\"addr:postcode\"=>\"BD18 3LA\",\"addr:street\"=>\"Victoria Road\",\"addr:village\"=>\"Saltaire\",\"fhrs:id\"=>\"327870\",\"shop\"=>\"bakery\",\"source:addr\"=>\"FHRS Open Data\"" }, "geometry": { "type": "Point", "coordinates": [ -1.789902, 53.8378492 ] } },
	{ "type": "Feature", "properties": { "osm_id": "685938319", "name": "J J Moores", "other_tags": "\"addr:city\"=>\"Bradford\",\"addr:housenumber\"=>\"1\",\"addr:postcode\"=>\"BD4 9HN\",\"addr:street\"=>\"The Parade\",\"fhrs:id\"=>\"326389\",\"shop\"=>\"bakery\",\"source:addr\"=>\"FHRS Open Data\"" }, "geometry": { "type": "Point", "coordinates": [ -1.7115481, 53.7781577 ] } },
	{ "type": "Feature", "properties": { "osm_id": "747526539", "name": "The Village Bakery", "other_tags": "\"shop\"=>\"bakery\"" }, "geometry": { "type": "Point", "coordinates": [ -1.7455178, 53.8912826 ] } },
	{ "type": "Feature", "properties": { "osm_id": "1586384934", "name": "Wilds", "other_tags": "\"addr:city\"=>\"Bingley\",\"addr:housenumber\"=>\"30B\",\"addr:postcode\"=>\"BD16 4JQ\",\"addr:street\"=>\"Park Road\",\"fhrs:id\"=>\"327778\",\"operator\"=>\"J Wild (Confectioners) Ltd\",\"shop\"=>\"bakery\"" }, "geometry": { "type": "Point", "coordinates": [ -1.836511, 53.8498052 ] } },
	{ "type": "Feature", "properties": { "osm_id": "1685213289", "name": "Moin Moin Bäckerei", "other_tags": "\"shop\"=>\"bakery\"" }, "geometry": { "type": "Point", "coordinates": [ -1.8236599, 53.9260557 ] } },
	{ "type": "Feature", "properties": { "osm_id": "1959492749", "name": "Kashmir Crown Bakeries", "other_tags": "\"shop\"=>\"bakery\"" }, "geometry": { "type": "Point", "coordinates": [ -1.9031494, 53.8705815 ] } },
	{ "type": "Feature", "properties": { "osm_id": "3583961855", "name": "Grandma Wild's Bisquits Bakery", "other_tags": "\"addr:city\"=>\"Keighley\",\"addr:housename\"=>\"The Bakery\",\"addr:postcode\"=>\"BD20 6RB\",\"addr:street\"=>\"Station Road\",\"addr:village\"=>\"Steeton\",\"fhrs:id\"=>\"325015\",\"shop\"=>\"bakery\",\"website\"=>\"www.grandma-wilds.co.uk\"" }, "geometry": { "type": "Point", "coordinates": [ -1.9500357, 53.8996953 ] } },
	{ "type": "Feature", "properties": { "osm_id": "4186193046", "name": "Nafees Bakers", "other_tags": "\"addr:city\"=>\"Bradford\",\"addr:housenumber\"=>\"210-212\",\"addr:postcode\"=>\"BD9 5AJ\",\"addr:street\"=>\"Lilycroft Road\",\"fhrs:id\"=>\"328369\",\"shop\"=>\"bakery\",\"source:addr\"=>\"FHRS Open Data\"" }, "geometry": { "type": "Point", "coordinates": [ -1.7846896, 53.8065924 ] } },
	{ "type": "Feature", "properties": { "osm_id": "4202245414", "name": "The Loafer Bakery", "other_tags": "\"addr:city\"=>\"Ilkley\",\"addr:housenumber\"=>\"4\",\"addr:postcode\"=>\"LS29 8HA\",\"addr:street\"=>\"Station Road\",\"fhrs:id\"=>\"327207\",\"shop\"=>\"bakery\",\"source:addr\"=>\"FHRS Open Data\"" }, "geometry": { "type": "Point", "coordinates": [ -1.8219694, 53.9243634 ] } },
	{ "type": "Feature", "properties": { "osm_id": "4525205462", "name": "Melvyn Davis", "other_tags": "\"addr:city\"=>\"Shipley\",\"addr:housenumber\"=>\"32A\",\"addr:postcode\"=>\"BD18 4RU\",\"addr:street\"=>\"Bingley Road\",\"addr:village\"=>\"Saltaire\",\"fhrs:id\"=>\"327358\",\"shop\"=>\"bakery\",\"source:addr\"=>\"FHRS Open Data\"" }, "geometry": { "type": "Point", "coordinates": [ -1.7919759, 53.8348945 ] } }
]
}
