{
"type": "FeatureCollection",
"crs": { "type": "name", "properties": { "name": "urn:ogc:def:crs:OGC:1.3:CRS84" } },
"features": [
	{ "type": "Feature", "properties": { "osm_id": "28150154", "name": "Mario's Pizzas", "amenity": "fast_food" }, "geometry": { "type": "Point", "coordinates": [ -1.824967, 53.9264012 ] } },
	{ "type": "Feature", "properties": { "osm_id": "28164119", "name": "Domino's", "amenity": "fast_food", "other_tags": "\"brand\"=>\"Domino's\",\"brand:wikidata\"=>\"Q839466\",\"brand:wikipedia\"=>\"en:Domino's Pizza\",\"cuisine\"=>\"pizza\",\"takeaway\"=>\"yes\"" }, "geometry": { "type": "Point", "coordinates": [ -1.819639, 53.9243773 ] } },
	{ "type": "Feature", "properties": { "osm_id": "28196079", "name": "Valentino's", "amenity": "fast_food", "other_tags": "\"addr:city\"=>\"Ilkley\",\"addr:housenumber\"=>\"28\",\"addr:street\"=>\"Brook Street\",\"cuisine\"=>\"pizza\"" }, "geometry": { "type": "Point", "coordinates": [ -1.8232253, 53.9256385 ] } },
	{ "type": "Feature", "properties": { "osm_id": "28196085", "name": "Lemon Tree", "amenity": "fast_food", "other_tags": "\"cuisine\"=>\"chinese\",\"fhrs:id\"=>\"326951\",\"addr:city\"=>\"Ilkley\",\"addr:street\"=>\"Leeds Road\",\"source:addr\"=>\"FHRS Open Data\",\"addr:postcode\"=>\"LS29 8DH\",\"addr:housenumber\"=>\"5\"" }, "geometry": { "type": "Point", "coordinates": [ -1.8230025, 53.9262093 ] } },
	{ "type": "Feature", "properties": { "osm_id": "28196095", "name": "Franko'z", "amenity": "fast_food", "other_tags": "\"cuisine\"=>\"fish_and_chips\"" }, "geometry": { "type": "Point", "coordinates": [ -1.8223395, 53.9263183 ] } },
	{ "type": "Feature", "properties": { "osm_id": "28196526", "name": "The Shalimar", "amenity": "fast_food", "other_tags": "\"cuisine\"=>\"indian\",\"fhrs:id\"=>\"327067\",\"addr:city\"=>\"Ilkley\",\"addr:street\"=>\"New Brook Street\",\"source:addr\"=>\"FHRS Open Data\",\"addr:postcode\"=>\"LS29 8DQ\",\"addr:housenumber\"=>\"13\"" }, "geometry": { "type": "Point", "coordinates": [ -1.8232369, 53.9266617 ] } },
	{ "type": "Feature", "properties": { "osm_id": "289815017", "name": "McDonald's", "amenity": "fast_food", "other_tags": "\"cuisine\"=>\"burger\",\"fhrs:id\"=>\"325982\",\"addr:city\"=>\"Bradford\",\"wheelchair\"=>\"yes\",\"addr:street\"=>\"Leeds Road\",\"source:addr\"=>\"FHRS Open Data\",\"addr:postcode\"=>\"BD3 7NH\",\"addr:housenumber\"=>\"1003\",\"toilets:wheelchair\"=>\"yes\",\"wheelchair:description\"=>\"wheelchair door doesn't work but staff assisted. Card points a little high but reachable\"" }, "geometry": { "type": "Point", "coordinates": [ -1.7089446, 53.8007154 ] } },
	{ "type": "Feature", "properties": { "osm_id": "300600259", "name": "McDonald's", "amenity": "fast_food", "other_tags": "\"cuisine\"=>\"burger\",\"fhrs:id\"=>\"326266\",\"addr:city\"=>\"Bradford\",\"addr:street\"=>\"Rooley Lane\",\"source:addr\"=>\"FHRS Open Data\",\"addr:postcode\"=>\"BD5 8JY\"" }, "geometry": { "type": "Point", "coordinates": [ -1.7476201, 53.7687856 ] } },
	{ "type": "Feature", "properties": { "osm_id": "301279822", "name": "Fish & Chips", "amenity": "fast_food" }, "geometry": { "type": "Point", "coordinates": [ -1.7747069, 53.7762962 ] } },
	{ "type": "Feature", "properties": { "osm_id": "302740026", "name": "Fish & Chips", "amenity": "fast_food" }, "geometry": { "type": "Point", "coordinates": [ -1.7597617, 53.7750655 ] } },
	{ "type": "Feature", "properties": { "osm_id": "311529858", "name": "McDonald's", "amenity": "fast_food", "other_tags": "\"cuisine\"=>\"burger\",\"fhrs:id\"=>\"326654\",\"addr:city\"=>\"Bradford\",\"addr:street\"=>\"Bradford Road\",\"source:addr\"=>\"FHRS Open Data\",\"addr:village\"=>\"Idle\",\"addr:postcode\"=>\"BD10 8EG\",\"addr:housenumber\"=>\"285\"" }, "geometry": { "type": "Point", "coordinates": [ -1.7349055, 53.8245257 ] } },
	{ "type": "Feature", "properties": { "osm_id": "316226176", "name": "Piri Piri Chicken", "amenity": "fast_food" }, "geometry": { "type": "Point", "coordinates": [ -1.7588608, 53.790226 ] } },
	{ "type": "Feature", "properties": { "osm_id": "321446267", "name": "Paley Chinese Take Away", "amenity": "fast_food", "other_tags": "\"cuisine\"=>\"chinese\",\"addr:street\"=>\"Paley Road\"" }, "geometry": { "type": "Point", "coordinates": [ -1.7399603, 53.7829802 ] } },
	{ "type": "Feature", "properties": { "osm_id": "337430058", "name": "Springs", "amenity": "fast_food", "other_tags": "\"fhrs:id\"=>\"324908\",\"addr:city\"=>\"Bradford\",\"addr:street\"=>\"Laisteridge Lane\",\"source:addr\"=>\"FHRS Open Data\",\"addr:postcode\"=>\"BD7 1RD\",\"addr:housenumber\"=>\"16a\"" }, "geometry": { "type": "Point", "coordinates": [ -1.7669256, 53.7886011 ] } },
	{ "type": "Feature", "properties": { "osm_id": "382568484", "name": "Chach Valley", "amenity": "fast_food", "other_tags": "\"fhrs:id\"=>\"324793\",\"addr:city\"=>\"Bradford\",\"addr:street\"=>\"Whetley Lane\",\"source:addr\"=>\"FHRS Open Data\",\"addr:postcode\"=>\"BD8 9DS\",\"addr:housenumber\"=>\"107-109\"" }, "geometry": { "type": "Point", "coordinates": [ -1.7787987, 53.8027764 ] } },
	{ "type": "Feature", "properties": { "osm_id": "382568575", "name": "Dial a Roti", "amenity": "fast_food", "other_tags": "\"fhrs:id\"=>\"325330\",\"addr:city\"=>\"Bradford\",\"addr:street\"=>\"Heaton Road\",\"source:addr\"=>\"FHRS Open Data\",\"addr:postcode\"=>\"BD8 8RA\",\"addr:housenumber\"=>\"20\"" }, "geometry": { "type": "Point", "coordinates": [ -1.7759784, 53.8069282 ] } },
	{ "type": "Feature", "properties": { "osm_id": "413272871", "name": "Goodall of Tongs Icecream", "amenity": "fast_food", "other_tags": "\"addr:city\"=>\"Bradford\",\"addr:street\"=>\"Tong Lane\",\"addr:village\"=>\"Tong\",\"addr:postcode\"=>\"BD4 0RP\"" }, "geometry": { "type": "Point", "coordinates": [ -1.6624802, 53.7716016 ] } },
	{ "type": "Feature", "properties": { "osm_id": "415990591", "name": "Mahmood's", "amenity": "fast_food", "other_tags": "\"fhrs:id\"=>\"328188\",\"addr:city\"=>\"Bradford\",\"addr:street\"=>\"Great Horton Road\",\"source:addr\"=>\"FHRS Open Data\",\"addr:postcode\"=>\"BD7 1QJ\",\"addr:housenumber\"=>\"346\"" }, "geometry": { "type": "Point", "coordinates": [ -1.7736887, 53.7872462 ] } },
	{ "type": "Feature", "properties": { "osm_id": "426615128", "name": "Paprika Lounge", "amenity": "fast_food", "other_tags": "\"cuisine\"=>\"asian\",\"fhrs:id\"=>\"328260\",\"old_name\"=>\"The Delvers\",\"takeaway\"=>\"yes\",\"addr:city\"=>\"Bradford\",\"addr:street\"=>\"Highgate\",\"was:amenity\"=>\"pub\",\"addr:village\"=>\"Heaton\",\"addr:postcode\"=>\"BD9 4BE\",\"addr:housenumber\"=>\"46-50\"" }, "geometry": { "type": "Point", "coordinates": [ -1.7873817, 53.8159418 ] } },
	{ "type": "Feature", "properties": { "osm_id": "455680104", "name": "McDonald's", "amenity": "fast_food", "other_tags": "\"brand\"=>\"McDonald's\",\"cuisine\"=>\"burger\",\"fhrs:id\"=>\"325170\",\"takeaway\"=>\"yes\",\"addr:city\"=>\"Keighley\",\"wheelchair\"=>\"yes\",\"addr:street\"=>\"Hard Ings Road\",\"source:addr\"=>\"FHRS Open Data\",\"addr:country\"=>\"GB\",\"addr:postcode\"=>\"BD21 3NB\",\"brand:wikidata\"=>\"Q38076\",\"brand:wikipedia\"=>\"en:McDonald's\"" }, "geometry": { "type": "Point", "coordinates": [ -1.9035396, 53.8744649 ] } },
	{ "type": "Feature", "properties": { "osm_id": "457933894", "name": "Beckside Fisheries", "amenity": "fast_food", "other_tags": "\"cuisine\"=>\"fish_and_chips\",\"fhrs:id\"=>\"327650\",\"addr:city\"=>\"Bingley\",\"addr:street\"=>\"Main Street\",\"addr:village\"=>\"Cottingley\",\"addr:postcode\"=>\"BD16 1SE\",\"addr:housenumber\"=>\"1\"" }, "geometry": { "type": "Point", "coordinates": [ -1.8211214, 53.8286719 ] } },
	{ "type": "Feature", "properties": { "osm_id": "462198231", "name": "Terminus Fisheries", "amenity": "fast_food", "other_tags": "\"fhrs:id\"=>\"324684\",\"delivery\"=>\"yes\",\"takeaway\"=>\"yes\",\"addr:city\"=>\"Bradford\",\"addr:street\"=>\"Thornton Road\",\"description\"=>\"Fish & Chips\",\"source:addr\"=>\"FHRS Open Data\",\"addr:village\"=>\"Thornton\",\"addr:postcode\"=>\"BD13 3NH\",\"addr:housenumber\"=>\"520-522\"" }, "geometry": { "type": "Point", "coordinates": [ -1.8548254, 53.7907478 ] } },
	{ "type": "Feature", "properties": { "osm_id": "494080737", "name": "Greengates Fisheries", "amenity": "fast_food" }, "geometry": { "type": "Point", "coordinates": [ -1.7106051, 53.8318416 ] } },
	{ "type": "Feature", "properties": { "osm_id": "497392244", "name": "Curryosity", "amenity": "fast_food", "other_tags": "\"fhrs:id\"=>\"327363\",\"addr:city\"=>\"Shipley\",\"addr:street\"=>\"Bingley Road\",\"source:addr\"=>\"FHRS Open Data\",\"addr:village\"=>\"Saltaire\",\"addr:postcode\"=>\"BD18 4SB\",\"addr:housenumber\"=>\"69\"" }, "geometry": { "type": "Point", "coordinates": [ -1.7924733, 53.8351551 ] } },
	{ "type": "Feature", "properties": { "osm_id": "497396119", "name": "Saltaire Pizza & Balti", "amenity": "fast_food", "other_tags": "\"cuisine\"=>\"pizza;indian\",\"fhrs:id\"=>\"327803\",\"addr:city\"=>\"Shipley\",\"addr:street\"=>\"Saltaire Road\",\"source:addr\"=>\"FSA Food Hygiene Ratings Database\",\"addr:postcode\"=>\"BD18 3HZ\",\"addr:housenumber\"=>\"43\"" }, "geometry": { "type": "Point", "coordinates": [ -1.7861885, 53.8361317 ] } },
	{ "type": "Feature", "properties": { "osm_id": "497396131", "name": "New Rainbow", "amenity": "fast_food", "other_tags": "\"fhrs:id\"=>\"327807\",\"addr:city\"=>\"Shipley\",\"addr:street\"=>\"Saltaire Road\",\"source:addr\"=>\"FHRS Open Data\",\"addr:postcode\"=>\"BD18 3JN\",\"opening_hours\"=>\"Mo 17:00-23:00, We,Th 17:00-23:30, Fr,Sa 17:00-24:00, Su 17:30-23:30, PH 17:00-23:00\",\"addr:housenumber\"=>\"65\"" }, "geometry": { "type": "Point", "coordinates": [ -1.7883523, 53.8363066 ] } },
	{ "type": "Feature", "properties": { "osm_id": "506368975", "name": "Fat Joes", "amenity": "fast_food", "other_tags": "\"cuisine\"=>\"fast_food\",\"fhrs:id\"=>\"984971\",\"takeaway\"=>\"yes\",\"addr:city\"=>\"Keighley\",\"addr:street\"=>\"South Street\",\"source:addr\"=>\"FHRS Open Data\",\"addr:postcode\"=>\"BD21 1AD\",\"addr:housenumber\"=>\"71\"" }, "geometry": { "type": "Point", "coordinates": [ -1.9112852, 53.8634051 ] } },
	{ "type": "Feature", "properties": { "osm_id": "506368976", "name": "Bardgett's Fish & Chips", "amenity": "fast_food", "other_tags": "\"cuisine\"=>\"fish_and_chips\",\"fhrs:id\"=>\"327182\",\"addr:city\"=>\"Keighley\",\"addr:street\"=>\"South Street\",\"addr:postcode\"=>\"BD21 1AG\",\"addr:housenumber\"=>\"213\"" }, "geometry": { "type": "Point", "coordinates": [ -1.9110332, 53.8604983 ] } },
	{ "type": "Feature", "properties": { "osm_id": "572435018", "name": "Great Northern Fisheries", "amenity": "fast_food", "other_tags": "\"fhrs:id\"=>\"940603\",\"addr:city\"=>\"Bradford\",\"addr:street\"=>\"Thornton Road\",\"description\"=>\"Fish & Chips\",\"source:addr\"=>\"FHRS Open Data\",\"addr:village\"=>\"Thornton\",\"addr:postcode\"=>\"BD13 3JN\",\"addr:housenumber\"=>\"413\"" }, "geometry": { "type": "Point", "coordinates": [ -1.853993, 53.790557 ] } },
	{ "type": "Feature", "properties": { "osm_id": "634606882", "name": "Mango's", "amenity": "fast_food", "other_tags": "\"fhrs:id\"=>\"327075\",\"addr:city\"=>\"Keighley\",\"addr:street\"=>\"North Street\",\"source:addr\"=>\"FHRS Open Data\",\"addr:country\"=>\"GB\",\"addr:postcode\"=>\"BD21 3AD\",\"addr:housenumber\"=>\"131\"" }, "geometry": { "type": "Point", "coordinates": [ -1.9097979, 53.8696571 ] } },
	{ "type": "Feature", "properties": { "osm_id": "647225417", "name": "Five Star Wook", "amenity": "fast_food", "other_tags": "\"cuisine\"=>\"chinese\",\"fhrs:id\"=>\"328113\",\"addr:city\"=>\"Bradford\",\"addr:street\"=>\"Dawson Lane\",\"addr:suburb\"=>\"Tong\",\"source:addr\"=>\"FHRS Open Data\",\"addr:postcode\"=>\"BD4 6HN\",\"addr:housenumber\"=>\"1\"" }, "geometry": { "type": "Point", "coordinates": [ -1.7207979, 53.7703846 ] } },
	{ "type": "Feature", "properties": { "osm_id": "656736021", "name": "Bierley Fisheries", "amenity": "fast_food", "other_tags": "\"cuisine\"=>\"fish_and_chips\",\"fhrs:id\"=>\"326269\",\"addr:city\"=>\"Bradford\",\"addr:street\"=>\"Bierley Lane\",\"source:addr\"=>\"FHRS Open Data\",\"addr:postcode\"=>\"BD4 6AS\",\"addr:housenumber\"=>\"120\"" }, "geometry": { "type": "Point", "coordinates": [ -1.7325098, 53.7666892 ] } },
	{ "type": "Feature", "properties": { "osm_id": "656736588", "name": "Supreme Sandwich Bar", "amenity": "fast_food", "other_tags": "\"cuisine\"=>\"sandwich\"" }, "geometry": { "type": "Point", "coordinates": [ -1.7208761, 53.7712337 ] } },
	{ "type": "Feature", "properties": { "osm_id": "676622224", "name": "Sizzlers Balti House", "amenity": "fast_food", "other_tags": "\"cuisine\"=>\"curry\"" }, "geometry": { "type": "Point", "coordinates": [ -1.7085182, 53.7672702 ] } },
	{ "type": "Feature", "properties": { "osm_id": "676622225", "name": "Pizza Corner", "amenity": "fast_food", "other_tags": "\"cuisine\"=>\"pizza\",\"fhrs:id\"=>\"326420\",\"addr:city\"=>\"Bradford\",\"addr:street\"=>\"Tong Street\",\"source:addr\"=>\"FHRS Open Data\",\"addr:postcode\"=>\"BD4 6NA\",\"addr:housenumber\"=>\"435\"" }, "geometry": { "type": "Point", "coordinates": [ -1.7088205, 53.7673916 ] } },
	{ "type": "Feature", "properties": { "osm_id": "676622251", "name": "Adeel's Spice - Pizza & Fisheries", "amenity": "fast_food" }, "geometry": { "type": "Point", "coordinates": [ -1.7098568, 53.7705708 ] } },
	{ "type": "Feature", "properties": { "osm_id": "685938454", "name": "Parade Fisheries", "amenity": "fast_food", "other_tags": "\"cuisine\"=>\"fish_and_chips\",\"fhrs:id\"=>\"326390\",\"addr:city\"=>\"Bradford\",\"addr:street\"=>\"The Parade\",\"source:addr\"=>\"FHRS Open Data\",\"addr:postcode\"=>\"BD4 9HN\",\"addr:housenumber\"=>\"8\"" }, "geometry": { "type": "Point", "coordinates": [ -1.7115159, 53.7787124 ] } },
	{ "type": "Feature", "properties": { "osm_id": "687080942", "name": "Tasty Snacks", "amenity": "fast_food" }, "geometry": { "type": "Point", "coordinates": [ -1.7158438, 53.7696039 ] } },
	{ "type": "Feature", "properties": { "osm_id": "687080951", "name": "Tong Street Fisheries", "amenity": "fast_food" }, "geometry": { "type": "Point", "coordinates": [ -1.7150704, 53.7693021 ] } },
	{ "type": "Feature", "properties": { "osm_id": "687081052", "name": "Happy Budha Takeaway", "amenity": "fast_food" }, "geometry": { "type": "Point", "coordinates": [ -1.7124842, 53.768373 ] } },
	{ "type": "Feature", "properties": { "osm_id": "687081058", "name": "Belly Busters", "amenity": "fast_food" }, "geometry": { "type": "Point", "coordinates": [ -1.7117854, 53.7682657 ] } },
	{ "type": "Feature", "properties": { "osm_id": "687081091", "name": "Mr B's Pizza, Burgers, Kebabs, S.F.C., Curries", "amenity": "fast_food" }, "geometry": { "type": "Point", "coordinates": [ -1.7110211, 53.7681195 ] } },
	{ "type": "Feature", "properties": { "osm_id": "687081095", "name": "Mega-Bites", "amenity": "fast_food", "other_tags": "\"fhrs:id\"=>\"326414\",\"addr:city\"=>\"Bradford\",\"addr:street\"=>\"Tong Street\",\"source:addr\"=>\"FHRS Open Data\",\"addr:postcode\"=>\"BD4 6LX\",\"addr:housenumber\"=>\"405\"" }, "geometry": { "type": "Point", "coordinates": [ -1.7101709, 53.767901 ] } },
	{ "type": "Feature", "properties": { "osm_id": "687081099", "name": "Triumph Fisheries", "amenity": "fast_food", "other_tags": "\"fhrs:id\"=>\"326416\",\"addr:city\"=>\"Bradford\",\"addr:street\"=>\"Tong Street\",\"source:addr\"=>\"FHRS Open Data\",\"addr:postcode\"=>\"BD4 6LX\",\"addr:housenumber\"=>\"417\"" }, "geometry": { "type": "Point", "coordinates": [ -1.7095749, 53.767714 ] } },
	{ "type": "Feature", "properties": { "osm_id": "747527923", "name": "Menston Spice", "amenity": "fast_food", "other_tags": "\"cuisine\"=>\"indian\",\"fhrs:id\"=>\"327623\",\"addr:city\"=>\"Ilkley\",\"addr:street\"=>\"Main Street\",\"source:addr\"=>\"FHRS Open Data\",\"addr:village\"=>\"Menston\",\"addr:postcode\"=>\"LS29 6NB\",\"addr:housenumber\"=>\"33a\"" }, "geometry": { "type": "Point", "coordinates": [ -1.7454052, 53.8912178 ] } },
	{ "type": "Feature", "properties": { "osm_id": "777459083", "name": "Cross Roads Chip Shop", "amenity": "fast_food", "other_tags": "\"fhrs:id\"=>\"326859\",\"addr:city\"=>\"Keighley\",\"addr:street\"=>\"Haworth Road\",\"addr:village\"=>\"Cross Roads\",\"addr:postcode\"=>\"BD22 9DL\",\"addr:housenumber\"=>\"50\"" }, "geometry": { "type": "Point", "coordinates": [ -1.9351662, 53.8352825 ] } },
	{ "type": "Feature", "properties": { "osm_id": "777468703", "amenity": "fast_food" }, "geometry": { "type": "Point", "coordinates": [ -1.8606085, 53.8238832 ] } },
	{ "type": "Feature", "properties": { "osm_id": "778671341", "name": "Mamas Pizza", "amenity": "fast_food", "other_tags": "\"cuisine\"=>\"pizza\",\"fhrs:id\"=>\"327777\",\"addr:city\"=>\"Bingley\",\"addr:street\"=>\"Park Road\",\"addr:postcode\"=>\"BD16 4JD\",\"addr:housenumber\"=>\"24\"" }, "geometry": { "type": "Point", "coordinates": [ -1.8368776, 53.84945 ] } },
	{ "type": "Feature", "properties": { "osm_id": "798294786", "name": "Happy Garden", "amenity": "fast_food", "other_tags": "\"fhrs:id\"=>\"328226\",\"addr:city\"=>\"Bradford\",\"addr:street\"=>\"Haworth Road\",\"source:addr\"=>\"FHRS Open Data\",\"addr:postcode\"=>\"BD9 6NJ\",\"addr:housenumber\"=>\"198\"" }, "geometry": { "type": "Point", "coordinates": [ -1.8154076, 53.8160881 ] } },
	{ "type": "Feature", "properties": { "osm_id": "798527568", "name": "Chicken Time", "amenity": "fast_food", "other_tags": "\"addr:city\"=>\"Keighley\",\"addr:street\"=>\"Mill Hey\",\"addr:village\"=>\"Haworth\",\"addr:postcode\"=>\"BD22 8NQ\"" }, "geometry": { "type": "Point", "coordinates": [ -1.947697, 53.8314685 ] } },
	{ "type": "Feature", "properties": { "osm_id": "798527597", "name": "Bronte Balti", "amenity": "fast_food", "other_tags": "\"fhrs:id\"=>\"327042\",\"addr:city\"=>\"Keighley\",\"addr:street\"=>\"Mill Hey\",\"addr:village\"=>\"Haworth\",\"addr:postcode\"=>\"BD22 8NQ\",\"addr:housenumber\"=>\"19\"" }, "geometry": { "type": "Point", "coordinates": [ -1.9475575, 53.83188 ] } },
	{ "type": "Feature", "properties": { "osm_id": "798527603", "name": "Hong Kong", "amenity": "fast_food", "other_tags": "\"fhrs:id\"=>\"327045\",\"addr:city\"=>\"Keighley\",\"addr:street\"=>\"Mill Hey\",\"source:addr\"=>\"FHRS Open Data\",\"addr:village\"=>\"Haworth\",\"addr:postcode\"=>\"BD22 8NQ\",\"addr:housenumber\"=>\"37\"" }, "geometry": { "type": "Point", "coordinates": [ -1.9471391, 53.8322726 ] } },
	{ "type": "Feature", "properties": { "osm_id": "798527608", "name": "Pizza Time", "amenity": "fast_food", "other_tags": "\"fhrs:id\"=>\"327051\",\"addr:city\"=>\"Keighley\",\"addr:street\"=>\"Mill Hey\",\"addr:village\"=>\"Haworth\",\"addr:postcode\"=>\"BD22 8NQ\",\"addr:housenumber\"=>\"14\"" }, "geometry": { "type": "Point", "coordinates": [ -1.9476005, 53.8315254 ] } },
	{ "type": "Feature", "properties": { "osm_id": "854470022", "name": "Subway", "amenity": "fast_food", "other_tags": "\"brand\"=>\"Subway\",\"cuisine\"=>\"sandwich\",\"fhrs:id\"=>\"325143\",\"takeaway\"=>\"yes\",\"addr:city\"=>\"Bradford\",\"addr:street\"=>\"Great Horton Road\",\"source:addr\"=>\"FHRS Open Data\",\"addr:postcode\"=>\"BD7 1AZ\",\"brand:wikidata\"=>\"Q244457\",\"brand:wikipedia\"=>\"en:Subway (restaurant)\",\"addr:housenumber\"=>\"51\"" }, "geometry": { "type": "Point", "coordinates": [ -1.7627936, 53.7907029 ] } },
	{ "type": "Feature", "properties": { "osm_id": "856416215", "name": "Websters", "amenity": "fast_food", "other_tags": "\"fhrs:id\"=>\"327749\",\"addr:city\"=>\"Shipley\",\"addr:street\"=>\"Northgate\",\"source:addr\"=>\"FHRS Open Data\",\"addr:village\"=>\"Baildon\",\"addr:postcode\"=>\"BD17 6LB\",\"addr:housenumber\"=>\"37-39\"" }, "geometry": { "type": "Point", "coordinates": [ -1.7662928, 53.8546288 ] } },
	{ "type": "Feature", "properties": { "osm_id": "858682306", "name": "Subway", "amenity": "fast_food", "other_tags": "\"brand\"=>\"Subway\",\"cuisine\"=>\"sandwich\",\"fhrs:id\"=>\"325613\",\"takeaway\"=>\"yes\",\"addr:city\"=>\"Bradford\",\"addr:street\"=>\"Ingleby Road\",\"source:addr\"=>\"FHRS Open Data\",\"addr:postcode\"=>\"BD8 9AH\",\"addr:housename\"=>\"Unit B\",\"brand:wikidata\"=>\"Q244457\",\"brand:wikipedia\"=>\"en:Subway (restaurant)\",\"addr:housenumber\"=>\"45\"" }, "geometry": { "type": "Point", "coordinates": [ -1.7840105, 53.7973831 ] } },
	{ "type": "Feature", "properties": { "osm_id": "858682311", "name": "Domino's", "amenity": "fast_food", "other_tags": "\"brand\"=>\"Domino's\",\"cuisine\"=>\"pizza\",\"fhrs:id\"=>\"325589\",\"takeaway\"=>\"yes\",\"addr:city\"=>\"Bradford\",\"addr:street\"=>\"Ingleby Road\",\"source:addr\"=>\"FHRS Open Data\",\"addr:village\"=>\"Girlington\",\"addr:postcode\"=>\"BD8 9AP\",\"addr:housename\"=>\"Unit A Ingleby Road Retail Park\",\"brand:wikidata\"=>\"Q839466\",\"brand:wikipedia\"=>\"en:Domino's Pizza\"" }, "geometry": { "type": "Point", "coordinates": [ -1.7839998, 53.7972944 ] } },
	{ "type": "Feature", "properties": { "osm_id": "1100603213", "name": "McDonald's", "amenity": "fast_food", "other_tags": "\"brand\"=>\"McDonald's\",\"cuisine\"=>\"burger\",\"takeaway\"=>\"yes\",\"brand:wikidata\"=>\"Q38076\",\"brand:wikipedia\"=>\"en:McDonald's\"" }, "geometry": { "type": "Point", "coordinates": [ -1.7518395, 53.7984846 ] } },
	{ "type": "Feature", "properties": { "osm_id": "1163032595", "name": "Midgleys", "amenity": "fast_food", "other_tags": "\"addr:city\"=>\"Ilkley\",\"addr:housenumber\"=>\"109\",\"addr:postcode\"=>\"LS29 8EG\",\"addr:street\"=>\"Leeds Road\",\"cuisine\"=>\"fish_and_chips\",\"fhrs:id\"=>\"325795\",\"outdoor_seating\"=>\"yes\",\"phone\"=>\"+44 1943 600220\",\"takeaway\"=>\"yes\"" }, "geometry": { "type": "Point", "coordinates": [ -1.8153733, 53.9286741 ] } },
	{ "type": "Feature", "properties": { "osm_id": "1283414235", "name": "50's Grill", "amenity": "fast_food", "other_tags": "\"fhrs:id\"=>\"326577\",\"addr:city\"=>\"Keighley\",\"addr:street\"=>\"Alice Street\",\"source:addr\"=>\"FHRS Open Data\",\"addr:country\"=>\"GB\",\"addr:postcode\"=>\"BD21 3JD\",\"addr:housenumber\"=>\"5c\"" }, "geometry": { "type": "Point", "coordinates": [ -1.9089295, 53.8694404 ] } },
	{ "type": "Feature", "properties": { "osm_id": "1295263423", "name": "Double Luck", "amenity": "fast_food", "other_tags": "\"cuisine\"=>\"chinese\"" }, "geometry": { "type": "Point", "coordinates": [ -1.9113433, 53.8589987 ] } },
	{ "type": "Feature", "properties": { "osm_id": "1447395267", "name": "Deli Touch", "amenity": "fast_food", "other_tags": "\"fhrs:id\"=>\"326804\",\"addr:city\"=>\"Keighley\",\"addr:street\"=>\"Emily Street\",\"source:addr\"=>\"FHRS Open Data\",\"addr:country\"=>\"GB\",\"addr:postcode\"=>\"BD21 3EG\",\"addr:housenumber\"=>\"1\"" }, "geometry": { "type": "Point", "coordinates": [ -1.9044725, 53.8709875 ] } },
	{ "type": "Feature", "properties": { "osm_id": "1487486722", "name": "Rook lane Fisheries", "amenity": "fast_food", "other_tags": "\"cuisine\"=>\"fish_and_chips\",\"fhrs:id\"=>\"327687\",\"addr:city\"=>\"Bradford\",\"addr:street\"=>\"Compton Street\",\"source:addr\"=>\"FHRS Open Data\",\"addr:postcode\"=>\"BD4 9NE\",\"addr:housenumber\"=>\"77\"" }, "geometry": { "type": "Point", "coordinates": [ -1.727853, 53.7728721 ] } },
	{ "type": "Feature", "properties": { "osm_id": "1487487783", "name": "Cosy corner", "amenity": "fast_food", "other_tags": "\"cuisine\"=>\"sandwich\"" }, "geometry": { "type": "Point", "coordinates": [ -1.7266567, 53.7728975 ] } },
	{ "type": "Feature", "properties": { "osm_id": "1487496993", "name": "McDonald's", "amenity": "fast_food", "other_tags": "\"brand\"=>\"McDonald's\",\"cuisine\"=>\"burger\",\"takeaway\"=>\"yes\",\"brand:wikidata\"=>\"Q38076\",\"brand:wikipedia\"=>\"en:McDonald's\"" }, "geometry": { "type": "Point", "coordinates": [ -1.7326005, 53.7720193 ] } },
	{ "type": "Feature", "properties": { "osm_id": "1487503906", "amenity": "fast_food", "other_tags": "\"cuisine\"=>\"sandwich\"" }, "geometry": { "type": "Point", "coordinates": [ -1.7253961, 53.7728499 ] } },
	{ "type": "Feature", "properties": { "osm_id": "1487506076", "name": "Rapeedo pizza", "amenity": "fast_food", "other_tags": "\"cuisine\"=>\"pizza\",\"fhrs:id\"=>\"801535\",\"addr:city\"=>\"Bradford\",\"addr:street\"=>\"Tong Street\",\"source:addr\"=>\"FHRS Open Data\",\"addr:postcode\"=>\"BD4 9LU\",\"addr:housenumber\"=>\"20a\"" }, "geometry": { "type": "Point", "coordinates": [ -1.7263295, 53.7738581 ] } },
	{ "type": "Feature", "properties": { "osm_id": "1644954233", "name": "KFC", "amenity": "fast_food", "other_tags": "\"brand\"=>\"KFC\",\"cuisine\"=>\"chicken\",\"fhrs:id\"=>\"326852\",\"alt_name\"=>\"Kentucky Fried Chicken\",\"takeaway\"=>\"yes\",\"addr:city\"=>\"Keighley\",\"addr:unit\"=>\"8\",\"addr:street\"=>\"Hard Ings Road\",\"source:addr\"=>\"FHRS Open Data\",\"addr:country\"=>\"GB\",\"addr:postcode\"=>\"BD21 3NJ\",\"addr:housename\"=>\"Keighley Retail Park\",\"brand:wikidata\"=>\"Q524757\",\"brand:wikipedia\"=>\"en:KFC\"" }, "geometry": { "type": "Point", "coordinates": [ -1.9050505, 53.8745675 ] } },
	{ "type": "Feature", "properties": { "osm_id": "1657772816", "name": "Spicy Ranch", "amenity": "fast_food" }, "geometry": { "type": "Point", "coordinates": [ -1.7510983, 53.9125465 ] } },
	{ "type": "Feature", "properties": { "osm_id": "1678305299", "amenity": "fast_food", "other_tags": "\"cuisine\"=>\"sandwich\",\"addr:city\"=>\"Shipley\",\"addr:street\"=>\"Coach Road\",\"addr:village\"=>\"Baildon\",\"addr:postcode\"=>\"BD17 7LT\",\"addr:housenumber\"=>\"95\"" }, "geometry": { "type": "Point", "coordinates": [ -1.7885541, 53.8411506 ] } },
	{ "type": "Feature", "properties": { "osm_id": "1678305319", "amenity": "fast_food", "other_tags": "\"cuisine\"=>\"fish_and_chips\",\"addr:city\"=>\"Shipley\",\"addr:street\"=>\"Coach Road\",\"addr:village\"=>\"Baildon\",\"addr:postcode\"=>\"BD17 7LT\",\"addr:housenumber\"=>\"89\"" }, "geometry": { "type": "Point", "coordinates": [ -1.7883945, 53.8410754 ] } },
	{ "type": "Feature", "properties": { "osm_id": "1685191613", "name": "Pizza One", "amenity": "fast_food", "other_tags": "\"fhrs:id\"=>\"650481\",\"historic\"=>\"monument\",\"addr:city\"=>\"Ilkley\",\"addr:street\"=>\"Main Street\",\"source:addr\"=>\"FHRS Open Data\",\"addr:district\"=>\"Burley In Wharfedale\",\"addr:postcode\"=>\"LS29 7JN\",\"addr:housenumber\"=>\"121\"" }, "geometry": { "type": "Point", "coordinates": [ -1.7508493, 53.9138851 ] } },
	{ "type": "Feature", "properties": { "osm_id": "1702714788", "name": "Saltaire Sandwiches", "amenity": "fast_food", "other_tags": "\"cuisine\"=>\"sandwich\",\"fhrs:id\"=>\"327867\",\"addr:city\"=>\"Shipley\",\"addr:street\"=>\"Victoria Road\",\"source:addr\"=>\"FHRS Open Data\",\"addr:village\"=>\"Saltaire\",\"addr:postcode\"=>\"BD18 3LQ\",\"addr:housenumber\"=>\"16\"" }, "geometry": { "type": "Point", "coordinates": [ -1.7901877, 53.8367736 ] } },
	{ "type": "Feature", "properties": { "osm_id": "1847520182", "name": "Addingham Fisheries", "amenity": "fast_food", "other_tags": "\"cuisine\"=>\"fish_and_chips\"" }, "geometry": { "type": "Point", "coordinates": [ -1.8827218, 53.9439073 ] } },
	{ "type": "Feature", "properties": { "osm_id": "1875074588", "name": "Worth Valley Fisheries", "amenity": "fast_food", "other_tags": "\"cuisine\"=>\"fish_and_chips\",\"fhrs:id\"=>\"327288\",\"addr:city\"=>\"Keighley\",\"addr:street\"=>\"Wesley Place\",\"addr:village\"=>\"Ingrow\",\"addr:postcode\"=>\"BD21 5EH\"" }, "geometry": { "type": "Point", "coordinates": [ -1.916407, 53.8530469 ] } },
	{ "type": "Feature", "properties": { "osm_id": "1876629781", "name": "Rooster's", "amenity": "fast_food", "other_tags": "\"phone\"=>\"+441535 608899\",\"cuisine\"=>\"chicken\"" }, "geometry": { "type": "Point", "coordinates": [ -1.9041474, 53.8674458 ] } },
	{ "type": "Feature", "properties": { "osm_id": "1940702312", "name": "Crown Pizza and Spices", "amenity": "fast_food" }, "geometry": { "type": "Point", "coordinates": [ -1.9090397, 53.8694433 ] } },
	{ "type": "Feature", "properties": { "osm_id": "1957539341", "name": "Pizza Time", "amenity": "fast_food", "other_tags": "\"fhrs:id\"=>\"327450\",\"addr:city\"=>\"Shipley\",\"addr:street\"=>\"Commercial Street\",\"source:addr\"=>\"FHRS Open Data\",\"addr:postcode\"=>\"BD18 3SR\",\"addr:housenumber\"=>\"6\"" }, "geometry": { "type": "Point", "coordinates": [ -1.7765272, 53.8346744 ] } },
	{ "type": "Feature", "properties": { "osm_id": "1957539342", "name": "Saltaire Freid Chicken & Deli", "amenity": "fast_food", "other_tags": "\"old_name\"=>\"Sizzlers\",\"telephone\"=>\"01274 98026\"" }, "geometry": { "type": "Point", "coordinates": [ -1.7812953, 53.835222 ] } },
	{ "type": "Feature", "properties": { "osm_id": "2196334957", "amenity": "fast_food" }, "geometry": { "type": "Point", "coordinates": [ -1.8173791, 53.8162373 ] } },
	{ "type": "Feature", "properties": { "osm_id": "2196359277", "name": "Pizza Nuovo", "amenity": "fast_food", "other_tags": "\"cuisine\"=>\"pizza\",\"fhrs:id\"=>\"328229\",\"addr:city\"=>\"Bradford\",\"addr:street\"=>\"Haworth Road\",\"source:addr\"=>\"FHRS Open Data\",\"addr:postcode\"=>\"BD9 6NJ\",\"addr:housenumber\"=>\"208\"" }, "geometry": { "type": "Point", "coordinates": [ -1.8157993, 53.8161201 ] } },
	{ "type": "Feature", "properties": { "osm_id": "2196359311", "name": "Sandwich Bar", "amenity": "fast_food", "other_tags": "\"addr:city\"=>\"Bradford\",\"addr:street\"=>\"Haworth Road\"" }, "geometry": { "type": "Point", "coordinates": [ -1.8158931, 53.8161249 ] } },
	{ "type": "Feature", "properties": { "osm_id": "2214805608", "name": "Super Wok", "amenity": "fast_food", "other_tags": "\"cuisine\"=>\"chinese\",\"fhrs:id\"=>\"327179\",\"addr:city\"=>\"Keighley\",\"addr:street\"=>\"South Street\",\"addr:postcode\"=>\"BD21 1BB\",\"addr:housenumber\"=>\"170-172\"" }, "geometry": { "type": "Point", "coordinates": [ -1.9144707, 53.8565702 ] } },
	{ "type": "Feature", "properties": { "osm_id": "2262845209", "name": "Balti Ranch", "amenity": "fast_food", "other_tags": "\"cuisine\"=>\"indian\",\"fhrs:id\"=>\"326259\",\"addr:city\"=>\"Bradford\",\"addr:street\"=>\"Rooley Lane\",\"addr:postcode\"=>\"BD5 8LX\",\"addr:housenumber\"=>\"16\"" }, "geometry": { "type": "Point", "coordinates": [ -1.7619315, 53.7681282 ] } },
	{ "type": "Feature", "properties": { "osm_id": "2358538877", "name": "Greens Sandwich Bar", "amenity": "fast_food", "other_tags": "\"cuisine\"=>\"sandwich\"" }, "geometry": { "type": "Point", "coordinates": [ -1.7796004, 53.8347584 ] } },
	{ "type": "Feature", "properties": { "osm_id": "2358548414", "name": "The Cedar Tree", "amenity": "fast_food", "other_tags": "\"cuisine\"=>\"pizza;kebab;burger\",\"fhrs:id\"=>\"327890\",\"addr:city\"=>\"Shipley\",\"addr:street\"=>\"Westgate\",\"source:addr\"=>\"FHRS Open Data\",\"addr:postcode\"=>\"BD18 3QX\",\"addr:housenumber\"=>\"56-58\"" }, "geometry": { "type": "Point", "coordinates": [ -1.7795146, 53.8347346 ] } },
	{ "type": "Feature", "properties": { "osm_id": "2358612133", "name": "Doyle's Fisheries Shipley", "amenity": "fast_food", "other_tags": "\"phone\"=>\"+44 1274 598555\",\"cuisine\"=>\"fish_and_chips\",\"addr:street\"=>\"Otley Road\",\"addr:housenumber\"=>\"67\"" }, "geometry": { "type": "Point", "coordinates": [ -1.7759044, 53.8332137 ] } },
	{ "type": "Feature", "properties": { "osm_id": "2358646363", "name": "Subway", "amenity": "fast_food", "other_tags": "\"brand\"=>\"Subway\",\"cuisine\"=>\"sandwich\",\"fhrs:id\"=>\"325557\",\"takeaway\"=>\"yes\",\"addr:city\"=>\"Shipley\",\"addr:street\"=>\"Otley Road\",\"source:addr\"=>\"FHRS Open Data\",\"addr:postcode\"=>\"BD18 3PY\",\"brand:wikidata\"=>\"Q244457\",\"brand:wikipedia\"=>\"en:Subway (restaurant)\",\"addr:housenumber\"=>\"45\"" }, "geometry": { "type": "Point", "coordinates": [ -1.7760465, 53.8335951 ] } },
	{ "type": "Feature", "properties": { "osm_id": "2974837290", "name": "KFC", "amenity": "fast_food", "other_tags": "\"brand\"=>\"KFC\",\"cuisine\"=>\"chicken\",\"fhrs:id\"=>\"325114\",\"alt_name\"=>\"Kentucky Fried Chicken\",\"takeaway\"=>\"yes\",\"addr:city\"=>\"Bradford\",\"addr:street\"=>\"Harrogate Road\",\"source:addr\"=>\"FHRS Open Data\",\"addr:country\"=>\"GB\",\"addr:postcode\"=>\"BD10 0QS\",\"brand:wikidata\"=>\"Q524757\",\"brand:wikipedia\"=>\"en:KFC\",\"addr:housenumber\"=>\"800\"" }, "geometry": { "type": "Point", "coordinates": [ -1.7121569, 53.8306374 ] } },
	{ "type": "Feature", "properties": { "osm_id": "2974837291", "amenity": "fast_food", "other_tags": "\"cuisine\"=>\"fish_and_chips\"" }, "geometry": { "type": "Point", "coordinates": [ -1.7137126, 53.8316838 ] } },
	{ "type": "Feature", "properties": { "osm_id": "2974837292", "amenity": "fast_food", "other_tags": "\"cuisine\"=>\"sandwich\",\"wheelchair\"=>\"no\"" }, "geometry": { "type": "Point", "coordinates": [ -1.7127282, 53.8310569 ] } },
	{ "type": "Feature", "properties": { "osm_id": "3370130675", "name": "KFC", "amenity": "fast_food", "other_tags": "\"brand\"=>\"KFC\",\"cuisine\"=>\"chicken\",\"alt_name\"=>\"Kentucky Fried Chicken\",\"takeaway\"=>\"yes\",\"brand:wikidata\"=>\"Q524757\",\"brand:wikipedia\"=>\"en:KFC\"" }, "geometry": { "type": "Point", "coordinates": [ -1.7696424, 53.8393862 ] } },
	{ "type": "Feature", "properties": { "osm_id": "3379071693", "name": "Great Wall", "amenity": "fast_food", "other_tags": "\"fhrs:id\"=>\"327292\",\"addr:city\"=>\"Keighley\",\"wheelchair\"=>\"limited\",\"addr:street\"=>\"West lane\",\"addr:postcode\"=>\"BD21 2NE\",\"addr:housenumber\"=>\"159\",\"toilets:wheelchair\"=>\"no\"" }, "geometry": { "type": "Point", "coordinates": [ -1.9189987, 53.8664993 ] } },
	{ "type": "Feature", "properties": { "osm_id": "3443058100", "name": "Casa Pizza", "amenity": "fast_food", "other_tags": "\"phone\"=>\"+44 1274 818186\",\"cuisine\"=>\"pizza\",\"fhrs:id\"=>\"324619\",\"delivery\"=>\"yes\",\"operator\"=>\"Casa Piza\",\"takeaway\"=>\"yes\",\"addr:city\"=>\"Bradford\",\"addr:street\"=>\"Station Road\",\"addr:postcode\"=>\"BD14 6JA\",\"addr:housenumber\"=>\"2a\"" }, "geometry": { "type": "Point", "coordinates": [ -1.8179131, 53.7809665 ] } },
	{ "type": "Feature", "properties": { "osm_id": "3497988097", "name": "Bo King", "amenity": "fast_food", "other_tags": "\"cuisine\"=>\"chinese\",\"fhrs:id\"=>\"326419\",\"takeaway\"=>\"yes\",\"addr:city\"=>\"Bradford\",\"addr:street\"=>\"Tong Street\",\"source:addr\"=>\"FHRS Open Data\",\"addr:postcode\"=>\"BD4 6LX\",\"addr:housenumber\"=>\"431\"" }, "geometry": { "type": "Point", "coordinates": [ -1.709131, 53.7674886 ] } },
	{ "type": "Feature", "properties": { "osm_id": "3497988100", "name": "Spice Balti", "amenity": "fast_food", "other_tags": "\"cuisine\"=>\"curry\",\"takeaway\"=>\"yes\"" }, "geometry": { "type": "Point", "coordinates": [ -1.7093323, 53.7675767 ] } },
	{ "type": "Feature", "properties": { "osm_id": "3660963444", "name": "Fish and Chips", "amenity": "fast_food", "other_tags": "\"cuisine\"=>\"fish_and_chips\"" }, "geometry": { "type": "Point", "coordinates": [ -1.8988384, 53.8264111 ] } },
	{ "type": "Feature", "properties": { "osm_id": "3660969239", "name": "Yama Oriental Cuisine", "amenity": "fast_food", "other_tags": "\"cuisine\"=>\"chinese\",\"fhrs:id\"=>\"327518\",\"addr:city\"=>\"Bradford\",\"addr:street\"=>\"Halifax Road\",\"addr:village\"=>\"Cullingworth\",\"addr:postcode\"=>\"BD13 5DD\",\"addr:housenumber\"=>\"1\"" }, "geometry": { "type": "Point", "coordinates": [ -1.8987043, 53.8261673 ] } },
	{ "type": "Feature", "properties": { "osm_id": "3743299839", "name": "Dave's Village Bakery", "amenity": "fast_food", "other_tags": "\"cuisine\"=>\"sandwich\",\"addr:city\"=>\"Bingley\",\"addr:street\"=>\"Keighley Road\",\"addr:village\"=>\"Crossflatts\",\"addr:postcode\"=>\"BD16 2EZ\"" }, "geometry": { "type": "Point", "coordinates": [ -1.8455789, 53.8613602 ] } },
	{ "type": "Feature", "properties": { "osm_id": "3743299840", "name": "Hot Shots", "amenity": "fast_food", "other_tags": "\"cuisine\"=>\"pizza;burger\",\"fhrs:id\"=>\"325165\",\"addr:city\"=>\"Bingley\",\"addr:street\"=>\"Keighley Road\",\"addr:village\"=>\"Crossflatts\",\"addr:postcode\"=>\"BD16 2EZ\",\"addr:housenumber\"=>\"32\"" }, "geometry": { "type": "Point", "coordinates": [ -1.8456646, 53.8614518 ] } },
	{ "type": "Feature", "properties": { "osm_id": "4037571613", "name": "Southfield Balti", "amenity": "fast_food", "other_tags": "\"cuisine\"=>\"pizza,_burger,_kebab\",\"fhrs:id\"=>\"326330\",\"website\"=>\"https:\/\/take-a-way.co.uk\/menu\/8502\/Southfield%20Balti%20-%20Bradford\/\",\"delivery\"=>\"yes\",\"takeaway\"=>\"yes\",\"addr:city\"=>\"Bradford\",\"addr:street\"=>\"Southfield Lane\",\"addr:postcode\"=>\"BD7 3NN\",\"drive_through\"=>\"no\",\"addr:housenumber\"=>\"259\"" }, "geometry": { "type": "Point", "coordinates": [ -1.7824796, 53.7785405 ] } },
	{ "type": "Feature", "properties": { "osm_id": "4046355971", "name": "Hot Spot", "amenity": "fast_food", "other_tags": "\"cuisine\"=>\"pizza,_Burger,_Curry\",\"fhrs:id\"=>\"704453\",\"smoking\"=>\"no\",\"addr:city\"=>\"Bradford\",\"addr:street\"=>\"The Parade\",\"source:addr\"=>\"FHRS Open Data\",\"addr:postcode\"=>\"BD4 9HN\",\"drive_through\"=>\"no\",\"addr:housenumber\"=>\"6\"" }, "geometry": { "type": "Point", "coordinates": [ -1.7114247, 53.7785745 ] } },
	{ "type": "Feature", "properties": { "osm_id": "4053780091", "name": "Manzil Balti House", "amenity": "fast_food", "other_tags": "\"cuisine\"=>\"indian\",\"fhrs:id\"=>\"325003\",\"website\"=>\"https:\/\/take-a-way.co.uk\/menu\/8560\/Manzil%20Balti%20House%20-%20Bradford\/\",\"delivery\"=>\"yes\",\"takeaway\"=>\"yes\",\"addr:city\"=>\"Bradford\",\"addr:street\"=>\"Torre Road\",\"addr:postcode\"=>\"BD6 3PD\",\"addr:housenumber\"=>\"4\"" }, "geometry": { "type": "Point", "coordinates": [ -1.8088354, 53.7680572 ] } },
	{ "type": "Feature", "properties": { "osm_id": "4680983961", "name": "Greggs", "amenity": "fast_food", "other_tags": "\"addr:city\"=>\"Ilkley\",\"addr:housenumber\"=>\"8\",\"addr:postcode\"=>\"LS29 8DA\",\"addr:street\"=>\"Brook Street\",\"brand\"=>\"Greggs\",\"brand:wikidata\"=>\"Q3403981\",\"brand:wikipedia\"=>\"en:Greggs\",\"cuisine\"=>\"sandwich;bakery\",\"fhrs:id\"=>\"326672\",\"source:addr\"=>\"FHRS Open Data\",\"takeaway\"=>\"yes\"" }, "geometry": { "type": "Point", "coordinates": [ -1.8230879, 53.9249252 ] } },
	{ "type": "Feature", "properties": { "osm_id": "4681286190", "name": "The Curry Counter", "amenity": "fast_food", "other_tags": "\"phone\"=>\"+44 1274 952952\",\"cuisine\"=>\"curry\",\"fhrs:id\"=>\"780686\",\"website\"=>\"http:\/\/thecurrycounter.com\",\"addr:city\"=>\"Bradford\",\"addr:street\"=>\"Ingleby Road\",\"source:addr\"=>\"FHRS Open Data\",\"addr:postcode\"=>\"BD8 9AN\",\"addr:housename\"=>\"3 Food Court\"" }, "geometry": { "type": "Point", "coordinates": [ -1.7849644, 53.7971794 ] } },
	{ "type": "Feature", "properties": { "osm_id": "4718841264", "name": "KFC", "amenity": "fast_food", "other_tags": "\"brand\"=>\"KFC\",\"cuisine\"=>\"chicken\",\"fhrs:id\"=>\"638951\",\"alt_name\"=>\"Kentucky Fried Chicken\",\"takeaway\"=>\"yes\",\"addr:city\"=>\"Bradford\",\"addr:unit\"=>\"F\",\"addr:street\"=>\"Weaverthorpe Road\",\"fixme:addr1\"=>\"Weaverthorpe Park\",\"source:addr\"=>\"FHRS Open Data\",\"addr:country\"=>\"GB\",\"addr:postcode\"=>\"BD4 9RQ\",\"brand:wikidata\"=>\"Q524757\",\"brand:wikipedia\"=>\"en:KFC\"" }, "geometry": { "type": "Point", "coordinates": [ -1.7090699, 53.7668194 ] } },
	{ "type": "Feature", "properties": { "osm_id": "4919596436", "name": "Drake's Fish and Chip Shop", "amenity": "fast_food", "other_tags": "\"cuisine\"=>\"fish_and_chips\",\"fhrs:id\"=>\"327389\",\"addr:city\"=>\"Shipley\",\"addr:street\"=>\"Bradford Road\",\"addr:postcode\"=>\"BD18 3DS\",\"addr:housenumber\"=>\"53-55\"" }, "geometry": { "type": "Point", "coordinates": [ -1.7832272, 53.8311848 ] } },
	{ "type": "Feature", "properties": { "osm_id": "5229255379", "name": "Subway", "amenity": "fast_food", "other_tags": "\"brand\"=>\"Subway\",\"cuisine\"=>\"sandwich\",\"fhrs:id\"=>\"700671\",\"addr:city\"=>\"Bradford\",\"addr:street\"=>\"Otley Road\",\"source:addr\"=>\"FHRS Open Data\",\"addr:postcode\"=>\"BD2 4QL\",\"brand:wikidata\"=>\"Q244457\",\"addr:housenumber\"=>\"495-497\"" }, "geometry": { "type": "Point", "coordinates": [ -1.7305138, 53.8085615 ] } },
	{ "type": "Feature", "properties": { "osm_id": "5266801964", "name": "Greggs", "amenity": "fast_food", "other_tags": "\"brand\"=>\"Greggs\",\"cuisine\"=>\"sandwich;bakery\",\"fhrs:id\"=>\"435264\",\"takeaway\"=>\"yes\",\"addr:city\"=>\"Bingley\",\"addr:street\"=>\"Main Street\",\"addr:postcode\"=>\"BD16 1GL\",\"addr:housename\"=>\"Five Rise Shopping Centre\",\"brand:wikidata\"=>\"Q3403981\",\"brand:wikipedia\"=>\"en:Greggs\",\"addr:housenumber\"=>\"Unit 8a\"" }, "geometry": { "type": "Point", "coordinates": [ -1.8366363, 53.8471531 ] } },
	{ "type": "Feature", "properties": { "osm_id": "5288501710", "name": "Subway", "amenity": "fast_food", "other_tags": "\"brand\"=>\"Subway\",\"cuisine\"=>\"sandwich\",\"fhrs:id\"=>\"1066645\",\"delivery\"=>\"no\",\"takeaway\"=>\"yes\",\"addr:city\"=>\"Bingley\",\"addr:street\"=>\"Main Street\",\"addr:postcode\"=>\"BD16 1AJ\",\"drive_through\"=>\"no\",\"brand:wikidata\"=>\"Q244457\",\"brand:wikipedia\"=>\"en:Subway (restaurant)\",\"outdoor_seating\"=>\"yes\",\"addr:housenumber\"=>\"153-155\"" }, "geometry": { "type": "Point", "coordinates": [ -1.8369036, 53.8470155 ] } },
	{ "type": "Feature", "properties": { "osm_id": "5299643513", "name": "Jack's Fisheries", "amenity": "fast_food", "other_tags": "\"cuisine\"=>\"fish_and_chips\",\"fhrs:id\"=>\"327605\",\"addr:city\"=>\"Bingley\",\"addr:street\"=>\"Lime Court\",\"addr:village\"=>\"Crossflatts\",\"addr:postcode\"=>\"BD16 2BW\",\"addr:housenumber\"=>\"8\"" }, "geometry": { "type": "Point", "coordinates": [ -1.8444504, 53.8606815 ] } },
	{ "type": "Feature", "properties": { "osm_id": "5434991093", "name": "Jumbo", "amenity": "fast_food", "other_tags": "\"fhrs:id\"=>\"327672\",\"addr:city\"=>\"Bingley\",\"addr:street\"=>\"Main Street\",\"addr:postcode\"=>\"BD16 2JH\",\"addr:housenumber\"=>\"92\"" }, "geometry": { "type": "Point", "coordinates": [ -1.8403646, 53.8504392 ] } },
	{ "type": "Feature", "properties": { "osm_id": "5536574167", "name": "Golden Chippy", "amenity": "fast_food", "other_tags": "\"cuisine\"=>\"fish_and_chips\",\"fhrs:id\"=>\"327417\",\"addr:city\"=>\"Bradford\",\"addr:street\"=>\"Bute Street\",\"source:addr\"=>\"FHRS Open Data\",\"addr:postcode\"=>\"BD2 1DH\",\"addr:housenumber\"=>\"2-4\"" }, "geometry": { "type": "Point", "coordinates": [ -1.7623592, 53.8195663 ] } },
	{ "type": "Feature", "properties": { "osm_id": "5659250933", "name": "Caracas", "amenity": "fast_food", "other_tags": "\"fhrs:id\"=>\"798377\",\"addr:city\"=>\"Shipley\",\"addr:street\"=>\"Saltaire Road\",\"source:addr\"=>\"FHRS Open Data\",\"addr:postcode\"=>\"BD18 3HN\",\"opening_hours\"=>\"Mo-Su 17:00-23:30\",\"addr:housenumber\"=>\"54\"" }, "geometry": { "type": "Point", "coordinates": [ -1.7811932, 53.8352423 ] } },
	{ "type": "Feature", "properties": { "osm_id": "5708744105", "name": "Riddlesden Fisheries", "amenity": "fast_food", "other_tags": "\"cuisine\"=>\"fish_and_chips\",\"fhrs:id\"=>\"326632\",\"addr:city\"=>\"Keighley\",\"addr:street\"=>\"Bradford Road\",\"addr:postcode\"=>\"BD21 4EZ\",\"addr:housenumber\"=>\"67\"" }, "geometry": { "type": "Point", "coordinates": [ -1.8830753, 53.8767497 ] } },
	{ "type": "Feature", "properties": { "osm_id": "5711950283", "name": "Chan's Kitchen", "amenity": "fast_food", "other_tags": "\"cuisine\"=>\"chinese\",\"fhrs:id\"=>\"327671\",\"website\"=>\"http:\/\/www.chans-kitchen.co.uk\/\",\"addr:city\"=>\"Bingley\",\"addr:street\"=>\"Main Street\",\"addr:postcode\"=>\"BD16 2HZ\",\"addr:housenumber\"=>\"63\"" }, "geometry": { "type": "Point", "coordinates": [ -1.8388694, 53.8494444 ] } },
	{ "type": "Feature", "properties": { "osm_id": "5711950294", "name": "Kiplings", "amenity": "fast_food", "other_tags": "\"cuisine\"=>\"indian\",\"fhrs:id\"=>\"327670\",\"addr:city\"=>\"Bingley\",\"addr:street\"=>\"Main Street\",\"addr:postcode\"=>\"BD16 2HZ\",\"addr:housenumber\"=>\"61A\"" }, "geometry": { "type": "Point", "coordinates": [ -1.8389741, 53.8495379 ] } },
	{ "type": "Feature", "properties": { "osm_id": "5711950296", "name": "Kebab Ranch", "amenity": "fast_food", "other_tags": "\"cuisine\"=>\"burger;pizza;kebab\",\"fhrs:id\"=>\"778453\",\"website\"=>\"https:\/\/kebabranch.com\/\",\"addr:city\"=>\"Bingley\",\"addr:street\"=>\"Main Street\",\"addr:postcode\"=>\"BD16 2JA\",\"addr:housenumber\"=>\"75\"" }, "geometry": { "type": "Point", "coordinates": [ -1.838604, 53.8492277 ] } },
	{ "type": "Feature", "properties": { "osm_id": "5813079772", "name": "Sands Sandwiches", "amenity": "fast_food", "other_tags": "\"cuisine\"=>\"sandwich\",\"fhrs:id\"=>\"326767\",\"addr:city\"=>\"Keighley\",\"addr:street\"=>\"Dalton Lane\",\"addr:postcode\"=>\"BD21 4JR\",\"addr:housenumber\"=>\"58\"" }, "geometry": { "type": "Point", "coordinates": [ -1.8932587, 53.8694774 ] } },
	{ "type": "Feature", "properties": { "osm_id": "6331294898", "name": "Wonderful Fortune", "amenity": "fast_food", "other_tags": "\"cuisine\"=>\"chinese\",\"fhrs:id\"=>\"326507\",\"addr:city\"=>\"Bradford\",\"addr:street\"=>\"Westgate Hill Street\",\"addr:suburb\"=>\"Tong\",\"source:addr\"=>\"FHRS Open Data\",\"addr:postcode\"=>\"BD4 0SB\",\"addr:housenumber\"=>\"38\"" }, "geometry": { "type": "Point", "coordinates": [ -1.6852145, 53.761594 ] } },
	{ "type": "Feature", "properties": { "osm_id": "6357055147", "name": "Charlestown Fisheries", "amenity": "fast_food", "other_tags": "\"cuisine\"=>\"fish_and_chips\"" }, "geometry": { "type": "Point", "coordinates": [ -1.757911, 53.844708 ] } },
	{ "type": "Feature", "properties": { "osm_id": "6357055151", "name": "Crusty's Takeaway", "amenity": "fast_food", "other_tags": "\"cuisine\"=>\"sandwich\",\"fhrs:id\"=>\"327761\",\"addr:city\"=>\"Shipley\",\"addr:street\"=>\"Otley Road\",\"source:addr\"=>\"FHRS Open Data\",\"addr:village\"=>\"Baildon\",\"addr:postcode\"=>\"BD17 7HH\",\"addr:housenumber\"=>\"54B\"" }, "geometry": { "type": "Point", "coordinates": [ -1.7639899, 53.8426608 ] } },
	{ "type": "Feature", "properties": { "osm_id": "6434626839", "amenity": "fast_food", "other_tags": "\"cuisine\"=>\"fish_and_chips\"" }, "geometry": { "type": "Point", "coordinates": [ -1.7727772, 53.8259895 ] } },
	{ "type": "Feature", "properties": { "osm_id": "6872262756", "amenity": "fast_food", "other_tags": "\"cuisine\"=>\"sandwich\"" }, "geometry": { "type": "Point", "coordinates": [ -1.7320892, 53.8251886 ] } },
	{ "type": "Feature", "properties": { "osm_id": "6937731913", "name": "Abs fast food", "amenity": "fast_food", "other_tags": "\"cuisine\"=>\"indian\",\"delivery\"=>\"yes\",\"addr:city\"=>\"Bingley\",\"addr:street\"=>\"Foundry Hill\",\"addr:postcode\"=>\"BD16 2NB\"" }, "geometry": { "type": "Point", "coordinates": [ -1.8376558, 53.8480924 ] } },
	{ "type": "Feature", "properties": { "osm_id": "8047164096", "name": "Greggs", "amenity": "fast_food", "other_tags": "\"brand\"=>\"Greggs\",\"brand:wikidata\"=>\"Q3403981\",\"brand:wikipedia\"=>\"en:Greggs\",\"cuisine\"=>\"sandwich;bakery\",\"takeaway\"=>\"yes\"" }, "geometry": { "type": "Point", "coordinates": [ -1.7537687, 53.8010607 ] } },
	{ "type": "Feature", "properties": { "osm_id": "8047164098", "name": "Subway", "amenity": "fast_food", "other_tags": "\"brand\"=>\"Subway\",\"brand:wikidata\"=>\"Q244457\",\"brand:wikipedia\"=>\"en:Subway (restaurant)\",\"cuisine\"=>\"sandwich\",\"takeaway\"=>\"yes\"" }, "geometry": { "type": "Point", "coordinates": [ -1.7536723, 53.8009473 ] } }
]
}
