{
"type": "FeatureCollection",
"crs": { "type": "name", "properties": { "name": "urn:ogc:def:crs:OGC:1.3:CRS84" } },
"features": [
	{ "type": "Feature", "properties": { "osm_id": "333427397", "name": "Salts Village Bakery & Café", "amenity": "cafe", "other_tags": "\"shop\"=>\"bakery\",\"fhrs:id\"=>\"327870\",\"addr:city\"=>\"Shipley\",\"addr:street\"=>\"Victoria Road\",\"source:addr\"=>\"FHRS Open Data\",\"addr:village\"=>\"Saltaire\",\"addr:postcode\"=>\"BD18 3LA\",\"addr:housenumber\"=>\"8\"" }, "geometry": { "type": "Point", "coordinates": [ -1.789902, 53.8378492 ] } },
	{ "type": "Feature", "properties": { "osm_id": "685938319", "name": "J J Moores", "other_tags": "\"shop\"=>\"bakery\",\"fhrs:id\"=>\"326389\",\"addr:city\"=>\"Bradford\",\"addr:street\"=>\"The Parade\",\"source:addr\"=>\"FHRS Open Data\",\"addr:postcode\"=>\"BD4 9HN\",\"addr:housenumber\"=>\"1\"" }, "geometry": { "type": "Point", "coordinates": [ -1.7115481, 53.7781577 ] } },
	{ "type": "Feature", "properties": { "osm_id": "747526539", "name": "The Village Bakery", "other_tags": "\"shop\"=>\"bakery\"" }, "geometry": { "type": "Point", "coordinates": [ -1.7455178, 53.8912826 ] } },
	{ "type": "Feature", "properties": { "osm_id": "1586384934", "name": "Wilds", "other_tags": "\"shop\"=>\"bakery\",\"fhrs:id\"=>\"327778\",\"operator\"=>\"J Wild (Confectioners) Ltd\",\"addr:city\"=>\"Bingley\",\"addr:street\"=>\"Park Road\",\"addr:postcode\"=>\"BD16 4JQ\",\"addr:housenumber\"=>\"30B\"" }, "geometry": { "type": "Point", "coordinates": [ -1.836511, 53.8498052 ] } },
	{ "type": "Feature", "properties": { "osm_id": "1685213289", "name": "Moin Moin Bäckerei", "other_tags": "\"shop\"=>\"bakery\"" }, "geometry": { "type": "Point", "coordinates": [ -1.8236599, 53.9260557 ] } },
	{ "type": "Feature", "properties": { "osm_id": "1959492749", "name": "Kashmir Crown Bakeries", "other_tags": "\"shop\"=>\"bakery\"" }, "geometry": { "type": "Point", "coordinates": [ -1.9031494, 53.8705815 ] } },
	{ "type": "Feature", "properties": { "osm_id": "3583961855", "name": "Grandma Wild's Bisquits Bakery", "other_tags": "\"shop\"=>\"bakery\",\"fhrs:id\"=>\"325015\",\"website\"=>\"www.grandma-wilds.co.uk\",\"addr:city\"=>\"Keighley\",\"addr:street\"=>\"Station Road\",\"addr:village\"=>\"Steeton\",\"addr:postcode\"=>\"BD20 6RB\",\"addr:housename\"=>\"The Bakery\"" }, "geometry": { "type": "Point", "coordinates": [ -1.9500357, 53.8996953 ] } },
	{ "type": "Feature", "properties": { "osm_id": "4186193046", "name": "Nafees Bakers", "other_tags": "\"shop\"=>\"bakery\",\"fhrs:id\"=>\"328369\",\"addr:city\"=>\"Bradford\",\"addr:street\"=>\"Lilycroft Road\",\"source:addr\"=>\"FHRS Open Data\",\"addr:postcode\"=>\"BD9 5AJ\",\"addr:housenumber\"=>\"210-212\"" }, "geometry": { "type": "Point", "coordinates": [ -1.7846896, 53.8065924 ] } },
	{ "type": "Feature", "properties": { "osm_id": "4202245414", "name": "The Loafer Bakery", "other_tags": "\"shop\"=>\"bakery\",\"fhrs:id\"=>\"327207\",\"addr:city\"=>\"Ilkley\",\"addr:street\"=>\"Station Road\",\"source:addr\"=>\"FHRS Open Data\",\"addr:postcode\"=>\"LS29 8HA\",\"addr:housenumber\"=>\"4\"" }, "geometry": { "type": "Point", "coordinates": [ -1.8219694, 53.9243634 ] } },
	{ "type": "Feature", "properties": { "osm_id": "4525205462", "name": "Melvyn Davis", "other_tags": "\"shop\"=>\"bakery\",\"fhrs:id\"=>\"327358\",\"addr:city\"=>\"Shipley\",\"addr:street\"=>\"Bingley Road\",\"source:addr\"=>\"FHRS Open Data\",\"addr:village\"=>\"Saltaire\",\"addr:postcode\"=>\"BD18 4RU\",\"addr:housenumber\"=>\"32A\"" }, "geometry": { "type": "Point", "coordinates": [ -1.7919759, 53.8348945 ] } },
	{ "type": "Feature", "properties": { "osm_id": "5626680664", "name": "Edward -St- Bakery", "other_tags": "\"shop\"=>\"bakery\",\"addr:city\"=>\"Shipley\",\"addr:place\"=>\"Myrtle Place\",\"addr:street\"=>\"Saltaire Road\",\"addr:country\"=>\"GB\",\"addr:village\"=>\"Saltaire\",\"addr:postcode\"=>\"BD18 4NB\",\"opening_hours\"=>\"Fr 12:00-14:00; Sa 10:00+; Su 10:00+ || \\\"On Saturdays and Sundays - till sell out\\\"\",\"addr:housenumber\"=>\"1\"" }, "geometry": { "type": "Point", "coordinates": [ -1.793268, 53.8357823 ] } },
	{ "type": "Feature", "properties": { "osm_id": "5643783607", "name": "Cakes To Please", "other_tags": "\"shop\"=>\"bakery\",\"fhrs:id\"=>\"705878\",\"addr:city\"=>\"Shipley\",\"addr:street\"=>\"Kirkgate\",\"source:addr\"=>\"FHRS Open Data\",\"addr:postcode\"=>\"BD18 3QW\",\"opening_hours\"=>\"Mo, Tu, Th-Sa 09:30-17:00; We 09:30-15:00\",\"addr:housenumber\"=>\"13\"" }, "geometry": { "type": "Point", "coordinates": [ -1.7773481, 53.8342077 ] } },
	{ "type": "Feature", "properties": { "osm_id": "5648290222", "name": "Taylormadetreats", "other_tags": "\"shop\"=>\"bakery\",\"website\"=>\"https:\/\/www.taylormadetreats.co.uk\/\",\"addr:city\"=>\"Bingley\",\"addr:street\"=>\"Swan Avenue\",\"addr:village\"=>\"Eldwick\",\"addr:postcode\"=>\"BD16 3PA\",\"addr:housenumber\"=>\"200-2-2\"" }, "geometry": { "type": "Point", "coordinates": [ -1.8201849, 53.8541595 ] } },
	{ "type": "Feature", "properties": { "osm_id": "5659255512", "name": "Paul Binns", "other_tags": "\"shop\"=>\"bakery\",\"fhrs:id\"=>\"327355\",\"addr:city\"=>\"Shipley\",\"addr:street\"=>\"Bingley Road\",\"source:addr\"=>\"FHRS Open Data\",\"addr:village\"=>\"Saltaire\",\"addr:postcode\"=>\"BD18 4RS\",\"addr:housenumber\"=>\"22\"" }, "geometry": { "type": "Point", "coordinates": [ -1.7913825, 53.8347792 ] } },
	{ "type": "Feature", "properties": { "osm_id": "5673533001", "name": "Greggs", "other_tags": "\"shop\"=>\"bakery\",\"fhrs:id\"=>\"848986\",\"addr:city\"=>\"Keighley\",\"addr:street\"=>\"Hard Ings Road\",\"addr:postcode\"=>\"BD21 3NJ\",\"addr:subdistrict\"=>\"Keighley Retail Park\"" }, "geometry": { "type": "Point", "coordinates": [ -1.9054692, 53.8749807 ] } },
	{ "type": "Feature", "properties": { "osm_id": "5793874641", "name": "The Granary", "other_tags": "\"shop\"=>\"bakery\",\"fhrs:id\"=>\"327620\",\"addr:city\"=>\"Bradford\",\"addr:street\"=>\"Main Road\",\"source:addr\"=>\"FHRS Open Data\",\"addr:village\"=>\"Denholme\",\"addr:postcode\"=>\"BD13 4BL\",\"addr:housenumber\"=>\"50\"" }, "geometry": { "type": "Point", "coordinates": [ -1.8943976, 53.802345 ] } },
	{ "type": "Feature", "properties": { "osm_id": "6836932395", "name": "Love Brownies", "other_tags": "\"shop\"=>\"bakery\",\"fhrs:id\"=>\"1017361\",\"addr:city\"=>\"Ilkley\",\"addr:street\"=>\"Brook Street\",\"source:addr\"=>\"FHRS Open Data\",\"addr:postcode\"=>\"LS29 8AA\",\"addr:housenumber\"=>\"21b\"" }, "geometry": { "type": "Point", "coordinates": [ -1.8239142, 53.925286 ] } }
]
}
