{
"type": "FeatureCollection",
"crs": { "type": "name", "properties": { "name": "urn:ogc:def:crs:OGC:1.3:CRS84" } },
"features": [
	{ "type": "Feature", "properties": { "osm_id": "411728731", "name": "High Moor", "other_tags": "\"natural\"=>\"moor\"" }, "geometry": { "type": "Point", "coordinates": [ -1.8735566, 53.9089948 ] } },
	{ "type": "Feature", "properties": { "osm_id": "411729201", "name": "Addingham High Moor", "other_tags": "\"natural\"=>\"moor\"" }, "geometry": { "type": "Point", "coordinates": [ -1.8803372, 53.9198132 ] } },
	{ "type": "Feature", "properties": { "osm_id": "429730929", "name": "Addingham Low Moor", "other_tags": "\"natural\"=>\"moor\"" }, "geometry": { "type": "Point", "coordinates": [ -1.9155449, 53.9467762 ] } },
	{ "type": "Feature", "properties": { "osm_id": "518893515", "name": "The New Allotment", "other_tags": "\"is_in:country\"=>\"UK\",\"natural\"=>\"moor\"" }, "geometry": { "type": "Point", "coordinates": [ -2.0063466, 53.8689743 ] } },
	{ "type": "Feature", "properties": { "osm_id": "518894189", "name": "Steeton Moor", "other_tags": "\"is_in:country\"=>\"UK\",\"natural\"=>\"moor\"" }, "geometry": { "type": "Point", "coordinates": [ -1.9588393, 53.8847865 ] } },
	{ "type": "Feature", "properties": { "osm_id": "700261694", "name": "Thornton Moor", "other_tags": "\"is_in:country_code\"=>\"GB\",\"is_in:county\"=>\"West Yorkshire\",\"is_in:municipality\"=>\"Bradford\",\"natural\"=>\"moor\"" }, "geometry": { "type": "Point", "coordinates": [ -1.9195886, 53.7900236 ] } },
	{ "type": "Feature", "properties": { "osm_id": "708660265", "name": "Brocka Bank Moor", "other_tags": "\"natural\"=>\"moor\"" }, "geometry": { "type": "Point", "coordinates": [ -1.89992, 53.9314608 ] } },
	{ "type": "Feature", "properties": { "osm_id": "747743921", "name": "Low Moor", "other_tags": "\"natural\"=>\"moor\"" }, "geometry": { "type": "Point", "coordinates": [ -1.8444573, 53.8916568 ] } },
	{ "type": "Feature", "properties": { "osm_id": "763561897", "name": "Addingham Middle Moor", "other_tags": "\"natural\"=>\"moor\"" }, "geometry": { "type": "Point", "coordinates": [ -1.9132673, 53.9374123 ] } },
	{ "type": "Feature", "properties": { "osm_id": "763563048", "name": "Addingham Middle Moor", "other_tags": "\"natural\"=>\"moor\"" }, "geometry": { "type": "Point", "coordinates": [ -1.89953, 53.9368922 ] } }
]
}
