{
"type": "FeatureCollection",
"crs": { "type": "name", "properties": { "name": "urn:ogc:def:crs:OGC:1.3:CRS84" } },
"features": [
	{ "type": "Feature", "properties": { "osm_id": "333427400", "name": "Saltaire Newsagents", "other_tags": "\"addr:city\"=>\"Shipley\",\"addr:village\"=>\"Saltaire\",\"shop\"=>\"newsagent\"" }, "geometry": { "type": "Point", "coordinates": [ -1.7899365, 53.8377762 ] } },
	{ "type": "Feature", "properties": { "osm_id": "446295700", "name": "Barnetts News", "other_tags": "\"shop\"=>\"newsagent\"" }, "geometry": { "type": "Point", "coordinates": [ -1.881237, 53.8765254 ] } },
	{ "type": "Feature", "properties": { "osm_id": "446308493", "name": "Ruby News", "other_tags": "\"shop\"=>\"newsagent\",\"wheelchair\"=>\"no\"" }, "geometry": { "type": "Point", "coordinates": [ -1.9197326, 53.8667767 ] } },
	{ "type": "Feature", "properties": { "osm_id": "493712317", "name": "Village News", "other_tags": "\"shop\"=>\"newsagent\"" }, "geometry": { "type": "Point", "coordinates": [ -1.7455824, 53.8913383 ] } },
	{ "type": "Feature", "properties": { "osm_id": "1400456972", "name": "Bargain Booze", "other_tags": "\"addr:city\"=>\"Shipley\",\"addr:housenumber\"=>\"59-61\",\"addr:postcode\"=>\"BD18 3JN\",\"addr:street\"=>\"Saltaire Road\",\"alcohol\"=>\"yes\",\"fhrs:id\"=>\"327805\",\"shop\"=>\"newsagent\",\"source:addr\"=>\"FHRS Open Data\"" }, "geometry": { "type": "Point", "coordinates": [ -1.7878437, 53.8362778 ] } },
	{ "type": "Feature", "properties": { "osm_id": "1584075255", "name": "Keighley Newsagent", "other_tags": "\"shop\"=>\"newsagent\"" }, "geometry": { "type": "Point", "coordinates": [ -1.9097834, 53.8695549 ] } },
	{ "type": "Feature", "properties": { "osm_id": "2054473273", "other_tags": "\"shop\"=>\"newsagent\"" }, "geometry": { "type": "Point", "coordinates": [ -1.7455659, 53.8913553 ] } },
	{ "type": "Feature", "properties": { "osm_id": "2358605898", "name": "Martin's", "other_tags": "\"addr:city\"=>\"Shipley\",\"addr:housenumber\"=>\"39\",\"addr:postcode\"=>\"BD18 3QJ\",\"addr:street\"=>\"Market Square\",\"fhrs:id\"=>\"327697\",\"shop\"=>\"newsagent\",\"source:addr\"=>\"FHRS Open Data\"" }, "geometry": { "type": "Point", "coordinates": [ -1.7778704, 53.8338437 ] } },
	{ "type": "Feature", "properties": { "osm_id": "2414265476", "name": "2001 video library", "other_tags": "\"shop\"=>\"newsagent\"" }, "geometry": { "type": "Point", "coordinates": [ -1.7202274, 53.7974889 ] } }
]
}
