{
"type": "FeatureCollection",
"crs": { "type": "name", "properties": { "name": "urn:ogc:def:crs:OGC:1.3:CRS84" } },
"features": [
	{ "type": "Feature", "properties": { "osm_id": "4474305332", "other_tags": "\"natural\"=>\"wood\"" }, "geometry": { "type": "Point", "coordinates": [ -1.4530508, 53.8158985 ] } },
	{ "type": "Feature", "properties": { "osm_id": "6294105450", "name": "Great Heads Wood", "other_tags": "\"natural\"=>\"wood\"" }, "geometry": { "type": "Point", "coordinates": [ -1.498764, 53.8477624 ] } },
	{ "type": "Feature", "properties": { "osm_id": "6294105451", "other_tags": "\"natural\"=>\"wood\",\"proposed\"=>\"natural\"" }, "geometry": { "type": "Point", "coordinates": [ -1.4995835, 53.8485094 ] } },
	{ "type": "Feature", "properties": { "osm_id": "6294107493", "name": "Great Heads Wood", "other_tags": "\"natural\"=>\"wood\"" }, "geometry": { "type": "Point", "coordinates": [ -1.490466, 53.8440923 ] } },
	{ "type": "Feature", "properties": { "osm_id": "6294107494", "name": "Great Heads Wood", "other_tags": "\"natural\"=>\"wood\"" }, "geometry": { "type": "Point", "coordinates": [ -1.4901509, 53.8418841 ] } },
	{ "type": "Feature", "properties": { "osm_id": "6294107495", "name": "Castle Wood", "other_tags": "\"natural\"=>\"wood\"" }, "geometry": { "type": "Point", "coordinates": [ -1.4931512, 53.8415723 ] } },
	{ "type": "Feature", "properties": { "osm_id": "6294107496", "name": "Braim Wood", "other_tags": "\"natural\"=>\"wood\"" }, "geometry": { "type": "Point", "coordinates": [ -1.4887849, 53.8401906 ] } },
	{ "type": "Feature", "properties": { "osm_id": "6294107497", "name": "Braim Wood", "other_tags": "\"natural\"=>\"wood\"" }, "geometry": { "type": "Point", "coordinates": [ -1.4909884, 53.837216 ] } },
	{ "type": "Feature", "properties": { "osm_id": "6452879860", "name": "Yorksfield Plantation", "other_tags": "\"natural\"=>\"wood\"" }, "geometry": { "type": "Point", "coordinates": [ -1.4193852, 53.8448285 ] } },
	{ "type": "Feature", "properties": { "osm_id": "6452879861", "name": "Redhills Plantation", "other_tags": "\"natural\"=>\"wood\"" }, "geometry": { "type": "Point", "coordinates": [ -1.4170238, 53.8494696 ] } },
	{ "type": "Feature", "properties": { "osm_id": "6452879862", "name": "Kiddal Wood", "other_tags": "\"natural\"=>\"wood\"" }, "geometry": { "type": "Point", "coordinates": [ -1.4103027, 53.8493148 ] } },
	{ "type": "Feature", "properties": { "osm_id": "6452879863", "name": "Saw Wood", "other_tags": "\"natural\"=>\"wood\"" }, "geometry": { "type": "Point", "coordinates": [ -1.4165499, 53.846872 ] } },
	{ "type": "Feature", "properties": { "osm_id": "6467167137", "name": "Jenny Sober", "other_tags": "\"natural\"=>\"wood\"" }, "geometry": { "type": "Point", "coordinates": [ -1.3828862, 53.8581832 ] } },
	{ "type": "Feature", "properties": { "osm_id": "6467167138", "name": "Jenny Sober Plantation", "other_tags": "\"natural\"=>\"wood\"" }, "geometry": { "type": "Point", "coordinates": [ -1.3873279, 53.8581896 ] } },
	{ "type": "Feature", "properties": { "osm_id": "6467167139", "name": "Whittle Car", "other_tags": "\"natural\"=>\"wood\"" }, "geometry": { "type": "Point", "coordinates": [ -1.3888372, 53.859979 ] } },
	{ "type": "Feature", "properties": { "osm_id": "6467167140", "name": "Whittle Car", "other_tags": "\"natural\"=>\"wood\"" }, "geometry": { "type": "Point", "coordinates": [ -1.3953907, 53.8624054 ] } },
	{ "type": "Feature", "properties": { "osm_id": "6467167141", "name": "Thorner Moor Plantation", "other_tags": "\"natural\"=>\"wood\"" }, "geometry": { "type": "Point", "coordinates": [ -1.3963231, 53.8655915 ] } },
	{ "type": "Feature", "properties": { "osm_id": "6467167143", "name": "Beccamoor Wood", "other_tags": "\"natural\"=>\"wood\"" }, "geometry": { "type": "Point", "coordinates": [ -1.3613023, 53.858987 ] } },
	{ "type": "Feature", "properties": { "osm_id": "6467167144", "name": "New Black Fen", "other_tags": "\"natural\"=>\"wood\"" }, "geometry": { "type": "Point", "coordinates": [ -1.3566164, 53.8593293 ] } },
	{ "type": "Feature", "properties": { "osm_id": "6467167145", "name": "Whitewells Bottom", "other_tags": "\"natural\"=>\"wood\"" }, "geometry": { "type": "Point", "coordinates": [ -1.3656184, 53.8582353 ] } },
	{ "type": "Feature", "properties": { "osm_id": "6467167146", "name": "Bramham Park", "other_tags": "\"natural\"=>\"wood\"" }, "geometry": { "type": "Point", "coordinates": [ -1.3696626, 53.8542988 ] } },
	{ "type": "Feature", "properties": { "osm_id": "6467167147", "name": "Bramham Park", "other_tags": "\"natural\"=>\"wood\"" }, "geometry": { "type": "Point", "coordinates": [ -1.3760736, 53.8620234 ] } },
	{ "type": "Feature", "properties": { "osm_id": "6467167148", "name": "Bramham Park", "other_tags": "\"natural\"=>\"wood\"" }, "geometry": { "type": "Point", "coordinates": [ -1.3773855, 53.8643623 ] } },
	{ "type": "Feature", "properties": { "osm_id": "6467167149", "name": "Bramham Park", "other_tags": "\"natural\"=>\"wood\"" }, "geometry": { "type": "Point", "coordinates": [ -1.3944617, 53.8669049 ] } },
	{ "type": "Feature", "properties": { "osm_id": "6467167150", "name": "Bramham Moor", "other_tags": "\"natural\"=>\"wood\"" }, "geometry": { "type": "Point", "coordinates": [ -1.394938, 53.8649277 ] } },
	{ "type": "Feature", "properties": { "osm_id": "6467167151", "name": "Whin Covert", "other_tags": "\"natural\"=>\"wood\"" }, "geometry": { "type": "Point", "coordinates": [ -1.3698736, 53.8556176 ] } },
	{ "type": "Feature", "properties": { "osm_id": "6467167152", "name": "Blackfen Plantation", "other_tags": "\"natural\"=>\"wood\"" }, "geometry": { "type": "Point", "coordinates": [ -1.3731765, 53.8569914 ] } },
	{ "type": "Feature", "properties": { "osm_id": "6467167264", "name": "Four Acre Wood", "other_tags": "\"natural\"=>\"wood\"" }, "geometry": { "type": "Point", "coordinates": [ -1.366684, 53.8455422 ] } },
	{ "type": "Feature", "properties": { "osm_id": "6467167265", "name": "Hick Wood", "other_tags": "\"natural\"=>\"wood\"" }, "geometry": { "type": "Point", "coordinates": [ -1.3630103, 53.845325 ] } },
	{ "type": "Feature", "properties": { "osm_id": "6467167266", "name": "Birch Spring", "other_tags": "\"natural\"=>\"wood\"" }, "geometry": { "type": "Point", "coordinates": [ -1.3587655, 53.843854 ] } },
	{ "type": "Feature", "properties": { "osm_id": "6467167267", "name": "Roughclose Wood", "other_tags": "\"natural\"=>\"wood\"" }, "geometry": { "type": "Point", "coordinates": [ -1.3623148, 53.8490453 ] } },
	{ "type": "Feature", "properties": { "osm_id": "6467167268", "name": "Cowthwaite Plantation", "other_tags": "\"natural\"=>\"wood\"" }, "geometry": { "type": "Point", "coordinates": [ -1.3568429, 53.8473803 ] } },
	{ "type": "Feature", "properties": { "osm_id": "6467167279", "name": "The Belt", "other_tags": "\"natural\"=>\"wood\"" }, "geometry": { "type": "Point", "coordinates": [ -1.3728121, 53.8278487 ] } },
	{ "type": "Feature", "properties": { "osm_id": "6467167280", "name": "Cherry Strip", "other_tags": "\"natural\"=>\"wood\"" }, "geometry": { "type": "Point", "coordinates": [ -1.3753712, 53.8256767 ] } },
	{ "type": "Feature", "properties": { "osm_id": "6467167281", "name": "Willowgarth Plantation", "other_tags": "\"natural\"=>\"wood\"" }, "geometry": { "type": "Point", "coordinates": [ -1.366106, 53.8274959 ] } },
	{ "type": "Feature", "properties": { "osm_id": "6467167375", "name": "Barwick Lodge Plantation", "other_tags": "\"natural\"=>\"wood\"" }, "geometry": { "type": "Point", "coordinates": [ -1.3692967, 53.8301849 ] } },
	{ "type": "Feature", "properties": { "osm_id": "6467167415", "name": "Bathingwell Platation", "other_tags": "\"natural\"=>\"wood\"" }, "geometry": { "type": "Point", "coordinates": [ -1.3667977, 53.8150266 ] } },
	{ "type": "Feature", "properties": { "osm_id": "6467167452", "name": "Fox Covert", "other_tags": "\"natural\"=>\"wood\"" }, "geometry": { "type": "Point", "coordinates": [ -1.3653896, 53.8121503 ] } },
	{ "type": "Feature", "properties": { "osm_id": "6467167455", "name": "Laverack", "other_tags": "\"natural\"=>\"wood\"" }, "geometry": { "type": "Point", "coordinates": [ -1.3856724, 53.8110675 ] } },
	{ "type": "Feature", "properties": { "osm_id": "6467167471", "name": "Throstlenest Plantation", "other_tags": "\"natural\"=>\"wood\"" }, "geometry": { "type": "Point", "coordinates": [ -1.3777809, 53.8159353 ] } },
	{ "type": "Feature", "properties": { "osm_id": "6662830432", "name": "Pump Wood", "other_tags": "\"natural\"=>\"wood\"" }, "geometry": { "type": "Point", "coordinates": [ -1.4666877, 53.7859518 ] } },
	{ "type": "Feature", "properties": { "osm_id": "6662830433", "name": "Park Wood", "other_tags": "\"natural\"=>\"wood\"" }, "geometry": { "type": "Point", "coordinates": [ -1.4659606, 53.7845174 ] } },
	{ "type": "Feature", "properties": { "osm_id": "6803106867", "name": "Ragdale Plantation", "other_tags": "\"natural\"=>\"wood\"" }, "geometry": { "type": "Point", "coordinates": [ -1.3989685, 53.8762052 ] } },
	{ "type": "Feature", "properties": { "osm_id": "6803106868", "name": "Lake Plantation", "other_tags": "\"natural\"=>\"wood\"" }, "geometry": { "type": "Point", "coordinates": [ -1.3952999, 53.8748042 ] } },
	{ "type": "Feature", "properties": { "osm_id": "6803106869", "name": "Lake Plantation", "other_tags": "\"natural\"=>\"wood\"" }, "geometry": { "type": "Point", "coordinates": [ -1.3894549, 53.875661 ] } },
	{ "type": "Feature", "properties": { "osm_id": "6803106916", "name": "Terry Lug Plantation", "other_tags": "\"natural\"=>\"wood\"" }, "geometry": { "type": "Point", "coordinates": [ -1.3912356, 53.8726691 ] } },
	{ "type": "Feature", "properties": { "osm_id": "6803106917", "name": "Norwood Bottoms", "other_tags": "\"natural\"=>\"wood\"" }, "geometry": { "type": "Point", "coordinates": [ -1.4107444, 53.8700762 ] } },
	{ "type": "Feature", "properties": { "osm_id": "6803106918", "name": "Milner Wood", "other_tags": "\"natural\"=>\"wood\"" }, "geometry": { "type": "Point", "coordinates": [ -1.4160347, 53.8689284 ] } },
	{ "type": "Feature", "properties": { "osm_id": "6928938746", "name": "Peckfield Plantation", "other_tags": "\"natural\"=>\"wood\"" }, "geometry": { "type": "Point", "coordinates": [ -1.3282622, 53.7808516 ] } },
	{ "type": "Feature", "properties": { "osm_id": "6928938747", "name": "Micklefield Plantation", "other_tags": "\"natural\"=>\"wood\"" }, "geometry": { "type": "Point", "coordinates": [ -1.3216493, 53.7818488 ] } },
	{ "type": "Feature", "properties": { "osm_id": "6928938748", "name": "Micklefield Plantation", "other_tags": "\"natural\"=>\"wood\"" }, "geometry": { "type": "Point", "coordinates": [ -1.3157425, 53.7821134 ] } },
	{ "type": "Feature", "properties": { "osm_id": "6928938749", "name": "Castle Hills", "other_tags": "\"natural\"=>\"wood\"" }, "geometry": { "type": "Point", "coordinates": [ -1.3192384, 53.7844638 ] } },
	{ "type": "Feature", "properties": { "osm_id": "6928938750", "name": "Castle Plains", "other_tags": "\"natural\"=>\"wood\"" }, "geometry": { "type": "Point", "coordinates": [ -1.3155703, 53.7832733 ] } },
	{ "type": "Feature", "properties": { "osm_id": "6928938751", "name": "Castle Hills", "other_tags": "\"natural\"=>\"wood\"" }, "geometry": { "type": "Point", "coordinates": [ -1.3164314, 53.7840466 ] } },
	{ "type": "Feature", "properties": { "osm_id": "6928938752", "name": "Highroyds Wood", "other_tags": "\"natural\"=>\"wood\"" }, "geometry": { "type": "Point", "coordinates": [ -1.3172408, 53.7869056 ] } },
	{ "type": "Feature", "properties": { "osm_id": "6928938753", "name": "Highroyds Wood", "other_tags": "\"natural\"=>\"wood\"" }, "geometry": { "type": "Point", "coordinates": [ -1.31991, 53.7874754 ] } },
	{ "type": "Feature", "properties": { "osm_id": "7112820028", "name": "Dawson's Wood", "other_tags": "\"natural\"=>\"wood\"" }, "geometry": { "type": "Point", "coordinates": [ -1.4447498, 53.7807468 ] } },
	{ "type": "Feature", "properties": { "osm_id": "7112820029", "name": "The Shrogs", "other_tags": "\"natural\"=>\"wood\"" }, "geometry": { "type": "Point", "coordinates": [ -1.4455213, 53.7777228 ] } },
	{ "type": "Feature", "properties": { "osm_id": "7112820030", "name": "Laurel Hill Wood", "other_tags": "\"natural\"=>\"wood\"" }, "geometry": { "type": "Point", "coordinates": [ -1.4429519, 53.7788521 ] } },
	{ "type": "Feature", "properties": { "osm_id": "7159073778", "name": "Wilderness Wood", "other_tags": "\"natural\"=>\"wood\"" }, "geometry": { "type": "Point", "coordinates": [ -1.4457743, 53.7826107 ] } },
	{ "type": "Feature", "properties": { "osm_id": "7159073779", "name": "Avenue Wood", "other_tags": "\"natural\"=>\"wood\"" }, "geometry": { "type": "Point", "coordinates": [ -1.4361338, 53.7810251 ] } },
	{ "type": "Feature", "properties": { "osm_id": "7159073780", "name": "Hertford Springs", "other_tags": "\"natural\"=>\"wood\"" }, "geometry": { "type": "Point", "coordinates": [ -1.442072, 53.7826216 ] } },
	{ "type": "Feature", "properties": { "osm_id": "7605801661", "name": "Coppice Wood", "other_tags": "\"natural\"=>\"wood\"" }, "geometry": { "type": "Point", "coordinates": [ -1.4384144, 53.7795734 ] } },
	{ "type": "Feature", "properties": { "osm_id": "7605801662", "name": "Bullerthorpe Wood", "other_tags": "\"natural\"=>\"wood\"" }, "geometry": { "type": "Point", "coordinates": [ -1.4345939, 53.7782553 ] } },
	{ "type": "Feature", "properties": { "osm_id": "7605801663", "name": "LodgeWood", "other_tags": "\"natural\"=>\"wood\"" }, "geometry": { "type": "Point", "coordinates": [ -1.4359126, 53.7808259 ] } },
	{ "type": "Feature", "properties": { "osm_id": "7707309143", "other_tags": "\"natural\"=>\"wood\"" }, "geometry": { "type": "Point", "coordinates": [ -1.4773764, 53.8406133 ] } }
]
}
