{
"type": "FeatureCollection",
"crs": { "type": "name", "properties": { "name": "urn:ogc:def:crs:OGC:1.3:CRS84" } },
"features": [
	{ "type": "Feature", "properties": { "osm_id": "302684128", "other_tags": "\"leisure\"=>\"playground\"" }, "geometry": { "type": "Point", "coordinates": [ -1.6099102, 53.8094492 ] } },
	{ "type": "Feature", "properties": { "osm_id": "480891009", "other_tags": "\"leisure\"=>\"playground\"" }, "geometry": { "type": "Point", "coordinates": [ -1.3857455, 53.9317575 ] } },
	{ "type": "Feature", "properties": { "osm_id": "518142630", "other_tags": "\"leisure\"=>\"playground\"" }, "geometry": { "type": "Point", "coordinates": [ -1.6296843, 53.8180692 ] } },
	{ "type": "Feature", "properties": { "osm_id": "1274223927", "other_tags": "\"leisure\"=>\"playground\"" }, "geometry": { "type": "Point", "coordinates": [ -1.5980576, 53.8141313 ] } },
	{ "type": "Feature", "properties": { "osm_id": "1362178546", "other_tags": "\"leisure\"=>\"playground\"" }, "geometry": { "type": "Point", "coordinates": [ -1.6246652, 53.7870846 ] } },
	{ "type": "Feature", "properties": { "osm_id": "1782032998", "other_tags": "\"leisure\"=>\"playground\"" }, "geometry": { "type": "Point", "coordinates": [ -1.6728612, 53.8232739 ] } },
	{ "type": "Feature", "properties": { "osm_id": "2050502083", "other_tags": "\"leisure\"=>\"playground\"" }, "geometry": { "type": "Point", "coordinates": [ -1.5180234, 53.8130005 ] } },
	{ "type": "Feature", "properties": { "osm_id": "2284606562", "other_tags": "\"leisure\"=>\"playground\"" }, "geometry": { "type": "Point", "coordinates": [ -1.3510765, 53.8873606 ] } },
	{ "type": "Feature", "properties": { "osm_id": "2295325670", "other_tags": "\"leisure\"=>\"playground\"" }, "geometry": { "type": "Point", "coordinates": [ -1.5476843, 53.754244 ] } },
	{ "type": "Feature", "properties": { "osm_id": "2467152980", "other_tags": "\"leisure\"=>\"playground\"" }, "geometry": { "type": "Point", "coordinates": [ -1.5209438, 53.7941969 ] } },
	{ "type": "Feature", "properties": { "osm_id": "3166819761", "other_tags": "\"leisure\"=>\"playground\"" }, "geometry": { "type": "Point", "coordinates": [ -1.512778, 53.7962219 ] } },
	{ "type": "Feature", "properties": { "osm_id": "3166819780", "other_tags": "\"leisure\"=>\"playground\"" }, "geometry": { "type": "Point", "coordinates": [ -1.5101685, 53.7929597 ] } },
	{ "type": "Feature", "properties": { "osm_id": "3287967964", "other_tags": "\"leisure\"=>\"playground\"" }, "geometry": { "type": "Point", "coordinates": [ -1.6238743, 53.9013403 ] } },
	{ "type": "Feature", "properties": { "osm_id": "3317058431", "other_tags": "\"leisure\"=>\"playground\"" }, "geometry": { "type": "Point", "coordinates": [ -1.6231811, 53.8464073 ] } },
	{ "type": "Feature", "properties": { "osm_id": "3634804453", "other_tags": "\"leisure\"=>\"playground\"" }, "geometry": { "type": "Point", "coordinates": [ -1.6252289, 53.7761469 ] } },
	{ "type": "Feature", "properties": { "osm_id": "3634804487", "other_tags": "\"leisure\"=>\"playground\"" }, "geometry": { "type": "Point", "coordinates": [ -1.6210071, 53.7791423 ] } },
	{ "type": "Feature", "properties": { "osm_id": "3797101157", "other_tags": "\"leisure\"=>\"playground\"" }, "geometry": { "type": "Point", "coordinates": [ -1.5906279, 53.8293926 ] } },
	{ "type": "Feature", "properties": { "osm_id": "3822933171", "other_tags": "\"leisure\"=>\"playground\"" }, "geometry": { "type": "Point", "coordinates": [ -1.3177831, 53.9110934 ] } },
	{ "type": "Feature", "properties": { "osm_id": "3904815770", "name": "Kids Clubhouse", "other_tags": "\"fee\"=>\"yes\",\"phone\"=>\"+44 113 393 3340\",\"fhrs:id\"=>\"323059\",\"leisure\"=>\"playground\",\"website\"=>\"http:\/\/www.kids-clubhouse.net\/\",\"addr:city\"=>\"Horsforth\",\"addr:street\"=>\"New Road Side\",\"addr:postcode\"=>\"LS18 4QD\",\"opening_hours\"=>\"Mo-We 09:30-15:30; Th-Fr 09:30-17:30; Sa-Su 10:00-17:00\",\"addr:housenumber\"=>\"75A\"" }, "geometry": { "type": "Point", "coordinates": [ -1.640554, 53.8318924 ] } },
	{ "type": "Feature", "properties": { "osm_id": "5182444626", "other_tags": "\"leisure\"=>\"playground\"" }, "geometry": { "type": "Point", "coordinates": [ -1.4436347, 53.8193674 ] } },
	{ "type": "Feature", "properties": { "osm_id": "5304319844", "other_tags": "\"access\"=>\"permissive\",\"leisure\"=>\"playground\"" }, "geometry": { "type": "Point", "coordinates": [ -1.6634923, 53.8305179 ] } },
	{ "type": "Feature", "properties": { "osm_id": "5473347571", "name": "Jackaboos", "other_tags": "\"fhrs:id\"=>\"321574\",\"leisure\"=>\"playground\",\"addr:city\"=>\"Leeds\",\"addr:unit\"=>\"10a\",\"addr:street\"=>\"Town Street\",\"addr:suburb\"=>\"Farsley\",\"addr:postcode\"=>\"LS28 5UJ\",\"addr:housename\"=>\"Sunny Bank Mills\",\"addr:housenumber\"=>\"83-85\"" }, "geometry": { "type": "Point", "coordinates": [ -1.6713703, 53.8137477 ] } },
	{ "type": "Feature", "properties": { "osm_id": "5476054184", "name": "Yanki Doodlz Play Zone and Diner", "other_tags": "\"phone\"=>\"+44 7763389063\",\"access\"=>\"customers\",\"indoor\"=>\"yes\",\"fhrs:id\"=>\"847981\",\"leisure\"=>\"playground\",\"max_age\"=>\"12\",\"min_age\"=>\"0\",\"addr:city\"=>\"Leeds\",\"addr:street\"=>\"Sizers Court\",\"addr:suburb\"=>\"Yeadon\",\"addr:postcode\"=>\"LS19 7DP\",\"addr:housename\"=>\"Design House\",\"addr:housenumber\"=>\"2\"" }, "geometry": { "type": "Point", "coordinates": [ -1.6897074, 53.8595102 ] } },
	{ "type": "Feature", "properties": { "osm_id": "5545788876", "name": "Munchkins", "other_tags": "\"fhrs:id\"=>\"899507\",\"leisure\"=>\"playground\",\"addr:city\"=>\"Leeds\",\"addr:street\"=>\"Bank Avenue\",\"addr:suburb\"=>\"Morley\",\"addr:postcode\"=>\"LS27 9JF\"" }, "geometry": { "type": "Point", "coordinates": [ -1.6014129, 53.7507615 ] } },
	{ "type": "Feature", "properties": { "osm_id": "5550688246", "name": "Jungle Kids", "other_tags": "\"fhrs:id\"=>\"323321\",\"leisure\"=>\"playground\",\"addr:city\"=>\"Leeds\",\"addr:unit\"=>\"2\",\"addr:street\"=>\"Whingate\",\"addr:suburb\"=>\"Armley\",\"addr:postcode\"=>\"LS12 3BL\",\"addr:housenumber\"=>\"12\"" }, "geometry": { "type": "Point", "coordinates": [ -1.5976471, 53.7942284 ] } },
	{ "type": "Feature", "properties": { "osm_id": "5756354076", "other_tags": "\"leisure\"=>\"playground\"" }, "geometry": { "type": "Point", "coordinates": [ -1.4728904, 53.8260819 ] } },
	{ "type": "Feature", "properties": { "osm_id": "6010070738", "name": "Kids About Tarn", "other_tags": "\"indoor\"=>\"yes\",\"fhrs:id\"=>\"1069778\",\"leisure\"=>\"playground\",\"addr:city\"=>\"Leeds\",\"addr:unit\"=>\"4\",\"addr:street\"=>\"Cliffe Court\",\"addr:suburb\"=>\"Yeadon\",\"addr:postcode\"=>\"LS19 7YU\"" }, "geometry": { "type": "Point", "coordinates": [ -1.6829118, 53.8659505 ] } },
	{ "type": "Feature", "properties": { "osm_id": "6181644898", "other_tags": "\"access\"=>\"private\",\"leisure\"=>\"playground\"" }, "geometry": { "type": "Point", "coordinates": [ -1.4503342, 53.8149853 ] } },
	{ "type": "Feature", "properties": { "osm_id": "6182113766", "other_tags": "\"leisure\"=>\"playground\"" }, "geometry": { "type": "Point", "coordinates": [ -1.4529607, 53.8306066 ] } },
	{ "type": "Feature", "properties": { "osm_id": "6314345265", "other_tags": "\"leisure\"=>\"playground\"" }, "geometry": { "type": "Point", "coordinates": [ -1.4794496, 53.7972607 ] } },
	{ "type": "Feature", "properties": { "osm_id": "6491250818", "other_tags": "\"leisure\"=>\"playground\"" }, "geometry": { "type": "Point", "coordinates": [ -1.5306458, 53.8451764 ] } },
	{ "type": "Feature", "properties": { "osm_id": "6491250819", "other_tags": "\"leisure\"=>\"playground\"" }, "geometry": { "type": "Point", "coordinates": [ -1.530359, 53.8453932 ] } },
	{ "type": "Feature", "properties": { "osm_id": "6491297786", "other_tags": "\"leisure\"=>\"playground\"" }, "geometry": { "type": "Point", "coordinates": [ -1.5056546, 53.8473673 ] } },
	{ "type": "Feature", "properties": { "osm_id": "6540158122", "name": "Jigsaw Juniors", "amenity": "cafe", "other_tags": "\"level\"=>\"1\",\"indoor\"=>\"yes\",\"fhrs:id\"=>\"1073664\",\"leisure\"=>\"playground\",\"addr:city\"=>\"Leeds\",\"addr:street\"=>\"Town Street\",\"addr:suburb\"=>\"Horsforth\",\"addr:postcode\"=>\"LS18 4RJ\",\"addr:housenumber\"=>\"30\"" }, "geometry": { "type": "Point", "coordinates": [ -1.6410425, 53.8373978 ] } },
	{ "type": "Feature", "properties": { "osm_id": "6708038061", "name": "Joon", "amenity": "cafe", "other_tags": "\"shop\"=>\"craft\",\"indoor\"=>\"yes\",\"fhrs:id\"=>\"1111073\",\"leisure\"=>\"playground\",\"website\"=>\"https:\/\/www.joonbostonspa.co.uk\/\",\"addr:town\"=>\"Wetherby\",\"addr:street\"=>\"High Street\",\"addr:suburb\"=>\"Boston Spa\",\"addr:postcode\"=>\"LS23 6BW\",\"addr:housenumber\"=>\"164\"" }, "geometry": { "type": "Point", "coordinates": [ -1.3470697, 53.9050271 ] } },
	{ "type": "Feature", "properties": { "osm_id": "6710198181", "name": "Little Burrowers", "other_tags": "\"level\"=>\"1\",\"indoor\"=>\"yes\",\"fhrs:id\"=>\"1091946\",\"leisure\"=>\"playground\",\"addr:city\"=>\"Leeds\",\"addr:unit\"=>\"3\",\"addr:place\"=>\"ABS Business Park\",\"addr:street\"=>\"Viaduct Street\",\"addr:suburb\"=>\"Stanningley\",\"addr:postcode\"=>\"LS28 6AU\"" }, "geometry": { "type": "Point", "coordinates": [ -1.6683689, 53.8044026 ] } },
	{ "type": "Feature", "properties": { "osm_id": "6799342785", "name": "Litton Way Play Area", "other_tags": "\"leisure\"=>\"playground\",\"addr:city\"=>\"Leeds\",\"addr:street\"=>\"Litton Way\",\"addr:suburb\"=>\"Whinmoor\",\"addr:housename\"=>\"Play Area Rear Of 2 - 22\",\"addr:housenumber\"=>\"2-22\"" }, "geometry": { "type": "Point", "coordinates": [ -1.459017, 53.8351498 ] } },
	{ "type": "Feature", "properties": { "osm_id": "7929558824", "other_tags": "\"leisure\"=>\"playground\"" }, "geometry": { "type": "Point", "coordinates": [ -1.556179, 53.8354389 ] } }
]
}
