{
"type": "FeatureCollection",
"crs": { "type": "name", "properties": { "name": "urn:ogc:def:crs:OGC:1.3:CRS84" } },
"features": [
	{ "type": "Feature", "properties": { "osm_id": "27480802", "name": "Yorkshire Classic Porsche Specialist", "other_tags": "\"shop\"=>\"car_repair\"" }, "geometry": { "type": "Point", "coordinates": [ -1.4118088, 53.9080867 ] } },
	{ "type": "Feature", "properties": { "osm_id": "300382896", "name": "Pepper Motors", "other_tags": "\"shop\"=>\"car_repair\"" }, "geometry": { "type": "Point", "coordinates": [ -1.6434788, 53.8184316 ] } },
	{ "type": "Feature", "properties": { "osm_id": "302744758", "name": "Car Smart", "other_tags": "\"shop\"=>\"car_repair\"" }, "geometry": { "type": "Point", "coordinates": [ -1.5898148, 53.8169514 ] } },
	{ "type": "Feature", "properties": { "osm_id": "306328529", "name": "Tower Lane Garage", "other_tags": "\"shop\"=>\"car_repair\"" }, "geometry": { "type": "Point", "coordinates": [ -1.6048552, 53.7990917 ] } },
	{ "type": "Feature", "properties": { "osm_id": "317087697", "name": "Americo Motors", "other_tags": "\"addr:city\"=>\"Leeds\",\"addr:street\"=>\"High Court Lane\",\"phone\"=>\"+44 113 244 1437\",\"shop\"=>\"car_repair\"" }, "geometry": { "type": "Point", "coordinates": [ -1.5372447, 53.794728 ] } },
	{ "type": "Feature", "properties": { "osm_id": "319860943", "name": "Apex Auto Care Centre", "other_tags": "\"shop\"=>\"car_repair\"" }, "geometry": { "type": "Point", "coordinates": [ -1.5754989, 53.8104858 ] } },
	{ "type": "Feature", "properties": { "osm_id": "333790969", "name": "M&J Auto Repairs", "other_tags": "\"shop\"=>\"car_repair\"" }, "geometry": { "type": "Point", "coordinates": [ -1.5402622, 53.7845002 ] } },
	{ "type": "Feature", "properties": { "osm_id": "333790973", "name": "NCR Bodycare", "other_tags": "\"shop\"=>\"car_repair\"" }, "geometry": { "type": "Point", "coordinates": [ -1.5421651, 53.7845809 ] } },
	{ "type": "Feature", "properties": { "osm_id": "333790975", "name": "Griffin Vauxhall Spares & Service Select", "other_tags": "\"shop\"=>\"car_repair\"" }, "geometry": { "type": "Point", "coordinates": [ -1.5401877, 53.7840001 ] } },
	{ "type": "Feature", "properties": { "osm_id": "333790977", "name": "Clutch & Gearbox Ltd", "other_tags": "\"shop\"=>\"car_repair\"" }, "geometry": { "type": "Point", "coordinates": [ -1.5411766, 53.7842877 ] } },
	{ "type": "Feature", "properties": { "osm_id": "349349913", "name": "Viaduct", "other_tags": "\"shop\"=>\"car_repair\"" }, "geometry": { "type": "Point", "coordinates": [ -1.6449808, 53.8070963 ] } },
	{ "type": "Feature", "properties": { "osm_id": "349349914", "name": "Autoworld 2003", "other_tags": "\"shop\"=>\"car_repair\"" }, "geometry": { "type": "Point", "coordinates": [ -1.6446061, 53.8070339 ] } },
	{ "type": "Feature", "properties": { "osm_id": "349349935", "name": "PK Motors", "other_tags": "\"shop\"=>\"car_repair\"" }, "geometry": { "type": "Point", "coordinates": [ -1.6432089, 53.8068842 ] } },
	{ "type": "Feature", "properties": { "osm_id": "364011237", "name": "Alf's", "other_tags": "\"shop\"=>\"car_repair\"" }, "geometry": { "type": "Point", "coordinates": [ -1.5737737, 53.7904496 ] } },
	{ "type": "Feature", "properties": { "osm_id": "490537493", "name": "Morley tyres and exhausts", "other_tags": "\"shop\"=>\"car_repair\"" }, "geometry": { "type": "Point", "coordinates": [ -1.607304, 53.7370586 ] } },
	{ "type": "Feature", "properties": { "osm_id": "960635580", "name": "kd bros.", "other_tags": "\"mot\"=>\"yes\",\"phone\"=>\"+44 113 246 0077\",\"shop\"=>\"car_repair\"" }, "geometry": { "type": "Point", "coordinates": [ -1.5324523, 53.8014204 ] } },
	{ "type": "Feature", "properties": { "osm_id": "1161996224", "name": "Kwik Fit", "other_tags": "\"brand\"=>\"Kwik Fit\",\"brand:wikidata\"=>\"Q958053\",\"brand:wikipedia\"=>\"en:Kwik Fit\",\"shop\"=>\"car_repair\"" }, "geometry": { "type": "Point", "coordinates": [ -1.5704903, 53.8017487 ] } },
	{ "type": "Feature", "properties": { "osm_id": "1534313264", "name": "Economy Tyres", "other_tags": "\"shop\"=>\"car_repair\"" }, "geometry": { "type": "Point", "coordinates": [ -1.6905829, 53.8598387 ] } },
	{ "type": "Feature", "properties": { "osm_id": "1539223158", "name": "Ian Bentley Fleet Services", "other_tags": "\"shop\"=>\"car_repair\",\"website\"=>\"http:\/\/www.ibfs.co.uk\/\",\"addr:street\"=>\"Water Lane\",\"description\"=>\"MOT station\",\"addr:postcode\"=>\"LS11 9UD\",\"addr:housename\"=>\"Aquatite House\",\"addr:housenumber\"=>\"Unit E\"" }, "geometry": { "type": "Point", "coordinates": [ -1.5573724, 53.7896404 ] } },
	{ "type": "Feature", "properties": { "osm_id": "1540834860", "name": "Renault", "other_tags": "\"shop\"=>\"car_repair\",\"alt_name\"=>\"Kineholme Garage\"" }, "geometry": { "type": "Point", "coordinates": [ -1.7163697, 53.8986934 ] } },
	{ "type": "Feature", "properties": { "osm_id": "1924347569", "name": "Bramley Car & MOT Centre", "other_tags": "\"shop\"=>\"car_repair\",\"service\"=>\"testing\"" }, "geometry": { "type": "Point", "coordinates": [ -1.6352021, 53.8059863 ] } },
	{ "type": "Feature", "properties": { "osm_id": "2353320245", "name": "Colman Tyres of Otley", "other_tags": "\"mot\"=>\"yes\",\"shop\"=>\"car_repair\",\"telephone\"=>\"01943 466626\"" }, "geometry": { "type": "Point", "coordinates": [ -1.6879492, 53.9067637 ] } },
	{ "type": "Feature", "properties": { "osm_id": "2353698986", "other_tags": "\"shop\"=>\"car_repair\"" }, "geometry": { "type": "Point", "coordinates": [ -1.6930373, 53.9046306 ] } },
	{ "type": "Feature", "properties": { "osm_id": "2379413676", "name": "Sultas Auto Specialists Ltd", "other_tags": "\"addr:city\"=>\"Leeds\",\"addr:housenumber\"=>\"1\",\"addr:postcode\"=>\"LS4 2BE\",\"addr:street\"=>\"Bodley Terrace\",\"opening_hours\"=>\"Mo-Fr 08:30-17:30; Sa 08:30-14:00; Su off\",\"phone\"=>\"+44 113 279 7992\",\"shop\"=>\"car_repair\",\"website\"=>\"https:\/\/www.sultas.co.uk\/\"" }, "geometry": { "type": "Point", "coordinates": [ -1.5785988, 53.8038331 ] } },
	{ "type": "Feature", "properties": { "osm_id": "3715203817", "name": "Aldridge Brothers", "other_tags": "\"addr:city\"=>\"Yeadon\",\"addr:postcode\"=>\"LS19 7BU\",\"addr:street\"=>\"Green Lane\",\"phone\"=>\"+44 113 250 4363\",\"shop\"=>\"car_repair\"" }, "geometry": { "type": "Point", "coordinates": [ -1.6768925, 53.8603496 ] } },
	{ "type": "Feature", "properties": { "osm_id": "3716704509", "name": "Moorfield Garage", "other_tags": "\"addr:city\"=>\"Yeadon\",\"addr:postcode\"=>\"LS19 7BN\",\"addr:street\"=>\"Moorfield Road\",\"phone\"=>\"+44 113 250 5444\",\"shop\"=>\"car_repair\",\"website\"=>\"www.moorfieldgarage.com\"" }, "geometry": { "type": "Point", "coordinates": [ -1.6731704, 53.8658516 ] } },
	{ "type": "Feature", "properties": { "osm_id": "3716771070", "name": "Walsh Vehicle Repairs", "other_tags": "\"shop\"=>\"car_repair\",\"addr:city\"=>\"Yeadon\",\"addr:street\"=>\"High Street\",\"addr:postcode\"=>\"LS19 7AA\"" }, "geometry": { "type": "Point", "coordinates": [ -1.6777347, 53.8653902 ] } },
	{ "type": "Feature", "properties": { "osm_id": "4361358171", "name": "Hinchliffe & Haley Classic Car Restoration", "other_tags": "\"phone\"=>\"+44 113 246 8557\",\"shop\"=>\"car_repair\"" }, "geometry": { "type": "Point", "coordinates": [ -1.5294014, 53.7893612 ] } }
]
}
