{
"type": "FeatureCollection",
"crs": { "type": "name", "properties": { "name": "urn:ogc:def:crs:OGC:1.3:CRS84" } },
"features": [
	{ "type": "Feature", "properties": { "osm_id": "292238581", "other_tags": "\"shop\"=>\"erotic\"" }, "geometry": { "type": "Point", "coordinates": [ -1.5501768, 53.7707916 ] } },
	{ "type": "Feature", "properties": { "osm_id": "313197511", "name": "Pulse and Cocktails", "other_tags": "\"brand\"=>\"Pulse and Cocktails\",\"brand:wikidata\"=>\"Q7259672\",\"brand:wikipedia\"=>\"en:Pulse and Cocktails\",\"shop\"=>\"erotic\"" }, "geometry": { "type": "Point", "coordinates": [ -1.5685682, 53.7956908 ] } },
	{ "type": "Feature", "properties": { "osm_id": "357751953", "name": "Simply Pleasure", "other_tags": "\"addr:city\"=>\"Leeds\",\"addr:housenumber\"=>\"5\",\"addr:postcode\"=>\"LS1 4AF\",\"addr:street\"=>\"Briggate\",\"shop\"=>\"erotic\"" }, "geometry": { "type": "Point", "coordinates": [ -1.5425725, 53.7947461 ] } },
	{ "type": "Feature", "properties": { "osm_id": "5941346467", "name": "Ann Summers", "other_tags": "\"addr:city\"=>\"Leeds\",\"addr:housenumber\"=>\"36\",\"addr:postcode\"=>\"LS1 6LB\",\"addr:street\"=>\"Lands Lane\",\"brand\"=>\"Ann Summers\",\"brand:wikidata\"=>\"Q579524\",\"brand:wikipedia\"=>\"en:Ann Summers\",\"shop\"=>\"erotic\"" }, "geometry": { "type": "Point", "coordinates": [ -1.5431674, 53.798776 ] } },
	{ "type": "Feature", "properties": { "osm_id": "6052531555", "name": "Ann Summers", "other_tags": "\"brand\"=>\"Ann Summers\",\"brand:wikidata\"=>\"Q579524\",\"brand:wikipedia\"=>\"en:Ann Summers\",\"level\"=>\"0\",\"shop\"=>\"erotic\"" }, "geometry": { "type": "Point", "coordinates": [ -1.5744148, 53.7577625 ] } }
]
}
