{
"type": "FeatureCollection",
"crs": { "type": "name", "properties": { "name": "urn:ogc:def:crs:OGC:1.3:CRS84" } },
"features": [
	{ "type": "Feature", "properties": { "osm_id": "333799032", "name": "AZ Nails", "other_tags": "\"shop\"=>\"beauty\",\"addr:city\"=>\"Leeds\",\"addr:street\"=>\"The Headrow\",\"addr:postcode\"=>\"LS1 6LR\",\"addr:housenumber\"=>\"61a\"" }, "geometry": { "type": "Point", "coordinates": [ -1.5429728, 53.7990869 ] } },
	{ "type": "Feature", "properties": { "osm_id": "333799033", "name": "Hind", "other_tags": "\"shop\"=>\"beauty\"" }, "geometry": { "type": "Point", "coordinates": [ -1.5430517, 53.7990968 ] } },
	{ "type": "Feature", "properties": { "osm_id": "334884437", "name": "Lux Salon", "other_tags": "\"shop\"=>\"beauty\",\"fhrs:id\"=>\"1215166\",\"old_name\"=>\"Tyranosaurus Pets\",\"addr:city\"=>\"Leeds\",\"addr:street\"=>\"Kirkstall Road\",\"addr:suburb\"=>\"Burley\",\"addr:postcode\"=>\"LS4 2HQ\",\"addr:housenumber\"=>\"380\"" }, "geometry": { "type": "Point", "coordinates": [ -1.583378, 53.8067235 ] } },
	{ "type": "Feature", "properties": { "osm_id": "842229817", "name": "Angel Nails", "other_tags": "\"beauty\"=>\"nails\",\"phone\"=>\"+44 7438 175258\",\"shop\"=>\"beauty\"" }, "geometry": { "type": "Point", "coordinates": [ -1.5475174, 53.74747 ] } },
	{ "type": "Feature", "properties": { "osm_id": "1562986916", "name": "Hollywood Nail Studio", "other_tags": "\"shop\"=>\"beauty\",\"addr:city\"=>\"Leeds\",\"addr:street\"=>\"Kirkgate\",\"addr:housename\"=>\"Kirkgate Market\"" }, "geometry": { "type": "Point", "coordinates": [ -1.5399227, 53.7971216 ] } },
	{ "type": "Feature", "properties": { "osm_id": "2091013188", "name": "New York Nails & Beauty", "other_tags": "\"shop\"=>\"beauty\",\"addr:city\"=>\"Leeds\",\"addr:street\"=>\"Vicar Lane\",\"addr:postcode\"=>\"LS1 6DS\",\"addr:housenumber\"=>\"35\"" }, "geometry": { "type": "Point", "coordinates": [ -1.5405257, 53.7971311 ] } },
	{ "type": "Feature", "properties": { "osm_id": "2125610531", "name": "Q61", "other_tags": "\"shop\"=>\"beauty\",\"addr:city\"=>\"Leeds\",\"addr:street\"=>\"Duncan Street\",\"addr:postcode\"=>\"LS1 6DQ\",\"addr:housenumber\"=>\"5\"" }, "geometry": { "type": "Point", "coordinates": [ -1.5421357, 53.7961386 ] } },
	{ "type": "Feature", "properties": { "osm_id": "2128107773", "name": "Lisa Star Nails & Beauty", "other_tags": "\"shop\"=>\"beauty\"" }, "geometry": { "type": "Point", "coordinates": [ -1.5401224, 53.7970427 ] } },
	{ "type": "Feature", "properties": { "osm_id": "2157985622", "name": "id Aromatics", "other_tags": "\"shop\"=>\"beauty\"" }, "geometry": { "type": "Point", "coordinates": [ -1.5451224, 53.7954168 ] } },
	{ "type": "Feature", "properties": { "osm_id": "2353417486", "name": "NU.U Clinic", "other_tags": "\"shop\"=>\"beauty\",\"addr:city\"=>\"Otley\",\"telephone\"=>\"01943 423812\",\"is_in:town\"=>\"Otley\",\"addr:street\"=>\"Boroughgate\",\"addr:country\"=>\"GB\",\"addr:housenumber\"=>\"46\"" }, "geometry": { "type": "Point", "coordinates": [ -1.6911544, 53.9058978 ] } },
	{ "type": "Feature", "properties": { "osm_id": "2353482462", "name": "Otley Natural Health Clinic", "other_tags": "\"shop\"=>\"beauty\",\"website\"=>\"www.otleynaturalhealth.com\",\"addr:city\"=>\"Otley\",\"telephone\"=>\"01943 465333\",\"addr:street\"=>\"Market Place\",\"addr:postcode\"=>\"LS21 3AQ\",\"addr:housenumber\"=>\"1-9\"" }, "geometry": { "type": "Point", "coordinates": [ -1.6939815, 53.9056182 ] } },
	{ "type": "Feature", "properties": { "osm_id": "2353524092", "name": "Nail Kandy", "other_tags": "\"shop\"=>\"beauty\",\"addr:street\"=>\"New Inn Court\",\"description\"=>\"Nail Bar\"" }, "geometry": { "type": "Point", "coordinates": [ -1.6939359, 53.9049893 ] } },
	{ "type": "Feature", "properties": { "osm_id": "2408752503", "name": "Lucy Spa & Nails", "other_tags": "\"shop\"=>\"beauty\"" }, "geometry": { "type": "Point", "coordinates": [ -1.5661834, 53.8283181 ] } },
	{ "type": "Feature", "properties": { "osm_id": "2408752508", "name": "Urban Beauty", "other_tags": "\"shop\"=>\"beauty\"" }, "geometry": { "type": "Point", "coordinates": [ -1.5662011, 53.8286635 ] } },
	{ "type": "Feature", "properties": { "osm_id": "3715078560", "name": "J Lashes & Beauty", "other_tags": "\"addr:city\"=>\"Yeadon\",\"addr:housenumber\"=>\"154\",\"addr:postcode\"=>\"LS19 6AH\",\"addr:street\"=>\"Harrogate Road\",\"phone\"=>\"+44 113 250 8832\",\"shop\"=>\"beauty\",\"website\"=>\"www.daveraynercycles.co.uk\"" }, "geometry": { "type": "Point", "coordinates": [ -1.6724362, 53.8630991 ] } },
	{ "type": "Feature", "properties": { "osm_id": "3715282330", "name": "Luxe Beauty Lounge", "other_tags": "\"shop\"=>\"beauty\",\"phone\"=>\"+44 113 202 9833\",\"website\"=>\"www.www.luxebeautylounge.co.uk\",\"addr:city\"=>\"Rawdon\",\"addr:street\"=>\"Harrogate Road\",\"addr:postcode\"=>\"LS19 6HW\",\"addr:housenumber\"=>\"11a\"" }, "geometry": { "type": "Point", "coordinates": [ -1.6848463, 53.8538324 ] } },
	{ "type": "Feature", "properties": { "osm_id": "3715292800", "name": "Bodyline Plus", "other_tags": "\"shop\"=>\"beauty\",\"phone\"=>\"+44 7985 563 309\",\"website\"=>\"www.bodylineplus.co.uk\",\"addr:city\"=>\"Rawdon\",\"addr:street\"=>\"New Road Side\",\"addr:postcode\"=>\"LS19 6HN\",\"addr:housenumber\"=>\"10\"" }, "geometry": { "type": "Point", "coordinates": [ -1.6850783, 53.8534892 ] } },
	{ "type": "Feature", "properties": { "osm_id": "3716749539", "name": "Nechelle", "other_tags": "\"addr:city\"=>\"Yeadon\",\"addr:postcode\"=>\"LS19 7TA\",\"addr:street\"=>\"High Street\",\"shop\"=>\"beauty\"" }, "geometry": { "type": "Point", "coordinates": [ -1.6771773, 53.8654295 ] } },
	{ "type": "Feature", "properties": { "osm_id": "3716852676", "name": "Tips 2 Toes", "other_tags": "\"shop\"=>\"beauty\",\"phone\"=>\"+44 113 250 2444\",\"addr:city\"=>\"Yeadon\",\"addr:street\"=>\"High Street\",\"addr:postcode\"=>\"LS19 7TA\",\"addr:housenumber\"=>\"101\"" }, "geometry": { "type": "Point", "coordinates": [ -1.6789073, 53.866109 ] } },
	{ "type": "Feature", "properties": { "osm_id": "3718205537", "name": "KiKu", "other_tags": "\"addr:city\"=>\"Yeadon\",\"addr:housenumber\"=>\"41\",\"addr:postcode\"=>\"LS19 7SP\",\"addr:street\"=>\"High Street\",\"shop\"=>\"beauty\"" }, "geometry": { "type": "Point", "coordinates": [ -1.683903, 53.8662636 ] } },
	{ "type": "Feature", "properties": { "osm_id": "3718231085", "name": "All about you", "other_tags": "\"addr:city\"=>\"Yeadon\",\"addr:housenumber\"=>\"4\",\"addr:postcode\"=>\"LS19 7PP\",\"addr:street\"=>\"High Street\",\"phone\"=>\"+44 113 250 6026\",\"shop\"=>\"beauty\",\"website\"=>\"https:\/\/www.platinumbridalboutique.co.uk\/\"" }, "geometry": { "type": "Point", "coordinates": [ -1.685352, 53.8659184 ] } },
	{ "type": "Feature", "properties": { "osm_id": "3718444414", "name": "Koko Nails", "other_tags": "\"addr:city\"=>\"Yeadon\",\"addr:housenumber\"=>\"18\",\"addr:postcode\"=>\"LS19 7PP\",\"addr:street\"=>\"High Street\",\"beauty\"=>\"nails\",\"shop\"=>\"beauty\"" }, "geometry": { "type": "Point", "coordinates": [ -1.683695, 53.8660399 ] } },
	{ "type": "Feature", "properties": { "osm_id": "3718445600", "name": "Be Beautiful", "other_tags": "\"addr:city\"=>\"Yeadon\",\"addr:housenumber\"=>\"1\",\"addr:postcode\"=>\"LS19 7RE\",\"addr:street\"=>\"Ivegate\",\"phone\"=>\"+44 113 250 4686\",\"shop\"=>\"beauty\",\"website\"=>\"http:\/\/greatoutdoorsleeds.co.uk\/\"" }, "geometry": { "type": "Point", "coordinates": [ -1.6856771, 53.8659198 ] } },
	{ "type": "Feature", "properties": { "osm_id": "3718469499", "name": "Sundeck Tanning Salon", "other_tags": "\"shop\"=>\"beauty\",\"phone\"=>\"+44 113 391 0101\",\"addr:city\"=>\"Yeadon\",\"addr:street\"=>\"Town Street\",\"addr:postcode\"=>\"LS19 7EQ\",\"addr:housenumber\"=>\"13\"" }, "geometry": { "type": "Point", "coordinates": [ -1.6862409, 53.8658744 ] } },
	{ "type": "Feature", "properties": { "osm_id": "3718505414", "name": "Serenity", "other_tags": "\"shop\"=>\"beauty\",\"phone\"=>\"+44 113 250 3222\",\"website\"=>\"www.serenitybeauty.org.uk\",\"addr:city\"=>\"Yeadon\",\"addr:street\"=>\"Ivegate\",\"addr:postcode\"=>\"LS19 7RE\",\"addr:housenumber\"=>\"24\"" }, "geometry": { "type": "Point", "coordinates": [ -1.6864713, 53.8650052 ] } },
	{ "type": "Feature", "properties": { "osm_id": "3777343351", "name": "Beauty Never Sleeps", "other_tags": "\"shop\"=>\"beauty\"" }, "geometry": { "type": "Point", "coordinates": [ -1.6030609, 53.7934866 ] } },
	{ "type": "Feature", "properties": { "osm_id": "3801400063", "name": "Bloom Beauty Lounge & Day Spa", "other_tags": "\"shop\"=>\"beauty\"" }, "geometry": { "type": "Point", "coordinates": [ -1.6024044, 53.8155964 ] } },
	{ "type": "Feature", "properties": { "osm_id": "3886297891", "name": "Bliss", "other_tags": "\"shop\"=>\"beauty\",\"phone\"=>\"+44 113 258 8425\",\"addr:city\"=>\"Leeds\",\"addr:street\"=>\"Town Street\",\"addr:suburb\"=>\"Horsforth\",\"addr:postcode\"=>\"LS18 4AP\",\"addr:housenumber\"=>\"3-5\"" }, "geometry": { "type": "Point", "coordinates": [ -1.6422665, 53.8369331 ] } },
	{ "type": "Feature", "properties": { "osm_id": "3886416657", "name": "Pink Nails", "other_tags": "\"shop\"=>\"beauty\",\"phone\"=>\"+44 113 345 2901\",\"website\"=>\"https:\/\/www.facebook.com\/pinknails\",\"addr:city\"=>\"Leeds\",\"addr:street\"=>\"Town Street\",\"addr:suburb\"=>\"Horsforth\",\"addr:postcode\"=>\"LS18 4AP\",\"opening_hours\"=>\"Mo-Sa 09:30-18:30; Su Closed\",\"addr:housenumber\"=>\"56\"" }, "geometry": { "type": "Point", "coordinates": [ -1.6400167, 53.8380856 ] } },
	{ "type": "Feature", "properties": { "osm_id": "3886416679", "name": "Absolute", "other_tags": "\"shop\"=>\"beauty\",\"phone\"=>\"+44 113 239 0100\",\"website\"=>\"http:\/\/www.absolutebeautyleeds.com\/\",\"addr:city\"=>\"Leeds\",\"addr:street\"=>\"Town Street\",\"addr:suburb\"=>\"Horsforth\",\"addr:postcode\"=>\"LS18 4AP\",\"addr:housenumber\"=>\"64\"" }, "geometry": { "type": "Point", "coordinates": [ -1.6395741, 53.8383955 ] } },
	{ "type": "Feature", "properties": { "osm_id": "3887830129", "name": "Beauty By Emily", "other_tags": "\"shop\"=>\"beauty\",\"phone\"=>\"+44 113 258 8120\",\"website\"=>\"https:\/\/beautybyemily.net\/\",\"addr:city\"=>\"Leeds\",\"addr:street\"=>\"Town Street\",\"addr:suburb\"=>\"Horsforth\",\"addr:postcode\"=>\"LS18 5BP\",\"opening_hours\"=>\"Tu,Fr 10:00-18:00; We-Th 10:00-20:00; Sa 09:00-15:00; Su-Mo Closed\",\"addr:housenumber\"=>\"87\"" }, "geometry": { "type": "Point", "coordinates": [ -1.6392761, 53.8390037 ] } },
	{ "type": "Feature", "properties": { "osm_id": "3902978498", "name": "Sun Station", "other_tags": "\"shop\"=>\"beauty\",\"phone\"=>\"+44 113 258 4870\",\"website\"=>\"http:\/\/www.sunstationonline.com\/\",\"addr:city\"=>\"Horsforth\",\"addr:street\"=>\"New Road Side\",\"addr:postcode\"=>\"LS18 4QD\",\"opening_hours\"=>\"Mo-Fr 10:30-19:00; Sa 10:30-18:00; Su 10:30-15:30\",\"addr:housenumber\"=>\"137\"" }, "geometry": { "type": "Point", "coordinates": [ -1.6438113, 53.832087 ] } },
	{ "type": "Feature", "properties": { "osm_id": "3904761989", "name": "Beauty Within", "other_tags": "\"shop\"=>\"beauty\",\"phone\"=>\"+44 113 258 5277\",\"addr:city\"=>\"Horsforth\",\"addr:street\"=>\"New Road Side\",\"addr:postcode\"=>\"LS18 4QD\",\"opening_hours\"=>\"Mo 09:00-18:00; We,Fr 08:00-18:00; Th 08:00-21:00; Sa 09:00-16:00; Su,Tu Closed\",\"addr:housenumber\"=>\"95\"" }, "geometry": { "type": "Point", "coordinates": [ -1.6417243, 53.8319905 ] } },
	{ "type": "Feature", "properties": { "osm_id": "3916676790", "name": "The Beauty Studio", "other_tags": "\"shop\"=>\"beauty\",\"phone\"=>\"+44 113 2586500\",\"website\"=>\"http:\/\/www.thebeautystudioleeds.co.uk\/\",\"addr:city\"=>\"Horsforth\",\"addr:street\"=>\"New Road Side\",\"addr:postcode\"=>\"LS18 4QB\",\"opening_hours\"=>\"Mo,Th,Fr 09:00-18:00; Tu,We 09:00-21:00; Sa 08:30-16:30; Su closed\",\"addr:housenumber\"=>\"94\"" }, "geometry": { "type": "Point", "coordinates": [ -1.6412166, 53.8321967 ] } },
	{ "type": "Feature", "properties": { "osm_id": "3994428608", "name": "Pastille", "other_tags": "\"shop\"=>\"beauty\"" }, "geometry": { "type": "Point", "coordinates": [ -1.5486025, 53.7935194 ] } },
	{ "type": "Feature", "properties": { "osm_id": "4475968860", "name": "Lam Boutique", "other_tags": "\"shop\"=>\"beauty\",\"beauty\"=>\"nails\"" }, "geometry": { "type": "Point", "coordinates": [ -1.448975, 53.8071486 ] } },
	{ "type": "Feature", "properties": { "osm_id": "4488841937", "name": "Phun Tawee Health and Beauty", "other_tags": "\"shop\"=>\"beauty\",\"addr:city\"=>\"Leeds\",\"addr:street\"=>\"North Street\",\"addr:postcode\"=>\"LS2 7PN\",\"addr:housenumber\"=>\"54\"" }, "geometry": { "type": "Point", "coordinates": [ -1.5385218, 53.8012877 ] } },
	{ "type": "Feature", "properties": { "osm_id": "4583121589", "name": "Tanfastique", "other_tags": "\"addr:city\"=>\"Leeds\",\"addr:housenumber\"=>\"24\",\"addr:postcode\"=>\"LS26 0RD\",\"addr:street\"=>\"Manor Road\",\"addr:suburb\"=>\"Rothwell\",\"beauty\"=>\"tanning\",\"shop\"=>\"beauty\"" }, "geometry": { "type": "Point", "coordinates": [ -1.486055, 53.752751 ] } },
	{ "type": "Feature", "properties": { "osm_id": "4846648927", "name": "Chocolate Beauty Spa", "other_tags": "\"shop\"=>\"beauty\"" }, "geometry": { "type": "Point", "coordinates": [ -1.5978563, 53.7428681 ] } },
	{ "type": "Feature", "properties": { "osm_id": "4919131111", "name": "Cristianos Laser Clinic", "other_tags": "\"shop\"=>\"beauty\",\"beauty\"=>\"laser_hair_removal\",\"addr:city\"=>\"Leeds\",\"addr:street\"=>\"York Place\",\"addr:postcode\"=>\"LS1 2DS\",\"addr:housenumber\"=>\"6-8\"" }, "geometry": { "type": "Point", "coordinates": [ -1.5524054, 53.7968842 ] } },
	{ "type": "Feature", "properties": { "osm_id": "5262528859", "name": "Indigo Sun", "other_tags": "\"shop\"=>\"beauty\",\"brand\"=>\"Indigo Sun\",\"beauty\"=>\"tanning\",\"old_name\"=>\"east north east \/ Post Office\",\"brand:wikidata\"=>\"Q63436906\"" }, "geometry": { "type": "Point", "coordinates": [ -1.4604415, 53.8226147 ] } },
	{ "type": "Feature", "properties": { "osm_id": "5311505825", "name": "Beauty Within", "other_tags": "\"shop\"=>\"beauty\"" }, "geometry": { "type": "Point", "coordinates": [ -1.6935159, 53.9060313 ] } },
	{ "type": "Feature", "properties": { "osm_id": "5407594209", "name": "The Beach", "other_tags": "\"shop\"=>\"beauty\"" }, "geometry": { "type": "Point", "coordinates": [ -1.4485163, 53.7575942 ] } },
	{ "type": "Feature", "properties": { "osm_id": "5422663131", "name": "Glamour Forever", "other_tags": "\"shop\"=>\"beauty\"" }, "geometry": { "type": "Point", "coordinates": [ -1.5435523, 53.8011831 ] } },
	{ "type": "Feature", "properties": { "osm_id": "5468024764", "name": "Indigo Sun", "other_tags": "\"beauty\"=>\"tanning\",\"brand\"=>\"Indigo Sun\",\"brand:wikidata\"=>\"Q63436906\",\"shop\"=>\"beauty\"" }, "geometry": { "type": "Point", "coordinates": [ -1.6620766, 53.8067021 ] } },
	{ "type": "Feature", "properties": { "osm_id": "5564598458", "name": "NailsUSA", "other_tags": "\"shop\"=>\"beauty\",\"addr:city\"=>\"Leeds\",\"addr:street\"=>\"Vicar Lane\",\"addr:postcode\"=>\"LS2 7NL\",\"addr:housenumber\"=>\"98\"" }, "geometry": { "type": "Point", "coordinates": [ -1.5394244, 53.7993574 ] } },
	{ "type": "Feature", "properties": { "osm_id": "5648164606", "name": "Queen Nails", "other_tags": "\"shop\"=>\"beauty\"" }, "geometry": { "type": "Point", "coordinates": [ -1.5450396, 53.801892 ] } },
	{ "type": "Feature", "properties": { "osm_id": "5916115983", "other_tags": "\"shop\"=>\"beauty\",\"beauty\"=>\"nails\"" }, "geometry": { "type": "Point", "coordinates": [ -1.4513712, 53.8061607 ] } },
	{ "type": "Feature", "properties": { "osm_id": "5918770661", "name": "L&H beauty studio", "other_tags": "\"shop\"=>\"beauty\",\"addr:city\"=>\"Leeds\",\"addr:street\"=>\"Regent Street\"" }, "geometry": { "type": "Point", "coordinates": [ -1.5379673, 53.8298552 ] } },
	{ "type": "Feature", "properties": { "osm_id": "5940390390", "name": "Handstanned", "other_tags": "\"shop\"=>\"beauty\",\"website\"=>\"http:\/\/www.handstanned.co.uk\/\",\"addr:city\"=>\"Leeds\",\"addr:street\"=>\"Grand Arcade\",\"addr:postcode\"=>\"LS1 6PG\",\"addr:housenumber\"=>\"25-26\"" }, "geometry": { "type": "Point", "coordinates": [ -1.5405557, 53.8003234 ] } },
	{ "type": "Feature", "properties": { "osm_id": "5941346413", "name": "Liz Earle", "other_tags": "\"shop\"=>\"beauty\",\"addr:city\"=>\"Leeds\",\"addr:street\"=>\"Queen Victoria Street\",\"addr:postcode\"=>\"LS1 6BE\",\"addr:housenumber\"=>\"38-40\"" }, "geometry": { "type": "Point", "coordinates": [ -1.5404342, 53.7981819 ] } },
	{ "type": "Feature", "properties": { "osm_id": "5941346419", "name": "Kiehls", "other_tags": "\"shop\"=>\"beauty\",\"addr:city\"=>\"Leeds\",\"addr:street\"=>\"Queen Victoria Street\",\"addr:postcode\"=>\"LS1 6BE\",\"addr:housenumber\"=>\"24\"" }, "geometry": { "type": "Point", "coordinates": [ -1.5410806, 53.7982405 ] } },
	{ "type": "Feature", "properties": { "osm_id": "5941346459", "name": "Luxury Nails", "other_tags": "\"shop\"=>\"beauty\",\"addr:city\"=>\"Leeds\",\"addr:street\"=>\"Lands Lane\",\"addr:postcode\"=>\"LS1 6LB\",\"addr:housenumber\"=>\"36\"" }, "geometry": { "type": "Point", "coordinates": [ -1.5432841, 53.7986762 ] } },
	{ "type": "Feature", "properties": { "osm_id": "5981573970", "name": "Dimples Hair and Cosmetics", "other_tags": "\"shop\"=>\"beauty\",\"addr:city\"=>\"Leeds\",\"addr:street\"=>\"Kirkgate\",\"addr:housename\"=>\"Kirkgate Market\"" }, "geometry": { "type": "Point", "coordinates": [ -1.5396845, 53.7971731 ] } },
	{ "type": "Feature", "properties": { "osm_id": "5981573971", "name": "Dimples Hair and Cosmetics", "other_tags": "\"shop\"=>\"beauty\",\"addr:city\"=>\"Leeds\",\"addr:street\"=>\"Kirkgate\",\"addr:housename\"=>\"Kirkgate Market\"" }, "geometry": { "type": "Point", "coordinates": [ -1.539678, 53.7972439 ] } },
	{ "type": "Feature", "properties": { "osm_id": "5981576288", "name": "Hinny's Beauty Salon", "other_tags": "\"shop\"=>\"beauty\",\"addr:city\"=>\"Leeds\",\"addr:unit\"=>\"21\",\"addr:street\"=>\"Kirkgate\",\"addr:housename\"=>\"Kirkgate Market\"" }, "geometry": { "type": "Point", "coordinates": [ -1.540045, 53.7969123 ] } },
	{ "type": "Feature", "properties": { "osm_id": "6001482120", "name": "The Look", "other_tags": "\"shop\"=>\"beauty\"" }, "geometry": { "type": "Point", "coordinates": [ -1.5384172, 53.7972845 ] } },
	{ "type": "Feature", "properties": { "osm_id": "6001482124", "name": "Glamour Hair & Beauty", "other_tags": "\"shop\"=>\"beauty\"" }, "geometry": { "type": "Point", "coordinates": [ -1.5390784, 53.7973067 ] } },
	{ "type": "Feature", "properties": { "osm_id": "6001492658", "name": "RK Nails and Beauty Salon", "other_tags": "\"shop\"=>\"beauty\",\"addr:city\"=>\"Leeds\",\"addr:unit\"=>\"476\",\"addr:street\"=>\"Kirkgate\",\"addr:postcode\"=>\"LS2 7HY\",\"addr:housename\"=>\"Kirkgate Market\"" }, "geometry": { "type": "Point", "coordinates": [ -1.5383542, 53.7973526 ] } },
	{ "type": "Feature", "properties": { "osm_id": "6022849877", "name": "A-One Nails", "other_tags": "\"shop\"=>\"beauty\"" }, "geometry": { "type": "Point", "coordinates": [ -1.544913, 53.7987082 ] } },
	{ "type": "Feature", "properties": { "osm_id": "6022849884", "name": "Trinity Nails & Beauty", "other_tags": "\"shop\"=>\"beauty\",\"addr:city\"=>\"Leeds\",\"addr:street\"=>\"Albion Street\",\"addr:postcode\"=>\"LS1 5AP\",\"addr:housenumber\"=>\"81\"" }, "geometry": { "type": "Point", "coordinates": [ -1.5452567, 53.7984941 ] } },
	{ "type": "Feature", "properties": { "osm_id": "6022850195", "name": "Trinity Nails & Beauty", "other_tags": "\"shop\"=>\"beauty\"" }, "geometry": { "type": "Point", "coordinates": [ -1.545973, 53.7965375 ] } },
	{ "type": "Feature", "properties": { "osm_id": "6022850230", "name": "Future Therapies", "other_tags": "\"shop\"=>\"beauty\",\"addr:city\"=>\"Leeds\",\"addr:street\"=>\"Central Arcade\",\"addr:postcode\"=>\"LS1 6DE\",\"addr:housenumber\"=>\"9\"" }, "geometry": { "type": "Point", "coordinates": [ -1.5418477, 53.7963759 ] } },
	{ "type": "Feature", "properties": { "osm_id": "6022850235", "name": "Lisa Star Nails & Beauty", "other_tags": "\"shop\"=>\"beauty\",\"addr:city\"=>\"Leeds\",\"addr:street\"=>\"Central Arcade\",\"addr:postcode\"=>\"LS1 6DE\"" }, "geometry": { "type": "Point", "coordinates": [ -1.5420605, 53.7963912 ] } },
	{ "type": "Feature", "properties": { "osm_id": "6033885576", "name": "The Beauty Clinic", "other_tags": "\"shop\"=>\"beauty\",\"level\"=>\"1\",\"addr:city\"=>\"Leeds\",\"addr:street\"=>\"Call Lane\",\"addr:postcode\"=>\"LS1 7BR\",\"addr:housename\"=>\"Corn Exchange\"" }, "geometry": { "type": "Point", "coordinates": [ -1.539959, 53.7959983 ] } },
	{ "type": "Feature", "properties": { "osm_id": "6033885581", "name": "Ragdoll Nails", "other_tags": "\"shop\"=>\"beauty\",\"level\"=>\"1\",\"website\"=>\"https:\/\/www.ragdollnails.com\/\",\"addr:city\"=>\"Leeds\",\"addr:street\"=>\"Call Lane\",\"addr:postcode\"=>\"LS1 7BR\",\"addr:housename\"=>\"Corn Exchange\"" }, "geometry": { "type": "Point", "coordinates": [ -1.5403654, 53.7960857 ] } },
	{ "type": "Feature", "properties": { "osm_id": "6052531525", "name": "Glamour Forever", "other_tags": "\"shop\"=>\"beauty\",\"level\"=>\"0\"" }, "geometry": { "type": "Point", "coordinates": [ -1.574344, 53.758862 ] } },
	{ "type": "Feature", "properties": { "osm_id": "6052531532", "name": "Xtras", "other_tags": "\"shop\"=>\"beauty\",\"level\"=>\"0\"" }, "geometry": { "type": "Point", "coordinates": [ -1.5742528, 53.7574317 ] } },
	{ "type": "Feature", "properties": { "osm_id": "6052531566", "name": "Mint", "other_tags": "\"shop\"=>\"beauty\",\"level\"=>\"0\"" }, "geometry": { "type": "Point", "coordinates": [ -1.5740215, 53.7568961 ] } },
	{ "type": "Feature", "properties": { "osm_id": "6052531607", "name": "Glamour Forever", "other_tags": "\"shop\"=>\"beauty\",\"level\"=>\"0\"" }, "geometry": { "type": "Point", "coordinates": [ -1.5735776, 53.7599475 ] } },
	{ "type": "Feature", "properties": { "osm_id": "6052536860", "name": "White Rose Nail Studio", "other_tags": "\"shop\"=>\"beauty\"" }, "geometry": { "type": "Point", "coordinates": [ -1.5746123, 53.7603303 ] } },
	{ "type": "Feature", "properties": { "osm_id": "6294180917", "name": "Pink Nails", "other_tags": "\"shop\"=>\"beauty\",\"beauty\"=>\"nails\"" }, "geometry": { "type": "Point", "coordinates": [ -1.4519895, 53.8069865 ] } },
	{ "type": "Feature", "properties": { "osm_id": "6486646866", "name": "Diamond Nails", "other_tags": "\"shop\"=>\"beauty\",\"beauty\"=>\"nails\",\"addr:city\"=>\"Leeds\",\"addr:street\"=>\"Terminus Parade\",\"addr:postcode\"=>\"LS15 7JZ\",\"outdoor_seating\"=>\"yes\",\"addr:housenumber\"=>\"3\"" }, "geometry": { "type": "Point", "coordinates": [ -1.452765, 53.8072367 ] } },
	{ "type": "Feature", "properties": { "osm_id": "6814596676", "name": "Daniel's of Wetherby", "other_tags": "\"shop\"=>\"beauty\"" }, "geometry": { "type": "Point", "coordinates": [ -1.3866749, 53.9289346 ] } },
	{ "type": "Feature", "properties": { "osm_id": "6814604072", "name": "American Nails & Spa", "other_tags": "\"shop\"=>\"beauty\"" }, "geometry": { "type": "Point", "coordinates": [ -1.3853157, 53.929935 ] } },
	{ "type": "Feature", "properties": { "osm_id": "6814620844", "name": "Blu Hair Pink Beauty", "other_tags": "\"shop\"=>\"beauty\"" }, "geometry": { "type": "Point", "coordinates": [ -1.3848965, 53.9284613 ] } },
	{ "type": "Feature", "properties": { "osm_id": "6814629935", "name": "Capelli", "other_tags": "\"shop\"=>\"beauty\"" }, "geometry": { "type": "Point", "coordinates": [ -1.3853362, 53.9298842 ] } },
	{ "type": "Feature", "properties": { "osm_id": "6814630294", "name": "Innersense Aesthetics", "other_tags": "\"shop\"=>\"beauty\"" }, "geometry": { "type": "Point", "coordinates": [ -1.3866145, 53.9293984 ] } },
	{ "type": "Feature", "properties": { "osm_id": "6966811635", "name": "Hind", "other_tags": "\"shop\"=>\"beauty\"" }, "geometry": { "type": "Point", "coordinates": [ -1.5452676, 53.7962618 ] } },
	{ "type": "Feature", "properties": { "osm_id": "6969267517", "name": "Cristal Beauty", "other_tags": "\"shop\"=>\"beauty\"" }, "geometry": { "type": "Point", "coordinates": [ -1.478148, 53.7483508 ] } },
	{ "type": "Feature", "properties": { "osm_id": "7141868808", "name": "Cream", "other_tags": "\"shop\"=>\"beauty\"" }, "geometry": { "type": "Point", "coordinates": [ -1.4679337, 53.7971854 ] } },
	{ "type": "Feature", "properties": { "osm_id": "7141868812", "name": "Glama Puss", "other_tags": "\"shop\"=>\"beauty\",\"beauty\"=>\"nails\"" }, "geometry": { "type": "Point", "coordinates": [ -1.4672519, 53.797633 ] } },
	{ "type": "Feature", "properties": { "osm_id": "7575101685", "name": "beautique", "other_tags": "\"shop\"=>\"beauty\",\"beauty\"=>\"nails\"" }, "geometry": { "type": "Point", "coordinates": [ -1.520028, 53.856012 ] } },
	{ "type": "Feature", "properties": { "osm_id": "7745186184", "name": "Angela's Nails", "other_tags": "\"shop\"=>\"beauty\",\"beauty\"=>\"nails\"" }, "geometry": { "type": "Point", "coordinates": [ -1.3885061, 53.7957822 ] } },
	{ "type": "Feature", "properties": { "osm_id": "7837813417", "name": "Guise & Dolls", "other_tags": "\"addr:city\"=>\"Leeds\",\"addr:housenumber\"=>\"76\",\"addr:postcode\"=>\"LS20 8BH\",\"addr:street\"=>\"Otley Road\",\"phone\"=>\"+44 1943 884 782\",\"shop\"=>\"beauty\",\"website\"=>\"https:\/\/www.guiseanddolls.co.uk\"" }, "geometry": { "type": "Point", "coordinates": [ -1.7142637, 53.8744913 ] } },
	{ "type": "Feature", "properties": { "osm_id": "7869213653", "name": "Bombom", "other_tags": "\"beauty\"=>\"nails\",\"shop\"=>\"beauty\"" }, "geometry": { "type": "Point", "coordinates": [ -1.4522575, 53.8036789 ] } },
	{ "type": "Feature", "properties": { "osm_id": "7869213694", "name": "Tan fastique", "other_tags": "\"beauty\"=>\"tanning\",\"shop\"=>\"beauty\"" }, "geometry": { "type": "Point", "coordinates": [ -1.4524799, 53.8045159 ] } },
	{ "type": "Feature", "properties": { "osm_id": "7902894933", "name": "Skin + Health", "other_tags": "\"beauty\"=>\"eyebrow\",\"shop\"=>\"beauty\"" }, "geometry": { "type": "Point", "coordinates": [ -1.4354347, 53.7959225 ] } },
	{ "type": "Feature", "properties": { "osm_id": "7973805429", "name": "The Tanning Shop", "other_tags": "\"addr:city\"=>\"Leeds\",\"addr:housenumber\"=>\"Unit 13A Kirkstall Bridge Shopping Park\",\"addr:postcode\"=>\"LS5 3BL\",\"addr:street\"=>\"Bridge Road\",\"beauty\"=>\"tanning\",\"opening_hours\"=>\"Mon-Fri 10:00-21:00 \/ Sat 09:00-19:00 \/ Sun 10:00-18:00\",\"operator\"=>\"The Tanning Shop\",\"payment:cash\"=>\"yes\",\"payment:credit_cards\"=>\"yes\",\"payment:debit_cards\"=>\"yes\",\"phone\"=>\"+44 113 278 6879\",\"shop\"=>\"beauty\",\"website\"=>\"https:\/\/thetanningshop.co.uk\/leeds_kirkstall_bridge\/\"" }, "geometry": { "type": "Point", "coordinates": [ -1.6043918, 53.8162804 ] } },
	{ "type": "Feature", "properties": { "osm_id": "8023314785", "name": "eyelash extensions - beauty supply QBS", "other_tags": "\"email\"=>\"info@qualitybeautystore.com\",\"name:ru\"=>\"ресницы, клеи и косметика QBS\",\"opening_hours\"=>\"24\/7\",\"phone\"=>\"+44 7070 808 708\",\"shop\"=>\"beauty\",\"website\"=>\"https:\/\/qualitybeautystore.com\/\"" }, "geometry": { "type": "Point", "coordinates": [ -1.5153647, 53.8186566 ] } },
	{ "type": "Feature", "properties": { "osm_id": "8065478161", "name": "Hair Botique", "other_tags": "\"shop\"=>\"beauty\"" }, "geometry": { "type": "Point", "coordinates": [ -1.5333706, 53.7490498 ] } },
	{ "type": "Feature", "properties": { "osm_id": "8112004467", "other_tags": "\"beauty\"=>\"tanning\",\"shop\"=>\"beauty\"" }, "geometry": { "type": "Point", "coordinates": [ -1.6277187, 53.8120877 ] } },
	{ "type": "Feature", "properties": { "osm_id": "8221083768", "name": "ADL Aesthetics", "other_tags": "\"shop\"=>\"beauty\"" }, "geometry": { "type": "Point", "coordinates": [ -1.6864986, 53.8658565 ] } },
	{ "type": "Feature", "properties": { "osm_id": "8221090079", "name": "Ultra Sculpt Beauty Clinic", "other_tags": "\"shop\"=>\"beauty\"" }, "geometry": { "type": "Point", "coordinates": [ -1.6872576, 53.8659745 ] } },
	{ "type": "Feature", "properties": { "osm_id": "8255692758", "name": "Nails Star", "other_tags": "\"beauty\"=>\"nails\",\"shop\"=>\"beauty\"" }, "geometry": { "type": "Point", "coordinates": [ -1.6787473, 53.866077 ] } },
	{ "type": "Feature", "properties": { "osm_id": null, "centroid": { "latitude": 53.796332, "longitude": -1.536440 }, "osm_way_id": "199050394", "name": "Britney's Nails", "building": "yes", "shop": "beauty", "other_tags": "\"building:levels\"=>\"4\"" }, "geometry": { "type": "Polygon", "coordinates": [ [ [ -1.5363982, 53.7962747 ], [ -1.536488, 53.7963205 ], [ -1.5364862, 53.7963901 ], [ -1.5363912, 53.7963901 ], [ -1.5363982, 53.7962747 ] ] ] } },
	{ "type": "Feature", "properties": { "osm_id": null, "centroid": { "latitude": 53.730020, "longitude": -1.497937 }, "osm_way_id": "204188829", "name": "Chill", "building": "yes", "shop": "beauty" }, "geometry": { "type": "Polygon", "coordinates": [ [ [ -1.497825, 53.7300609 ], [ -1.4978313, 53.7299732 ], [ -1.4980483, 53.7299786 ], [ -1.498042, 53.7300663 ], [ -1.4979119, 53.7300631 ], [ -1.497825, 53.7300609 ] ] ] } },
	{ "type": "Feature", "properties": { "osm_id": null, "centroid": { "latitude": 53.789940, "longitude": -1.562297 }, "osm_way_id": "204469779", "name": "Sunrays", "building": "yes", "shop": "beauty" }, "geometry": { "type": "Polygon", "coordinates": [ [ [ -1.5623323, 53.789977 ], [ -1.562264, 53.7899818 ], [ -1.5622613, 53.7898979 ], [ -1.5623104, 53.7898995 ], [ -1.5623323, 53.789977 ] ] ] } },
	{ "type": "Feature", "properties": { "osm_id": null, "centroid": { "latitude": 53.820717, "longitude": -1.577350 }, "osm_way_id": "204558187", "name": "Charming Nails", "building": "retail", "shop": "beauty", "other_tags": "\"website\"=>\"https:\/\/www.facebook.com\/pages\/Charming-Nails\/549645728420529\"" }, "geometry": { "type": "Polygon", "coordinates": [ [ [ -1.5773102, 53.8207512 ], [ -1.5772814, 53.8207248 ], [ -1.5773895, 53.8206837 ], [ -1.5774184, 53.8207101 ], [ -1.5773102, 53.8207512 ] ] ] } },
	{ "type": "Feature", "properties": { "osm_id": null, "centroid": { "latitude": 53.833223, "longitude": -1.603850 }, "osm_way_id": "305716095", "name": "Bliss", "building": "yes", "shop": "beauty" }, "geometry": { "type": "Polygon", "coordinates": [ [ [ -1.6038292, 53.8332587 ], [ -1.6037843, 53.8331881 ], [ -1.6039157, 53.8331881 ], [ -1.6039156, 53.8332585 ], [ -1.6038292, 53.8332587 ] ] ] } },
	{ "type": "Feature", "properties": { "osm_id": null, "centroid": { "latitude": 53.795798, "longitude": -1.541646 }, "osm_way_id": "337860718", "name": "Nails 4 U", "shop": "beauty" }, "geometry": { "type": "Polygon", "coordinates": [ [ [ -1.5416747, 53.79587 ], [ -1.5415928, 53.7958649 ], [ -1.5416204, 53.7957261 ], [ -1.5416983, 53.795732 ], [ -1.5416747, 53.79587 ] ] ] } },
	{ "type": "Feature", "properties": { "osm_id": null, "centroid": { "latitude": 53.795840, "longitude": -1.542853 }, "osm_way_id": "337860722", "name": "Russell Eaton", "shop": "beauty" }, "geometry": { "type": "Polygon", "coordinates": [ [ [ -1.5430143, 53.7959082 ], [ -1.5427478, 53.79592 ], [ -1.5427101, 53.7959141 ], [ -1.5426915, 53.7958963 ], [ -1.5426984, 53.7957595 ], [ -1.5429689, 53.7957606 ], [ -1.5429951, 53.795762 ], [ -1.5430143, 53.7959082 ] ] ] } },
	{ "type": "Feature", "properties": { "osm_id": null, "centroid": { "latitude": 53.795730, "longitude": -1.543842 }, "osm_way_id": "338011450", "name": "Mint", "shop": "beauty", "other_tags": "\"addr:city\"=>\"Leeds\",\"addr:street\"=>\"Trevelyan Square\",\"description\"=>\"Nail & beauty bar\",\"addr:postcode\"=>\"LS1 6HP\",\"addr:housenumber\"=>\"3\"" }, "geometry": { "type": "Polygon", "coordinates": [ [ [ -1.5439525, 53.7958079 ], [ -1.5438309, 53.7958264 ], [ -1.543814, 53.7958263 ], [ -1.5438025, 53.7958186 ], [ -1.5437308, 53.7956696 ], [ -1.5437319, 53.7956601 ], [ -1.5437516, 53.795653 ], [ -1.543874, 53.795634 ], [ -1.5439525, 53.7958079 ] ] ] } },
	{ "type": "Feature", "properties": { "osm_id": null, "centroid": { "latitude": 53.806545, "longitude": -1.533810 }, "osm_way_id": "426119653", "name": "Dennis Williams Ltd", "building": "commercial", "shop": "beauty", "other_tags": "\"access\"=>\"trade\",\"website\"=>\"http:\/\/www.dennis-williams.co.uk\/\",\"addr:city\"=>\"Leeds\",\"addr:unit\"=>\"2\",\"addr:street\"=>\"Sheepscar Street South\",\"addr:postcode\"=>\"LS7 1AD\",\"addr:housename\"=>\"Sheepscar House\",\"addr:housenumber\"=>\"15\"" }, "geometry": { "type": "Polygon", "coordinates": [ [ [ -1.5336871, 53.8064792 ], [ -1.5338115, 53.8064491 ], [ -1.5339335, 53.8066315 ], [ -1.5339011, 53.806641 ], [ -1.5338009, 53.8066398 ], [ -1.5336871, 53.8064792 ] ] ] } },
	{ "type": "Feature", "properties": { "osm_id": null, "centroid": { "latitude": 53.748586, "longitude": -1.476829 }, "osm_way_id": "545810862", "name": "TK Nails & Beauty", "building": "commercial", "shop": "beauty" }, "geometry": { "type": "Polygon", "coordinates": [ [ [ -1.4768813, 53.7486171 ], [ -1.476787, 53.7486199 ], [ -1.4767775, 53.7485554 ], [ -1.4768351, 53.7485523 ], [ -1.4768767, 53.7485705 ], [ -1.4768813, 53.7486171 ] ] ] } },
	{ "type": "Feature", "properties": { "osm_id": null, "centroid": { "latitude": 53.723793, "longitude": -1.567372 }, "osm_way_id": "595580609", "name": "The Beauty House", "building": "yes", "shop": "beauty", "other_tags": "\"addr:city\"=>\"Wakefield\",\"addr:street\"=>\"Haigh Moor Road\",\"addr:suburb\"=>\"Tingley\",\"addr:postcode\"=>\"WF3 1AA\",\"addr:housenumber\"=>\"2\"" }, "geometry": { "type": "Polygon", "coordinates": [ [ [ -1.5674234, 53.7237321 ], [ -1.5674769, 53.7237702 ], [ -1.5674345, 53.7237911 ], [ -1.5674651, 53.7238129 ], [ -1.5673972, 53.7238464 ], [ -1.5673747, 53.7238303 ], [ -1.5673257, 53.7238544 ], [ -1.5672664, 53.7238123 ], [ -1.5673153, 53.7237882 ], [ -1.5672891, 53.7237695 ], [ -1.567357, 53.723736 ], [ -1.5673809, 53.723753 ], [ -1.5674234, 53.7237321 ] ] ] } },
	{ "type": "Feature", "properties": { "osm_id": null, "centroid": { "latitude": 53.796495, "longitude": -1.540864 }, "osm_way_id": "639133098", "name": "Hair City", "building": "yes", "shop": "beauty" }, "geometry": { "type": "Polygon", "coordinates": [ [ [ -1.5409424, 53.7965031 ], [ -1.5408941, 53.7965744 ], [ -1.540752, 53.7965371 ], [ -1.540811, 53.7964349 ], [ -1.5408512, 53.7964159 ], [ -1.5409762, 53.7964234 ], [ -1.5409424, 53.7965031 ] ] ] } },
	{ "type": "Feature", "properties": { "osm_id": null, "centroid": { "latitude": 53.782668, "longitude": -1.585823 }, "osm_way_id": "669159782", "name": "Beauty Essence", "building": "yes", "shop": "beauty", "other_tags": "\"addr:city\"=>\"Leeds\",\"addr:street\"=>\"Dixon Lane\",\"addr:postcode\"=>\"LS12 4AD\",\"addr:housenumber\"=>\"112\"" }, "geometry": { "type": "Polygon", "coordinates": [ [ [ -1.585793, 53.782621 ], [ -1.5859034, 53.7826502 ], [ -1.5858539, 53.7827156 ], [ -1.5857435, 53.7826864 ], [ -1.585793, 53.782621 ] ] ] } }
]
}
