{
"type": "FeatureCollection",
"crs": { "type": "name", "properties": { "name": "urn:ogc:def:crs:OGC:1.3:CRS84" } },
"features": [
	{ "type": "Feature", "properties": { "osm_id": "2353511326", "name": "Gifted Angel", "other_tags": "\"addr:housenumber\"=>\"1\",\"addr:postcode\"=>\"LS21 3AJ\",\"addr:street\"=>\"New Inn Court\",\"phone\"=>\"+44 1943 464276\",\"shop\"=>\"massage\"" }, "geometry": { "type": "Point", "coordinates": [ -1.6937669, 53.9049862 ] } },
	{ "type": "Feature", "properties": { "osm_id": "3716852685", "name": "Laura Griggs Sports Massage", "other_tags": "\"addr:city\"=>\"Yeadon\",\"addr:housenumber\"=>\"99\",\"addr:postcode\"=>\"LS19 7TA\",\"addr:street\"=>\"High Street\",\"phone\"=>\"+44 844 800 9016\",\"recycling:cans\"=>\"no\",\"recycling:clothes\"=>\"yes\",\"recycling:glass\"=>\"no\",\"recycling:paper\"=>\"no\",\"shop\"=>\"massage\"" }, "geometry": { "type": "Point", "coordinates": [ -1.6790241, 53.8661309 ] } },
	{ "type": "Feature", "properties": { "osm_id": "5564598459", "name": "Nuad Thai Boran", "other_tags": "\"shop\"=>\"massage\",\"massage\"=>\"thai\",\"addr:city\"=>\"Leeds\",\"addr:street\"=>\"Vicar Lane\",\"addr:postcode\"=>\"LS2 7NL\",\"addr:housenumber\"=>\"106-108\"" }, "geometry": { "type": "Point", "coordinates": [ -1.5393774, 53.7996314 ] } },
	{ "type": "Feature", "properties": { "osm_id": "6001482127", "name": "Nuad Thai Boran", "other_tags": "\"shop\"=>\"massage\",\"massage\"=>\"thai\"" }, "geometry": { "type": "Point", "coordinates": [ -1.5380484, 53.7973431 ] } },
	{ "type": "Feature", "properties": { "osm_id": "8316250698", "name": "Rosa Thai", "other_tags": "\"addr:city\"=>\"Rawdon\",\"addr:housenumber\"=>\"2\",\"addr:postcode\"=>\"LS19 6HN\",\"addr:street\"=>\"New Road Side\",\"shop\"=>\"massage\"" }, "geometry": { "type": "Point", "coordinates": [ -1.6849218, 53.8532999 ] } },
	{ "type": "Feature", "properties": { "osm_way_id": "202286668", "name": "Angels Massage & Spa", "building": "yes", "shop": "massage", "other_tags": "\"addr:city\"=>\"Leeds\",\"addr:street\"=>\"Pym Street\",\"addr:postcode\"=>\"LS10 1PG\",\"addr:housename\"=>\"Millwood house\"" }, "geometry": { "type": "Polygon", "coordinates": [ [ [ -1.531108, 53.7852759 ], [ -1.5309552, 53.7853146 ], [ -1.5309373, 53.7852901 ], [ -1.530898, 53.7852359 ], [ -1.5310508, 53.7851972 ], [ -1.531108, 53.7852759 ] ] ] } }
]
}
