{
"type": "FeatureCollection",
"crs": { "type": "name", "properties": { "name": "urn:ogc:def:crs:OGC:1.3:CRS84" } },
"features": [
	{ "type": "Feature", "properties": { "osm_id": "333799032", "name": "AZ Nails", "other_tags": "\"addr:city\"=>\"Leeds\",\"addr:housenumber\"=>\"61a\",\"addr:postcode\"=>\"LS1 6LR\",\"addr:street\"=>\"The Headrow\",\"shop\"=>\"beauty\"" }, "geometry": { "type": "Point", "coordinates": [ -1.5429728, 53.7990869 ] } },
	{ "type": "Feature", "properties": { "osm_id": "333799033", "name": "Hind", "other_tags": "\"shop\"=>\"beauty\"" }, "geometry": { "type": "Point", "coordinates": [ -1.5430517, 53.7990968 ] } },
	{ "type": "Feature", "properties": { "osm_id": "334884437", "name": "Lux Salon", "other_tags": "\"addr:city\"=>\"Leeds\",\"addr:housenumber\"=>\"380\",\"addr:postcode\"=>\"LS4 2HQ\",\"addr:street\"=>\"Kirkstall Road\",\"addr:suburb\"=>\"Burley\",\"fhrs:id\"=>\"1215166\",\"old_name\"=>\"Tyranosaurus Pets\",\"shop\"=>\"beauty\"" }, "geometry": { "type": "Point", "coordinates": [ -1.583378, 53.8067235 ] } },
	{ "type": "Feature", "properties": { "osm_id": "842229817", "name": "Angel Nails", "other_tags": "\"beauty\"=>\"nails\",\"phone\"=>\"+44 7438 175258\",\"shop\"=>\"beauty\"" }, "geometry": { "type": "Point", "coordinates": [ -1.5475174, 53.74747 ] } },
	{ "type": "Feature", "properties": { "osm_id": "1562986916", "name": "Hollywood Nail Studio", "other_tags": "\"addr:city\"=>\"Leeds\",\"addr:housename\"=>\"Kirkgate Market\",\"addr:street\"=>\"Kirkgate\",\"shop\"=>\"beauty\"" }, "geometry": { "type": "Point", "coordinates": [ -1.5399227, 53.7971216 ] } },
	{ "type": "Feature", "properties": { "osm_id": "2091013188", "name": "New York Nails & Beauty", "other_tags": "\"addr:city\"=>\"Leeds\",\"addr:housenumber\"=>\"35\",\"addr:postcode\"=>\"LS1 6DS\",\"addr:street\"=>\"Vicar Lane\",\"shop\"=>\"beauty\"" }, "geometry": { "type": "Point", "coordinates": [ -1.5405257, 53.7971311 ] } },
	{ "type": "Feature", "properties": { "osm_id": "2110352265", "name": "High Maintenance Aesthetics", "other_tags": "\"addr:city\"=>\"Leeds\",\"addr:housenumber\"=>\"317\",\"addr:postcode\"=>\"LS10 1NJ\",\"addr:street\"=>\"Hunslet Road\",\"shop\"=>\"beauty\"" }, "geometry": { "type": "Point", "coordinates": [ -1.5293326, 53.7831163 ] } },
	{ "type": "Feature", "properties": { "osm_id": "2128107773", "name": "Lisa Star Nails & Beauty", "other_tags": "\"shop\"=>\"beauty\"" }, "geometry": { "type": "Point", "coordinates": [ -1.5401224, 53.7970427 ] } },
	{ "type": "Feature", "properties": { "osm_id": "2157985622", "name": "id Aromatics", "other_tags": "\"shop\"=>\"beauty\"" }, "geometry": { "type": "Point", "coordinates": [ -1.5451224, 53.7954168 ] } },
	{ "type": "Feature", "properties": { "osm_id": "2353417486", "name": "NU.U Clinic", "other_tags": "\"addr:city\"=>\"Otley\",\"addr:country\"=>\"GB\",\"addr:housenumber\"=>\"46\",\"addr:street\"=>\"Boroughgate\",\"is_in:town\"=>\"Otley\",\"phone\"=>\"+44 1943 423812\",\"shop\"=>\"beauty\"" }, "geometry": { "type": "Point", "coordinates": [ -1.6911544, 53.9058978 ] } },
	{ "type": "Feature", "properties": { "osm_id": "2353482462", "name": "Otley Natural Health Clinic", "other_tags": "\"addr:city\"=>\"Otley\",\"addr:housenumber\"=>\"1-9\",\"addr:postcode\"=>\"LS21 3AQ\",\"addr:street\"=>\"Market Place\",\"phone\"=>\"+44 1943 465333\",\"shop\"=>\"beauty\",\"website\"=>\"www.otleynaturalhealth.com\"" }, "geometry": { "type": "Point", "coordinates": [ -1.6939815, 53.9056182 ] } },
	{ "type": "Feature", "properties": { "osm_id": "2353524092", "name": "Nail Kandy", "other_tags": "\"addr:street\"=>\"New Inn Court\",\"description\"=>\"Nail Bar\",\"shop\"=>\"beauty\"" }, "geometry": { "type": "Point", "coordinates": [ -1.6939359, 53.9049893 ] } },
	{ "type": "Feature", "properties": { "osm_id": "2408752503", "name": "Lucy Spa & Nails", "other_tags": "\"shop\"=>\"beauty\"" }, "geometry": { "type": "Point", "coordinates": [ -1.5661834, 53.8283181 ] } },
	{ "type": "Feature", "properties": { "osm_id": "2408752508", "name": "Urban Beauty", "other_tags": "\"shop\"=>\"beauty\"" }, "geometry": { "type": "Point", "coordinates": [ -1.5662011, 53.8286635 ] } },
	{ "type": "Feature", "properties": { "osm_id": "3222634962", "name": "WIP Hair & Beauty", "other_tags": "\"shop\"=>\"beauty\"" }, "geometry": { "type": "Point", "coordinates": [ -1.5611546, 53.8147766 ] } },
	{ "type": "Feature", "properties": { "osm_id": "3715078560", "name": "J Lashes & Beauty", "other_tags": "\"addr:city\"=>\"Yeadon\",\"addr:housenumber\"=>\"154\",\"addr:postcode\"=>\"LS19 6AH\",\"addr:street\"=>\"Harrogate Road\",\"phone\"=>\"+44 113 250 8832\",\"shop\"=>\"beauty\",\"website\"=>\"www.daveraynercycles.co.uk\"" }, "geometry": { "type": "Point", "coordinates": [ -1.6724362, 53.8630991 ] } },
	{ "type": "Feature", "properties": { "osm_id": "3715282330", "name": "Luxe Beauty Lounge", "other_tags": "\"addr:city\"=>\"Rawdon\",\"addr:housenumber\"=>\"11a\",\"addr:postcode\"=>\"LS19 6HW\",\"addr:street\"=>\"Harrogate Road\",\"phone\"=>\"+44 113 202 9833\",\"shop\"=>\"beauty\",\"website\"=>\"www.www.luxebeautylounge.co.uk\"" }, "geometry": { "type": "Point", "coordinates": [ -1.6848463, 53.8538324 ] } },
	{ "type": "Feature", "properties": { "osm_id": "3715292800", "name": "Bodyline Plus", "other_tags": "\"addr:city\"=>\"Rawdon\",\"addr:housenumber\"=>\"10\",\"addr:postcode\"=>\"LS19 6HN\",\"addr:street\"=>\"New Road Side\",\"phone\"=>\"+44 7985 563 309\",\"shop\"=>\"beauty\",\"website\"=>\"www.bodylineplus.co.uk\"" }, "geometry": { "type": "Point", "coordinates": [ -1.6850783, 53.8534892 ] } },
	{ "type": "Feature", "properties": { "osm_id": "3716749539", "name": "Nechelle", "other_tags": "\"addr:city\"=>\"Yeadon\",\"addr:postcode\"=>\"LS19 7TA\",\"addr:street\"=>\"High Street\",\"shop\"=>\"beauty\"" }, "geometry": { "type": "Point", "coordinates": [ -1.6771773, 53.8654295 ] } },
	{ "type": "Feature", "properties": { "osm_id": "3716852676", "name": "Tips 2 Toes", "other_tags": "\"addr:city\"=>\"Yeadon\",\"addr:housenumber\"=>\"101\",\"addr:postcode\"=>\"LS19 7TA\",\"addr:street\"=>\"High Street\",\"phone\"=>\"+44 113 250 2444\",\"shop\"=>\"beauty\"" }, "geometry": { "type": "Point", "coordinates": [ -1.6789073, 53.866109 ] } },
	{ "type": "Feature", "properties": { "osm_id": "3718205537", "name": "KiKu", "other_tags": "\"addr:city\"=>\"Yeadon\",\"addr:housenumber\"=>\"41\",\"addr:postcode\"=>\"LS19 7SP\",\"addr:street\"=>\"High Street\",\"shop\"=>\"beauty\"" }, "geometry": { "type": "Point", "coordinates": [ -1.683903, 53.8662636 ] } },
	{ "type": "Feature", "properties": { "osm_id": "3718231085", "name": "All about you", "other_tags": "\"addr:city\"=>\"Yeadon\",\"addr:housenumber\"=>\"4\",\"addr:postcode\"=>\"LS19 7PP\",\"addr:street\"=>\"High Street\",\"phone\"=>\"+44 113 250 6026\",\"shop\"=>\"beauty\",\"website\"=>\"https:\/\/www.platinumbridalboutique.co.uk\/\"" }, "geometry": { "type": "Point", "coordinates": [ -1.685352, 53.8659184 ] } },
	{ "type": "Feature", "properties": { "osm_id": "3718444414", "name": "Koko Nails", "other_tags": "\"addr:city\"=>\"Yeadon\",\"addr:housenumber\"=>\"18\",\"addr:postcode\"=>\"LS19 7PP\",\"addr:street\"=>\"High Street\",\"beauty\"=>\"nails\",\"shop\"=>\"beauty\"" }, "geometry": { "type": "Point", "coordinates": [ -1.6836038, 53.8660391 ] } },
	{ "type": "Feature", "properties": { "osm_id": "3718445600", "name": "Be Beautiful", "other_tags": "\"addr:city\"=>\"Yeadon\",\"addr:housenumber\"=>\"1\",\"addr:postcode\"=>\"LS19 7RE\",\"addr:street\"=>\"Ivegate\",\"phone\"=>\"+44 113 250 4686\",\"shop\"=>\"beauty\",\"website\"=>\"http:\/\/greatoutdoorsleeds.co.uk\/\"" }, "geometry": { "type": "Point", "coordinates": [ -1.6856771, 53.8659198 ] } },
	{ "type": "Feature", "properties": { "osm_id": "3718469499", "name": "Sundeck Tanning Salon", "other_tags": "\"addr:city\"=>\"Yeadon\",\"addr:housenumber\"=>\"13\",\"addr:postcode\"=>\"LS19 7EQ\",\"addr:street\"=>\"Town Street\",\"beauty\"=>\"tanning\",\"phone\"=>\"+44 113 391 0101\",\"shop\"=>\"beauty\"" }, "geometry": { "type": "Point", "coordinates": [ -1.6862409, 53.8658744 ] } },
	{ "type": "Feature", "properties": { "osm_id": "3718505414", "name": "Serenity", "other_tags": "\"addr:city\"=>\"Yeadon\",\"addr:housenumber\"=>\"24\",\"addr:postcode\"=>\"LS19 7RE\",\"addr:street\"=>\"Ivegate\",\"phone\"=>\"+44 113 250 3222\",\"shop\"=>\"beauty\",\"website\"=>\"www.serenitybeauty.org.uk\"" }, "geometry": { "type": "Point", "coordinates": [ -1.6864713, 53.8650052 ] } },
	{ "type": "Feature", "properties": { "osm_id": "3777343351", "name": "Beauty Never Sleeps", "other_tags": "\"shop\"=>\"beauty\"" }, "geometry": { "type": "Point", "coordinates": [ -1.6030609, 53.7934866 ] } },
	{ "type": "Feature", "properties": { "osm_id": "3801400063", "name": "Bloom Beauty Lounge & Day Spa", "other_tags": "\"shop\"=>\"beauty\"" }, "geometry": { "type": "Point", "coordinates": [ -1.6024044, 53.8155964 ] } },
	{ "type": "Feature", "properties": { "osm_id": "3886297891", "name": "Base", "other_tags": "\"addr:city\"=>\"Leeds\",\"addr:housenumber\"=>\"3-5\",\"addr:postcode\"=>\"LS18 4AP\",\"addr:street\"=>\"Town Street\",\"addr:suburb\"=>\"Horsforth\",\"beauty\"=>\"tanning;nails;skin_care;waxing\",\"check_date:opening_hours\"=>\"2023-01-23\",\"opening_hours\"=>\"Tu-We 10:00-17:00; Th 11:00-20:00; Fr 10:30-17:30; Sa 10:00-16:00\",\"opening_hours:signed\"=>\"no\",\"phone\"=>\"+44 113 258 8425\",\"shop\"=>\"beauty\",\"website\"=>\"https:\/\/www.basebeautysalon.co.uk\/\"" }, "geometry": { "type": "Point", "coordinates": [ -1.6422665, 53.8369331 ] } },
	{ "type": "Feature", "properties": { "osm_id": "3886416657", "name": "Pink Nails", "other_tags": "\"addr:city\"=>\"Leeds\",\"addr:housenumber\"=>\"56\",\"addr:postcode\"=>\"LS18 4AP\",\"addr:street\"=>\"Town Street\",\"addr:suburb\"=>\"Horsforth\",\"contact:facebook\"=>\"https:\/\/www.facebook.com\/pinknails\",\"opening_hours\"=>\"Mo-Sa 09:30-18:30; Su closed\",\"phone\"=>\"+44 113 345 2901\",\"shop\"=>\"beauty\"" }, "geometry": { "type": "Point", "coordinates": [ -1.6400167, 53.8380856 ] } },
	{ "type": "Feature", "properties": { "osm_id": "3886416679", "name": "Absolute", "other_tags": "\"addr:city\"=>\"Leeds\",\"addr:housenumber\"=>\"64\",\"addr:postcode\"=>\"LS18 4AP\",\"addr:street\"=>\"Town Street\",\"addr:suburb\"=>\"Horsforth\",\"check_date:opening_hours\"=>\"2023-02-06\",\"opening_hours:signed\"=>\"no\",\"phone\"=>\"+44 113 239 0100\",\"shop\"=>\"beauty\",\"website\"=>\"http:\/\/www.absolutebeautyleeds.com\/\"" }, "geometry": { "type": "Point", "coordinates": [ -1.6395322, 53.8384328 ] } },
	{ "type": "Feature", "properties": { "osm_id": "3887830129", "name": "Beauty By Emily", "other_tags": "\"addr:city\"=>\"Leeds\",\"addr:housenumber\"=>\"87\",\"addr:postcode\"=>\"LS18 5BP\",\"addr:street\"=>\"Town Street\",\"addr:suburb\"=>\"Horsforth\",\"check_date:opening_hours\"=>\"2023-02-17\",\"opening_hours\"=>\"Tu,Fr 10:00-18:00; We-Th 10:00-20:00; Sa 09:00-15:00; Su-Mo closed\",\"phone\"=>\"+44 113 258 8120\",\"shop\"=>\"beauty\",\"website\"=>\"https:\/\/beautybyemily.net\/\"" }, "geometry": { "type": "Point", "coordinates": [ -1.6392761, 53.8390037 ] } },
	{ "type": "Feature", "properties": { "osm_id": "3902978494", "name": "Mc Aesthetics", "other_tags": "\"addr:city\"=>\"Horsforth\",\"addr:housenumber\"=>\"147\",\"addr:postcode\"=>\"LS18 4QD\",\"addr:street\"=>\"New Road Side\",\"beauty\"=>\"skin_care;hair_removal;cosmetics\",\"contact:facebook\"=>\"https:\/\/www.facebook.com\/McAestheticsLtd\/\",\"contact:instagram\"=>\"https:\/\/www.instagram.com\/mcaesthetics.uk\/\",\"contact:twitter\"=>\"https:\/\/www.instagram.com\/mcaesthetics.uk\/\",\"phone\"=>\"+44 161 773 3614\",\"shop\"=>\"beauty\",\"website\"=>\"https:\/\/mc-aesthetics.co.uk\/\"" }, "geometry": { "type": "Point", "coordinates": [ -1.6441927, 53.8321074 ] } },
	{ "type": "Feature", "properties": { "osm_id": "3902978498", "name": "Sun Station", "other_tags": "\"addr:city\"=>\"Horsforth\",\"addr:housenumber\"=>\"137\",\"addr:postcode\"=>\"LS18 4QD\",\"addr:street\"=>\"New Road Side\",\"opening_hours\"=>\"Mo-Fr 09:00-20:00; Sa 09:00-18:00; Su 10:00-16:00\",\"phone\"=>\"+44 113 258 4870\",\"shop\"=>\"beauty\",\"website\"=>\"http:\/\/www.sunstationonline.com\/\"" }, "geometry": { "type": "Point", "coordinates": [ -1.6438113, 53.832087 ] } },
	{ "type": "Feature", "properties": { "osm_id": "3902978505", "name": "Scandal", "other_tags": "\"addr:city\"=>\"Horsforth\",\"addr:housenumber\"=>\"129\",\"addr:postcode\"=>\"LS18 4QD\",\"addr:street\"=>\"New Road Side\",\"beauty\"=>\"nails\",\"check_date:opening_hours\"=>\"2023-01-09\",\"opening_hours:signed\"=>\"no\",\"shop\"=>\"beauty\"" }, "geometry": { "type": "Point", "coordinates": [ -1.6434823, 53.8320658 ] } },
	{ "type": "Feature", "properties": { "osm_id": "3903000731", "name": "Doll Beauty & Aesthetics", "other_tags": "\"addr:city\"=>\"Horsforth\",\"addr:housenumber\"=>\"123\",\"addr:postcode\"=>\"LS18 4QD\",\"addr:street\"=>\"New Road Side\",\"opening_hours\"=>\"Tu 10:00-18:00; We 10:00-16:00; Th 10:00-20:00; Sa 09:00-16:00\",\"shop\"=>\"beauty\"" }, "geometry": { "type": "Point", "coordinates": [ -1.6430898, 53.8320338 ] } },
	{ "type": "Feature", "properties": { "osm_id": "3904761989", "name": "Beauty Within", "other_tags": "\"addr:city\"=>\"Horsforth\",\"addr:housenumber\"=>\"95\",\"addr:postcode\"=>\"LS18 4QD\",\"addr:street\"=>\"New Road Side\",\"check_date:opening_hours\"=>\"2023-01-09\",\"opening_hours\"=>\"Mo 09:00-18:00; We,Fr 08:00-18:00; Th 08:00-21:00; Sa 09:00-16:00; Su,Tu closed\",\"opening_hours:signed\"=>\"no\",\"phone\"=>\"+44 113 258 5277\",\"shop\"=>\"beauty\"" }, "geometry": { "type": "Point", "coordinates": [ -1.6417243, 53.8319905 ] } },
	{ "type": "Feature", "properties": { "osm_id": "3904772151", "name": "Jessica Nails", "other_tags": "\"addr:city\"=>\"Horsforth\",\"addr:housenumber\"=>\"89\",\"addr:postcode\"=>\"LS18 4QD\",\"addr:street\"=>\"New Road Side\",\"beauty\"=>\"nails\",\"opening_hours\"=>\"Mo-Sa 09:30-18:30; Su 11:00-17:00\",\"shop\"=>\"beauty\"" }, "geometry": { "type": "Point", "coordinates": [ -1.6414783, 53.8319717 ] } },
	{ "type": "Feature", "properties": { "osm_id": "3916676790", "name": "The Beauty Studio", "other_tags": "\"addr:city\"=>\"Horsforth\",\"addr:housenumber\"=>\"94\",\"addr:postcode\"=>\"LS18 4QB\",\"addr:street\"=>\"New Road Side\",\"opening_hours\"=>\"Mo,Th,Fr 09:00-18:00; Tu,We 09:00-21:00; Sa 08:30-16:30; Su closed\",\"phone\"=>\"+44 113 2586500\",\"shop\"=>\"beauty\",\"website\"=>\"http:\/\/www.thebeautystudioleeds.co.uk\/\"" }, "geometry": { "type": "Point", "coordinates": [ -1.6412166, 53.8321967 ] } },
	{ "type": "Feature", "properties": { "osm_id": "3994428608", "name": "Pastille", "other_tags": "\"shop\"=>\"beauty\"" }, "geometry": { "type": "Point", "coordinates": [ -1.5486025, 53.7935194 ] } },
	{ "type": "Feature", "properties": { "osm_id": "4475968860", "name": "Lam Boutique", "other_tags": "\"beauty\"=>\"nails\",\"shop\"=>\"beauty\"" }, "geometry": { "type": "Point", "coordinates": [ -1.448975, 53.8071486 ] } },
	{ "type": "Feature", "properties": { "osm_id": "4488841937", "name": "Phun Tawee Health and Beauty", "other_tags": "\"addr:city\"=>\"Leeds\",\"addr:housenumber\"=>\"54\",\"addr:postcode\"=>\"LS2 7PN\",\"addr:street\"=>\"North Street\",\"shop\"=>\"beauty\"" }, "geometry": { "type": "Point", "coordinates": [ -1.5385218, 53.8012877 ] } },
	{ "type": "Feature", "properties": { "osm_id": "4583121589", "name": "Tanfastique", "other_tags": "\"addr:city\"=>\"Leeds\",\"addr:housenumber\"=>\"24\",\"addr:postcode\"=>\"LS26 0RD\",\"addr:street\"=>\"Manor Road\",\"addr:suburb\"=>\"Rothwell\",\"beauty\"=>\"tanning\",\"shop\"=>\"beauty\"" }, "geometry": { "type": "Point", "coordinates": [ -1.486055, 53.752751 ] } },
	{ "type": "Feature", "properties": { "osm_id": "4846648927", "name": "Chocolate Beauty Spa", "other_tags": "\"shop\"=>\"beauty\"" }, "geometry": { "type": "Point", "coordinates": [ -1.5978563, 53.7428681 ] } },
	{ "type": "Feature", "properties": { "osm_id": "4919131111", "name": "Cristianos Laser Clinic", "other_tags": "\"addr:city\"=>\"Leeds\",\"addr:housenumber\"=>\"6-8\",\"addr:postcode\"=>\"LS1 2DS\",\"addr:street\"=>\"York Place\",\"beauty\"=>\"laser_hair_removal\",\"shop\"=>\"beauty\"" }, "geometry": { "type": "Point", "coordinates": [ -1.5524054, 53.7968842 ] } },
	{ "type": "Feature", "properties": { "osm_id": "5262528859", "name": "Indigo Sun", "other_tags": "\"beauty\"=>\"tanning\",\"brand\"=>\"Indigo Sun\",\"brand:wikidata\"=>\"Q63436906\",\"old_name\"=>\"east north east \/ Post Office\",\"shop\"=>\"beauty\"" }, "geometry": { "type": "Point", "coordinates": [ -1.4604415, 53.8226147 ] } },
	{ "type": "Feature", "properties": { "osm_id": "5311505825", "name": "Beauty Within", "other_tags": "\"shop\"=>\"beauty\"" }, "geometry": { "type": "Point", "coordinates": [ -1.6935159, 53.9060313 ] } },
	{ "type": "Feature", "properties": { "osm_id": "5407594209", "name": "The Beach", "other_tags": "\"shop\"=>\"beauty\"" }, "geometry": { "type": "Point", "coordinates": [ -1.4485163, 53.7575942 ] } },
	{ "type": "Feature", "properties": { "osm_id": "5422663131", "name": "Glamour Forever", "other_tags": "\"shop\"=>\"beauty\"" }, "geometry": { "type": "Point", "coordinates": [ -1.5435523, 53.8011831 ] } },
	{ "type": "Feature", "properties": { "osm_id": "5422663142", "name": "Brows.", "other_tags": "\"beauty\"=>\"nails\",\"old_name\"=>\"Met-RX\",\"shop\"=>\"beauty\"" }, "geometry": { "type": "Point", "coordinates": [ -1.5441343, 53.8016108 ] } },
	{ "type": "Feature", "properties": { "osm_id": "5468024764", "name": "Indigo Sun", "other_tags": "\"beauty\"=>\"tanning\",\"brand\"=>\"Indigo Sun\",\"brand:wikidata\"=>\"Q63436906\",\"shop\"=>\"beauty\"" }, "geometry": { "type": "Point", "coordinates": [ -1.6620766, 53.8067021 ] } },
	{ "type": "Feature", "properties": { "osm_id": "5564598458", "name": "NailsUSA", "other_tags": "\"addr:city\"=>\"Leeds\",\"addr:housenumber\"=>\"98\",\"addr:postcode\"=>\"LS2 7NL\",\"addr:street\"=>\"Vicar Lane\",\"shop\"=>\"beauty\"" }, "geometry": { "type": "Point", "coordinates": [ -1.5394244, 53.7993574 ] } },
	{ "type": "Feature", "properties": { "osm_id": "5648164606", "name": "Queen Nails", "other_tags": "\"shop\"=>\"beauty\"" }, "geometry": { "type": "Point", "coordinates": [ -1.5450396, 53.801892 ] } },
	{ "type": "Feature", "properties": { "osm_id": "5916115983", "other_tags": "\"beauty\"=>\"nails\",\"shop\"=>\"beauty\"" }, "geometry": { "type": "Point", "coordinates": [ -1.4513712, 53.8061607 ] } },
	{ "type": "Feature", "properties": { "osm_id": "5918770661", "name": "L&H beauty studio", "other_tags": "\"addr:city\"=>\"Leeds\",\"addr:street\"=>\"Regent Street\",\"shop\"=>\"beauty\"" }, "geometry": { "type": "Point", "coordinates": [ -1.5379673, 53.8298552 ] } },
	{ "type": "Feature", "properties": { "osm_id": "5940390390", "name": "Handstanned", "other_tags": "\"addr:city\"=>\"Leeds\",\"addr:housenumber\"=>\"25-26\",\"addr:postcode\"=>\"LS1 6PG\",\"addr:street\"=>\"Grand Arcade\",\"shop\"=>\"beauty\",\"website\"=>\"http:\/\/www.handstanned.co.uk\/\"" }, "geometry": { "type": "Point", "coordinates": [ -1.5405557, 53.8003234 ] } },
	{ "type": "Feature", "properties": { "osm_id": "5941346413", "name": "Liz Earle", "other_tags": "\"addr:city\"=>\"Leeds\",\"addr:housenumber\"=>\"38-40\",\"addr:postcode\"=>\"LS1 6BE\",\"addr:street\"=>\"Queen Victoria Street\",\"shop\"=>\"beauty\"" }, "geometry": { "type": "Point", "coordinates": [ -1.5404342, 53.7981819 ] } },
	{ "type": "Feature", "properties": { "osm_id": "5941346459", "name": "Luxury Nails", "other_tags": "\"addr:city\"=>\"Leeds\",\"addr:housenumber\"=>\"36\",\"addr:postcode\"=>\"LS1 6LB\",\"addr:street\"=>\"Lands Lane\",\"shop\"=>\"beauty\"" }, "geometry": { "type": "Point", "coordinates": [ -1.5432841, 53.7986762 ] } },
	{ "type": "Feature", "properties": { "osm_id": "5981573970", "name": "Dimples Hair and Cosmetics", "other_tags": "\"addr:city\"=>\"Leeds\",\"addr:housename\"=>\"Kirkgate Market\",\"addr:street\"=>\"Kirkgate\",\"shop\"=>\"beauty\"" }, "geometry": { "type": "Point", "coordinates": [ -1.5396845, 53.7971731 ] } },
	{ "type": "Feature", "properties": { "osm_id": "5981573971", "name": "Dimples Hair and Cosmetics", "other_tags": "\"addr:city\"=>\"Leeds\",\"addr:housename\"=>\"Kirkgate Market\",\"addr:street\"=>\"Kirkgate\",\"shop\"=>\"beauty\"" }, "geometry": { "type": "Point", "coordinates": [ -1.539678, 53.7972439 ] } },
	{ "type": "Feature", "properties": { "osm_id": "5981576288", "name": "Hinny's Beauty Salon", "other_tags": "\"addr:city\"=>\"Leeds\",\"addr:housename\"=>\"Kirkgate Market\",\"addr:street\"=>\"Kirkgate\",\"addr:unit\"=>\"21\",\"shop\"=>\"beauty\"" }, "geometry": { "type": "Point", "coordinates": [ -1.540045, 53.7969123 ] } },
	{ "type": "Feature", "properties": { "osm_id": "5981576293", "name": "MiaG.beauty", "other_tags": "\"addr:city\"=>\"Leeds\",\"addr:housename\"=>\"Kirkgate Market\",\"addr:street\"=>\"Kirkgate\",\"addr:unit\"=>\"16\",\"currency:XBT\"=>\"yes\",\"payment:lightning\"=>\"yes\",\"payment:onchain\"=>\"yes\",\"shop\"=>\"beauty\",\"survey:date\"=>\"2022-10-30\",\"website\"=>\"https:\/\/miag.beauty\/\"" }, "geometry": { "type": "Point", "coordinates": [ -1.5400351, 53.7971127 ] } },
	{ "type": "Feature", "properties": { "osm_id": "6001482120", "name": "The Look", "other_tags": "\"shop\"=>\"beauty\"" }, "geometry": { "type": "Point", "coordinates": [ -1.5384172, 53.7972845 ] } },
	{ "type": "Feature", "properties": { "osm_id": "6001482124", "name": "Glamour Hair & Beauty", "other_tags": "\"shop\"=>\"beauty\"" }, "geometry": { "type": "Point", "coordinates": [ -1.5390784, 53.7973067 ] } },
	{ "type": "Feature", "properties": { "osm_id": "6001492658", "name": "RK Nails and Beauty Salon", "other_tags": "\"addr:city\"=>\"Leeds\",\"addr:housename\"=>\"Kirkgate Market\",\"addr:postcode\"=>\"LS2 7HY\",\"addr:street\"=>\"Kirkgate\",\"addr:unit\"=>\"476\",\"shop\"=>\"beauty\"" }, "geometry": { "type": "Point", "coordinates": [ -1.5383542, 53.7973526 ] } },
	{ "type": "Feature", "properties": { "osm_id": "6022849877", "name": "A-One Nails", "other_tags": "\"shop\"=>\"beauty\"" }, "geometry": { "type": "Point", "coordinates": [ -1.544913, 53.7987082 ] } },
	{ "type": "Feature", "properties": { "osm_id": "6022849884", "name": "Trinity Nails & Beauty", "other_tags": "\"addr:city\"=>\"Leeds\",\"addr:housenumber\"=>\"81\",\"addr:postcode\"=>\"LS1 5AP\",\"addr:street\"=>\"Albion Street\",\"opening_hours\"=>\"Mo-Sa 09:00-19:00; Su 10:30-17:30\",\"shop\"=>\"beauty\"" }, "geometry": { "type": "Point", "coordinates": [ -1.5452567, 53.7984941 ] } },
	{ "type": "Feature", "properties": { "osm_id": "6022850195", "name": "Trinity Nails & Beauty", "other_tags": "\"shop\"=>\"beauty\"" }, "geometry": { "type": "Point", "coordinates": [ -1.545973, 53.7965375 ] } },
	{ "type": "Feature", "properties": { "osm_id": "6022850230", "name": "Future Therapies", "other_tags": "\"addr:city\"=>\"Leeds\",\"addr:housenumber\"=>\"9\",\"addr:postcode\"=>\"LS1 6DE\",\"addr:street\"=>\"Central Arcade\",\"shop\"=>\"beauty\"" }, "geometry": { "type": "Point", "coordinates": [ -1.5418477, 53.7963759 ] } },
	{ "type": "Feature", "properties": { "osm_id": "6022850235", "name": "Lisa Star Nails & Beauty", "other_tags": "\"addr:city\"=>\"Leeds\",\"addr:postcode\"=>\"LS1 6DE\",\"addr:street\"=>\"Central Arcade\",\"shop\"=>\"beauty\"" }, "geometry": { "type": "Point", "coordinates": [ -1.5420605, 53.7963912 ] } },
	{ "type": "Feature", "properties": { "osm_id": "6033885576", "name": "The Beauty Clinic", "other_tags": "\"addr:city\"=>\"Leeds\",\"addr:housename\"=>\"Corn Exchange\",\"addr:postcode\"=>\"LS1 7BR\",\"addr:street\"=>\"Call Lane\",\"level\"=>\"1\",\"shop\"=>\"beauty\"" }, "geometry": { "type": "Point", "coordinates": [ -1.539959, 53.7959983 ] } },
	{ "type": "Feature", "properties": { "osm_id": "6033885581", "name": "Ragdoll Nails", "other_tags": "\"addr:city\"=>\"Leeds\",\"addr:housename\"=>\"Corn Exchange\",\"addr:postcode\"=>\"LS1 7BR\",\"addr:street\"=>\"Call Lane\",\"level\"=>\"1\",\"shop\"=>\"beauty\",\"website\"=>\"https:\/\/www.ragdollnails.com\/\"" }, "geometry": { "type": "Point", "coordinates": [ -1.5403654, 53.7960857 ] } },
	{ "type": "Feature", "properties": { "osm_id": "6052531525", "name": "Glamour Forever", "other_tags": "\"level\"=>\"0\",\"shop\"=>\"beauty\"" }, "geometry": { "type": "Point", "coordinates": [ -1.574344, 53.758862 ] } },
	{ "type": "Feature", "properties": { "osm_id": "6052531532", "name": "Xtras", "other_tags": "\"level\"=>\"0\",\"shop\"=>\"beauty\"" }, "geometry": { "type": "Point", "coordinates": [ -1.5742528, 53.7574317 ] } },
	{ "type": "Feature", "properties": { "osm_id": "6052531566", "name": "Mint", "other_tags": "\"level\"=>\"0\",\"shop\"=>\"beauty\"" }, "geometry": { "type": "Point", "coordinates": [ -1.5740215, 53.7568961 ] } },
	{ "type": "Feature", "properties": { "osm_id": "6052531607", "name": "Glamour Forever", "other_tags": "\"level\"=>\"0\",\"shop\"=>\"beauty\"" }, "geometry": { "type": "Point", "coordinates": [ -1.5735776, 53.7599475 ] } },
	{ "type": "Feature", "properties": { "osm_id": "6052536860", "name": "White Rose Nail Studio", "other_tags": "\"shop\"=>\"beauty\"" }, "geometry": { "type": "Point", "coordinates": [ -1.5746123, 53.7603303 ] } },
	{ "type": "Feature", "properties": { "osm_id": "6294180917", "name": "Pink Nails", "other_tags": "\"beauty\"=>\"nails\",\"shop\"=>\"beauty\"" }, "geometry": { "type": "Point", "coordinates": [ -1.4519895, 53.8069865 ] } },
	{ "type": "Feature", "properties": { "osm_id": "6486646866", "name": "Diamond Nails", "other_tags": "\"addr:city\"=>\"Leeds\",\"addr:housenumber\"=>\"3\",\"addr:postcode\"=>\"LS15 7JZ\",\"addr:street\"=>\"Terminus Parade\",\"beauty\"=>\"nails\",\"outdoor_seating\"=>\"yes\",\"shop\"=>\"beauty\"" }, "geometry": { "type": "Point", "coordinates": [ -1.452765, 53.8072367 ] } },
	{ "type": "Feature", "properties": { "osm_id": "6814596676", "name": "Daniel's of Wetherby", "other_tags": "\"shop\"=>\"beauty\"" }, "geometry": { "type": "Point", "coordinates": [ -1.3866749, 53.9289346 ] } },
	{ "type": "Feature", "properties": { "osm_id": "6814604072", "name": "American Nails & Spa", "other_tags": "\"shop\"=>\"beauty\"" }, "geometry": { "type": "Point", "coordinates": [ -1.3853157, 53.929935 ] } },
	{ "type": "Feature", "properties": { "osm_id": "6814620844", "name": "Blu Hair Pink Beauty", "other_tags": "\"shop\"=>\"beauty\"" }, "geometry": { "type": "Point", "coordinates": [ -1.3848965, 53.9284613 ] } },
	{ "type": "Feature", "properties": { "osm_id": "6814629935", "name": "Capelli", "other_tags": "\"shop\"=>\"beauty\"" }, "geometry": { "type": "Point", "coordinates": [ -1.3853362, 53.9298842 ] } },
	{ "type": "Feature", "properties": { "osm_id": "6814630294", "name": "Innersense Aesthetics", "other_tags": "\"shop\"=>\"beauty\"" }, "geometry": { "type": "Point", "coordinates": [ -1.3866145, 53.9293984 ] } },
	{ "type": "Feature", "properties": { "osm_id": "6966811635", "name": "Hind", "other_tags": "\"shop\"=>\"beauty\"" }, "geometry": { "type": "Point", "coordinates": [ -1.5452676, 53.7962618 ] } },
	{ "type": "Feature", "properties": { "osm_id": "6969267517", "name": "Cristal Beauty", "other_tags": "\"shop\"=>\"beauty\"" }, "geometry": { "type": "Point", "coordinates": [ -1.478148, 53.7483508 ] } },
	{ "type": "Feature", "properties": { "osm_id": "7141868808", "name": "Cream", "other_tags": "\"shop\"=>\"beauty\"" }, "geometry": { "type": "Point", "coordinates": [ -1.4679337, 53.7971854 ] } },
	{ "type": "Feature", "properties": { "osm_id": "7141868812", "name": "Glama Puss", "other_tags": "\"beauty\"=>\"nails\",\"shop\"=>\"beauty\"" }, "geometry": { "type": "Point", "coordinates": [ -1.4672519, 53.797633 ] } },
	{ "type": "Feature", "properties": { "osm_id": "7575101685", "name": "beautique", "other_tags": "\"beauty\"=>\"nails\",\"shop\"=>\"beauty\"" }, "geometry": { "type": "Point", "coordinates": [ -1.520028, 53.856012 ] } },
	{ "type": "Feature", "properties": { "osm_id": "7837813417", "name": "Guise & Dolls", "other_tags": "\"addr:city\"=>\"Leeds\",\"addr:housenumber\"=>\"76\",\"addr:postcode\"=>\"LS20 8BH\",\"addr:street\"=>\"Otley Road\",\"check_date:opening_hours\"=>\"2023-06-01\",\"opening_hours:signed\"=>\"no\",\"phone\"=>\"+44 1943 884782\",\"shop\"=>\"beauty\",\"website\"=>\"https:\/\/www.guiseanddolls.co.uk\"" }, "geometry": { "type": "Point", "coordinates": [ -1.7142637, 53.8744913 ] } },
	{ "type": "Feature", "properties": { "osm_id": "7869213653", "name": "Bombom", "other_tags": "\"beauty\"=>\"nails\",\"shop\"=>\"beauty\"" }, "geometry": { "type": "Point", "coordinates": [ -1.4522575, 53.8036789 ] } },
	{ "type": "Feature", "properties": { "osm_id": "7902894933", "name": "Skin + Health", "other_tags": "\"beauty\"=>\"eyebrow\",\"shop\"=>\"beauty\"" }, "geometry": { "type": "Point", "coordinates": [ -1.4354347, 53.7959225 ] } },
	{ "type": "Feature", "properties": { "osm_id": "8023314785", "name": "eyelash extensions - beauty supply QBS", "other_tags": "\"email\"=>\"info@qualitybeautystore.com\",\"name:ru\"=>\"ресницы, клеи и косметика QBS\",\"opening_hours\"=>\"24\/7\",\"phone\"=>\"+44 7070 808 708\",\"shop\"=>\"beauty\",\"website\"=>\"https:\/\/qualitybeautystore.com\/\"" }, "geometry": { "type": "Point", "coordinates": [ -1.5153647, 53.8186566 ] } },
	{ "type": "Feature", "properties": { "osm_id": "8065478161", "name": "Hair Botique", "other_tags": "\"shop\"=>\"beauty\"" }, "geometry": { "type": "Point", "coordinates": [ -1.5333706, 53.7490498 ] } },
	{ "type": "Feature", "properties": { "osm_id": "8112004467", "other_tags": "\"beauty\"=>\"tanning\",\"shop\"=>\"beauty\"" }, "geometry": { "type": "Point", "coordinates": [ -1.6277187, 53.8120877 ] } },
	{ "type": "Feature", "properties": { "osm_id": "8112004482", "name": "Galaxy Nails & Beauty", "other_tags": "\"shop\"=>\"beauty\"" }, "geometry": { "type": "Point", "coordinates": [ -1.6261143, 53.8109796 ] } },
	{ "type": "Feature", "properties": { "osm_id": "8221083768", "name": "ADL Aesthetics", "other_tags": "\"shop\"=>\"beauty\"" }, "geometry": { "type": "Point", "coordinates": [ -1.6864986, 53.8658565 ] } },
	{ "type": "Feature", "properties": { "osm_id": "8221090079", "name": "Ultra Sculpt Beauty Clinic", "other_tags": "\"shop\"=>\"beauty\"" }, "geometry": { "type": "Point", "coordinates": [ -1.6872576, 53.8659745 ] } },
	{ "type": "Feature", "properties": { "osm_id": "8255692758", "name": "Nails Star", "other_tags": "\"beauty\"=>\"nails\",\"shop\"=>\"beauty\"" }, "geometry": { "type": "Point", "coordinates": [ -1.6787473, 53.866077 ] } },
	{ "type": "Feature", "properties": { "osm_id": "8494401618", "name": "Mai's LipS6", "other_tags": "\"shop\"=>\"beauty\"" }, "geometry": { "type": "Point", "coordinates": [ -1.5615044, 53.8144639 ] } },
	{ "type": "Feature", "properties": { "osm_id": "8494401630", "name": "Beauty By Minay", "other_tags": "\"shop\"=>\"beauty\"" }, "geometry": { "type": "Point", "coordinates": [ -1.5629448, 53.8151789 ] } },
	{ "type": "Feature", "properties": { "osm_id": "8494401641", "name": "Radiant Beauty", "other_tags": "\"shop\"=>\"beauty\"" }, "geometry": { "type": "Point", "coordinates": [ -1.5783648, 53.8212252 ] } },
	{ "type": "Feature", "properties": { "osm_id": "8494401645", "name": "Glow", "other_tags": "\"beauty\"=>\"nails\",\"shop\"=>\"beauty\"" }, "geometry": { "type": "Point", "coordinates": [ -1.580811, 53.820109 ] } },
	{ "type": "Feature", "properties": { "osm_id": "8615021083", "name": "Simply Beautiful", "other_tags": "\"shop\"=>\"beauty\"" }, "geometry": { "type": "Point", "coordinates": [ -1.6559811, 53.7978049 ] } },
	{ "type": "Feature", "properties": { "osm_id": "8645325107", "name": "Nail & Beauty Shop", "other_tags": "\"shop\"=>\"beauty\"" }, "geometry": { "type": "Point", "coordinates": [ -1.6614689, 53.7962642 ] } },
	{ "type": "Feature", "properties": { "osm_id": "9159006959", "name": "The Baltic Pearl", "other_tags": "\"beauty\"=>\"nails;tanning;skin_care;eyelash\",\"shop\"=>\"beauty\"" }, "geometry": { "type": "Point", "coordinates": [ -1.4913397, 53.818828 ] } },
	{ "type": "Feature", "properties": { "osm_id": "9356627348", "name": "The Nails Fairy", "other_tags": "\"addr:unit\"=>\"238\",\"beauty\"=>\"nails\",\"shop\"=>\"beauty\"" }, "geometry": { "type": "Point", "coordinates": [ -1.5393558, 53.7971693 ] } },
	{ "type": "Feature", "properties": { "osm_id": "9522646554", "name": "Bellissima Exclusive", "other_tags": "\"addr:city\"=>\"Leeds\",\"addr:housenumber\"=>\"12\",\"addr:postcode\"=>\"LS20 8AH\",\"addr:street\"=>\"Otley Road\",\"addr:suburb\"=>\"Guiseley\",\"opening_hours\"=>\"Mo-Fr 09:00-21:00; Sa 09:00-17:00; Su off\",\"phone\"=>\"+44 1943 876 868\",\"shop\"=>\"beauty\",\"website\"=>\"https:\/\/www.bellissimaexclusive.com\/\"" }, "geometry": { "type": "Point", "coordinates": [ -1.7095676, 53.8727037 ] } },
	{ "type": "Feature", "properties": { "osm_id": "9556053406", "name": "Brittany Jae", "other_tags": "\"beauty\"=>\"cosmetics\",\"shop\"=>\"beauty\"" }, "geometry": { "type": "Point", "coordinates": [ -1.7126784, 53.873936 ] } },
	{ "type": "Feature", "properties": { "osm_id": "9556053414", "name": "Summer Nails", "other_tags": "\"beauty\"=>\"nails\",\"shop\"=>\"beauty\"" }, "geometry": { "type": "Point", "coordinates": [ -1.7123353, 53.873831 ] } },
	{ "type": "Feature", "properties": { "osm_id": "9580697260", "name": "Envious Beauty", "other_tags": "\"shop\"=>\"beauty\"" }, "geometry": { "type": "Point", "coordinates": [ -1.5998747, 53.7429451 ] } },
	{ "type": "Feature", "properties": { "osm_id": "9580750250", "name": "Top Nail Queen", "other_tags": "\"beauty\"=>\"nails\",\"shop\"=>\"beauty\"" }, "geometry": { "type": "Point", "coordinates": [ -1.6021426, 53.7464655 ] } },
	{ "type": "Feature", "properties": { "osm_id": "9590925148", "name": "Treatment Zone", "other_tags": "\"shop\"=>\"beauty\"" }, "geometry": { "type": "Point", "coordinates": [ -1.7076472, 53.8759846 ] } },
	{ "type": "Feature", "properties": { "osm_id": "10130434113", "name": "Nail Design", "other_tags": "\"beauty\"=>\"nails\",\"shop\"=>\"beauty\"" }, "geometry": { "type": "Point", "coordinates": [ -1.6004569, 53.7442821 ] } },
	{ "type": "Feature", "properties": { "osm_id": "10858781784", "name": "Tranquility", "other_tags": "\"addr:housenumber\"=>\"18\",\"addr:postcode\"=>\"LS18 4HD\",\"addr:street\"=>\"Fink Hill\",\"opening_hours\"=>\"Tu-We 09:30-15:00; Th 10:00-20:30; Fr 09:30-15:00; Sa 09:00-12:00\",\"shop\"=>\"beauty\",\"website\"=>\"https:\/\/www.tranquilityhorsforth.com\/\"" }, "geometry": { "type": "Point", "coordinates": [ -1.6447937, 53.83484 ] } },
	{ "type": "Feature", "properties": { "osm_way_id": "111707033", "name": "Revival Skin & Beauty", "building": "yes", "shop": "beauty", "other_tags": "\"addr:housenumber\"=>\"3\",\"addr:street\"=>\"Cross Flatts Avenue\"" }, "geometry": { "type": "Polygon", "coordinates": [ [ [ -1.5533328, 53.7684848 ], [ -1.5533725, 53.7685077 ], [ -1.5533343, 53.7685308 ], [ -1.5533442, 53.7685365 ], [ -1.5533462, 53.7685478 ], [ -1.5532299, 53.768618 ], [ -1.5531698, 53.7685819 ], [ -1.5532346, 53.7685424 ], [ -1.5533328, 53.7684848 ] ] ] } },
	{ "type": "Feature", "properties": { "osm_way_id": "199050394", "name": "Britney's Nails", "building": "yes", "shop": "beauty", "other_tags": "\"building:levels\"=>\"4\"" }, "geometry": { "type": "Polygon", "coordinates": [ [ [ -1.5363982, 53.7962747 ], [ -1.536488, 53.7963205 ], [ -1.5364862, 53.7963901 ], [ -1.5363912, 53.7963901 ], [ -1.5363982, 53.7962747 ] ] ] } },
	{ "type": "Feature", "properties": { "osm_way_id": "201604429", "name": "Nirvana", "building": "retail", "shop": "beauty", "other_tags": "\"addr:city\"=>\"Leeds\",\"addr:country\"=>\"GB\",\"addr:housenumber\"=>\"83\",\"addr:postcode\"=>\"LS6 3PS\",\"addr:street\"=>\"Otley Road\"" }, "geometry": { "type": "Polygon", "coordinates": [ [ [ -1.5795195, 53.8229142 ], [ -1.5794821, 53.8228794 ], [ -1.5795513, 53.8228535 ], [ -1.5795887, 53.8228882 ], [ -1.5795195, 53.8229142 ] ] ] } },
	{ "type": "Feature", "properties": { "osm_way_id": "201837055", "name": "Nail Tech", "building": "yes", "shop": "beauty", "other_tags": "\"addr:city\"=>\"Leeds\",\"addr:country\"=>\"GB\",\"addr:housenumber\"=>\"32\",\"addr:postcode\"=>\"LS6 2AD\",\"addr:street\"=>\"Otley Road\",\"beauty\"=>\"nails\",\"cuisine\"=>\"pizza\",\"disused\"=>\"fast_food\"" }, "geometry": { "type": "Polygon", "coordinates": [ [ [ -1.5774171, 53.8212911 ], [ -1.5775662, 53.8212367 ], [ -1.5776121, 53.8212804 ], [ -1.577463, 53.8213349 ], [ -1.5774171, 53.8212911 ] ] ] } },
	{ "type": "Feature", "properties": { "osm_way_id": "204188829", "name": "Chill", "building": "yes", "shop": "beauty" }, "geometry": { "type": "Polygon", "coordinates": [ [ [ -1.497825, 53.7300609 ], [ -1.4978313, 53.7299732 ], [ -1.4980483, 53.7299786 ], [ -1.498042, 53.7300663 ], [ -1.4979119, 53.7300631 ], [ -1.497825, 53.7300609 ] ] ] } },
	{ "type": "Feature", "properties": { "osm_way_id": "204469779", "name": "Sunrays", "building": "yes", "shop": "beauty" }, "geometry": { "type": "Polygon", "coordinates": [ [ [ -1.5623323, 53.789977 ], [ -1.562264, 53.7899818 ], [ -1.5622613, 53.7898979 ], [ -1.5623104, 53.7898995 ], [ -1.5623323, 53.789977 ] ] ] } },
	{ "type": "Feature", "properties": { "osm_way_id": "204558187", "name": "Charming Nails", "building": "retail", "shop": "beauty", "other_tags": "\"contact:facebook\"=>\"https:\/\/www.facebook.com\/people\/Charming-Nails\/100062796111457\/\"" }, "geometry": { "type": "Polygon", "coordinates": [ [ [ -1.5773102, 53.8207512 ], [ -1.5772814, 53.8207248 ], [ -1.5773895, 53.8206837 ], [ -1.5774184, 53.8207101 ], [ -1.5773102, 53.8207512 ] ] ] } },
	{ "type": "Feature", "properties": { "osm_way_id": "219481923", "name": "Glam Nails", "building": "yes", "shop": "beauty", "other_tags": "\"addr:city\"=>\"Moortown\",\"addr:housenumber\"=>\"404\",\"addr:postcode\"=>\"LS17 6PY\",\"addr:street\"=>\"Harrogate Road\",\"beauty\"=>\"nails\",\"building:levels\"=>\"3\",\"roof:shape\"=>\"flat\"" }, "geometry": { "type": "Polygon", "coordinates": [ [ [ -1.533497, 53.8439622 ], [ -1.5335034, 53.8440003 ], [ -1.5335073, 53.8440234 ], [ -1.5333632, 53.8440293 ], [ -1.5333528, 53.8439695 ], [ -1.533497, 53.8439622 ] ] ] } },
	{ "type": "Feature", "properties": { "osm_way_id": "305716095", "name": "Bliss", "building": "yes", "shop": "beauty" }, "geometry": { "type": "Polygon", "coordinates": [ [ [ -1.6038292, 53.8332587 ], [ -1.6037843, 53.8331881 ], [ -1.6039157, 53.8331881 ], [ -1.6039156, 53.8332585 ], [ -1.6038292, 53.8332587 ] ] ] } },
	{ "type": "Feature", "properties": { "osm_way_id": "337860718", "name": "Nails 4 U", "shop": "beauty" }, "geometry": { "type": "Polygon", "coordinates": [ [ [ -1.5416747, 53.79587 ], [ -1.5415928, 53.7958649 ], [ -1.5416204, 53.7957261 ], [ -1.5416983, 53.795732 ], [ -1.5416747, 53.79587 ] ] ] } },
	{ "type": "Feature", "properties": { "osm_way_id": "337860722", "name": "Russell Eaton", "shop": "beauty" }, "geometry": { "type": "Polygon", "coordinates": [ [ [ -1.5430143, 53.7959082 ], [ -1.5427478, 53.79592 ], [ -1.5427101, 53.7959141 ], [ -1.5426915, 53.7958963 ], [ -1.5426984, 53.7957595 ], [ -1.5429689, 53.7957606 ], [ -1.5429951, 53.795762 ], [ -1.5430143, 53.7959082 ] ] ] } },
	{ "type": "Feature", "properties": { "osm_way_id": "426119653", "name": "Dennis Williams Ltd", "building": "commercial", "shop": "beauty", "other_tags": "\"access\"=>\"customers\",\"addr:city\"=>\"Leeds\",\"addr:housename\"=>\"Sheepscar House\",\"addr:housenumber\"=>\"15\",\"addr:postcode\"=>\"LS7 1AD\",\"addr:street\"=>\"Sheepscar Street South\",\"addr:unit\"=>\"2\",\"website\"=>\"http:\/\/www.dennis-williams.co.uk\/\"" }, "geometry": { "type": "Polygon", "coordinates": [ [ [ -1.5336871, 53.8064792 ], [ -1.5338115, 53.8064491 ], [ -1.5339335, 53.8066315 ], [ -1.5339011, 53.806641 ], [ -1.5338009, 53.8066398 ], [ -1.5336871, 53.8064792 ] ] ] } },
	{ "type": "Feature", "properties": { "osm_way_id": "455727034", "name": "Gloss", "building": "yes", "shop": "beauty", "other_tags": "\"addr:housenumber\"=>\"29\"" }, "geometry": { "type": "Polygon", "coordinates": [ [ [ -1.5209833, 53.8462315 ], [ -1.520968, 53.8461806 ], [ -1.5209625, 53.8461621 ], [ -1.5210567, 53.8461526 ], [ -1.5212549, 53.8461316 ], [ -1.521274, 53.8462012 ], [ -1.5209833, 53.8462315 ] ] ] } },
	{ "type": "Feature", "properties": { "osm_way_id": "545810862", "name": "TK Nails & Beauty", "building": "commercial", "shop": "beauty" }, "geometry": { "type": "Polygon", "coordinates": [ [ [ -1.4768813, 53.7486171 ], [ -1.476787, 53.7486199 ], [ -1.4767775, 53.7485554 ], [ -1.4768351, 53.7485523 ], [ -1.4768767, 53.7485705 ], [ -1.4768813, 53.7486171 ] ] ] } },
	{ "type": "Feature", "properties": { "osm_way_id": "595580609", "name": "The Beauty House", "building": "yes", "shop": "beauty", "other_tags": "\"addr:city\"=>\"Wakefield\",\"addr:housenumber\"=>\"2\",\"addr:postcode\"=>\"WF3 1AA\",\"addr:street\"=>\"Haigh Moor Road\",\"addr:suburb\"=>\"Tingley\"" }, "geometry": { "type": "Polygon", "coordinates": [ [ [ -1.5674234, 53.7237321 ], [ -1.5674769, 53.7237702 ], [ -1.5674345, 53.7237911 ], [ -1.5674651, 53.7238129 ], [ -1.5673972, 53.7238464 ], [ -1.5673747, 53.7238303 ], [ -1.5673257, 53.7238544 ], [ -1.5672664, 53.7238123 ], [ -1.5673153, 53.7237882 ], [ -1.5672891, 53.7237695 ], [ -1.567357, 53.723736 ], [ -1.5673809, 53.723753 ], [ -1.5674234, 53.7237321 ] ] ] } },
	{ "type": "Feature", "properties": { "osm_way_id": "639133098", "name": "Hair City", "building": "yes", "shop": "beauty" }, "geometry": { "type": "Polygon", "coordinates": [ [ [ -1.5409424, 53.7965031 ], [ -1.5408941, 53.7965744 ], [ -1.540752, 53.7965371 ], [ -1.540811, 53.7964349 ], [ -1.5408512, 53.7964159 ], [ -1.5409762, 53.7964234 ], [ -1.5409424, 53.7965031 ] ] ] } },
	{ "type": "Feature", "properties": { "osm_way_id": "669159782", "name": "Beauty Essence", "building": "yes", "shop": "beauty", "other_tags": "\"addr:city\"=>\"Leeds\",\"addr:housenumber\"=>\"112\",\"addr:postcode\"=>\"LS12 4AD\",\"addr:street\"=>\"Dixon Lane\"" }, "geometry": { "type": "Polygon", "coordinates": [ [ [ -1.585793, 53.782621 ], [ -1.5859034, 53.7826502 ], [ -1.5858539, 53.7827156 ], [ -1.5857435, 53.7826864 ], [ -1.585793, 53.782621 ] ] ] } },
	{ "type": "Feature", "properties": { "osm_way_id": "927804830", "name": "Angela's Nails", "building": "retail", "shop": "beauty", "other_tags": "\"beauty\"=>\"nails\"" }, "geometry": { "type": "Polygon", "coordinates": [ [ [ -1.3884137, 53.7958009 ], [ -1.3884151, 53.7957585 ], [ -1.3885768, 53.7957603 ], [ -1.3885755, 53.7958027 ], [ -1.3884137, 53.7958009 ] ] ] } },
	{ "type": "Feature", "properties": { "osm_way_id": "934139861", "name": "Harriet James House Of Beauty", "building": "yes", "shop": "beauty", "other_tags": "\"addr:city\"=>\"Leeds\",\"addr:housenumber\"=>\"56\",\"addr:postcode\"=>\"LS26 9JE\",\"addr:street\"=>\"Main Street\",\"beauty\"=>\"nails;tanning;hair\"" }, "geometry": { "type": "Polygon", "coordinates": [ [ [ -1.3989739, 53.7397884 ], [ -1.3988917, 53.7398346 ], [ -1.3988667, 53.7398186 ], [ -1.3988278, 53.7398274 ], [ -1.3987857, 53.7397464 ], [ -1.3988862, 53.7397319 ], [ -1.3989739, 53.7397884 ] ] ] } },
	{ "type": "Feature", "properties": { "osm_way_id": "936518959", "name": "HenaH", "shop": "beauty", "other_tags": "\"indoor\"=>\"room\",\"level\"=>\"0;1\"" }, "geometry": { "type": "Polygon", "coordinates": [ [ [ -1.520968, 53.8461806 ], [ -1.5209625, 53.8461621 ], [ -1.5210567, 53.8461526 ], [ -1.5210627, 53.8461713 ], [ -1.520968, 53.8461806 ] ] ] } },
	{ "type": "Feature", "properties": { "osm_way_id": "937052837", "name": "The Tanning Shop", "building": "yes", "shop": "beauty", "other_tags": "\"addr:city\"=>\"Leeds\",\"addr:housename\"=>\"Kirkstall Bridge Shopping Park\",\"addr:postcode\"=>\"LS5 3BL\",\"addr:street\"=>\"Bridge Road\",\"addr:suburb\"=>\"Kirkstall\",\"addr:unit\"=>\"13A\",\"beauty\"=>\"tanning\",\"opening_hours\"=>\"Mo-Fr 10:00-21:00; Sa 09:00-19:00; Su 10:00-18:00\",\"phone\"=>\"+44 113 278 6879\",\"website\"=>\"https:\/\/thetanningshop.co.uk\/leeds_kirkstall_bridge\/\"" }, "geometry": { "type": "Polygon", "coordinates": [ [ [ -1.6044414, 53.8163102 ], [ -1.6043436, 53.8163078 ], [ -1.6043485, 53.8160754 ], [ -1.6044462, 53.8160778 ], [ -1.6044414, 53.8163102 ] ] ] } }
]
}
