{
"type": "FeatureCollection",
"crs": { "type": "name", "properties": { "name": "urn:ogc:def:crs:OGC:1.3:CRS84" } },
"features": [
	{ "type": "Feature", "properties": { "osm_id": "400962837", "name": "W. Kaye & Son Funeral Directors", "other_tags": "\"shop\"=>\"funeral_directors\",\"phone\"=>\"+44 113 705 553\",\"alt_name\"=>\"Lincoln Villa\"" }, "geometry": { "type": "Point", "coordinates": [ -1.5532601, 53.7783191 ] } },
	{ "type": "Feature", "properties": { "osm_id": "1162109998", "name": "The Co-operative Funeralcare", "other_tags": "\"shop\"=>\"funeral_directors\",\"brand\"=>\"The Co-operative Funeralcare\",\"phone\"=>\"+44 113 2586921\",\"website\"=>\"https:\/\/www.co-operativefuneralcare.co.uk\/our-homes\/the-co-operative-funeralcare-horsforth-104-new-road-side-leeds\",\"addr:city\"=>\"Horsforth\",\"addr:street\"=>\"New Road Side\",\"addr:postcode\"=>\"LS18 4QB\",\"opening_hours\"=>\"Mo-Fr 09:00-16:30;Sa-Su \\\"by appointment\\\"\",\"brand:wikidata\"=>\"Q7726521\",\"brand:wikipedia\"=>\"en:Co-op Funeralcare\",\"addr:housenumber\"=>\"104\"" }, "geometry": { "type": "Point", "coordinates": [ -1.6419106, 53.8322494 ] } },
	{ "type": "Feature", "properties": { "osm_id": "1407645498", "name": "Joseph Geldart & Son", "other_tags": "\"shop\"=>\"funeral_directors\"" }, "geometry": { "type": "Point", "coordinates": [ -1.6389239, 53.8319373 ] } },
	{ "type": "Feature", "properties": { "osm_id": "2353498845", "name": "Good's of Otley", "other_tags": "\"shop\"=>\"funeral_directors\",\"website\"=>\"www.belvoirlettings.com\",\"addr:city\"=>\"Otley\",\"telephone\"=>\"01943 851357\",\"is_in:town\"=>\"Otley\",\"addr:street\"=>\"Boroughgate\",\"description\"=>\"Letting Agents\"" }, "geometry": { "type": "Point", "coordinates": [ -1.6926967, 53.905803 ] } },
	{ "type": "Feature", "properties": { "osm_id": "3716946394", "name": "Co-op Funeral Care", "other_tags": "\"shop\"=>\"funeral_directors\",\"phone\"=>\"+44 113 250 3978\",\"addr:city\"=>\"Yeadon\",\"addr:street\"=>\"High Street\",\"addr:postcode\"=>\"LS19 7SP\",\"addr:housenumber\"=>\"75\"" }, "geometry": { "type": "Point", "coordinates": [ -1.6819096, 53.8663221 ] } },
	{ "type": "Feature", "properties": { "osm_id": "3718484580", "name": "Kettleys Funeral Home", "other_tags": "\"shop\"=>\"funeral_directors\",\"phone\"=>\"+44 113 250 3716\",\"website\"=>\"https:\/\/www.kettleysfuneralservice.co.uk\/\",\"addr:city\"=>\"Yeadon\",\"addr:street\"=>\"Ivegate\",\"addr:postcode\"=>\"LS19 7RE\",\"addr:housenumber\"=>\"35-39\"" }, "geometry": { "type": "Point", "coordinates": [ -1.6866238, 53.865251 ] } },
	{ "type": "Feature", "properties": { "osm_id": "3739391620", "other_tags": "\"shop\"=>\"funeral_directors\"" }, "geometry": { "type": "Point", "coordinates": [ -1.5349904, 53.8472711 ] } },
	{ "type": "Feature", "properties": { "osm_id": "5299870166", "name": "thomasons funeral service", "other_tags": "\"shop\"=>\"funeral_directors\"" }, "geometry": { "type": "Point", "coordinates": [ -1.4548545, 53.8080306 ] } },
	{ "type": "Feature", "properties": { "osm_id": "6702943764", "name": "The Co-operative Funeralcare", "other_tags": "\"shop\"=>\"funeral_directors\",\"brand\"=>\"The Co-operative Funeralcare\",\"brand:wikidata\"=>\"Q7726521\",\"brand:wikipedia\"=>\"en:Co-op Funeralcare\"" }, "geometry": { "type": "Point", "coordinates": [ -1.4493714, 53.7982276 ] } },
	{ "type": "Feature", "properties": { "osm_id": "7063672131", "name": "Hughes Funeral Services", "other_tags": "\"shop\"=>\"funeral_directors\"" }, "geometry": { "type": "Point", "coordinates": [ -1.4953387, 53.8208972 ] } },
	{ "type": "Feature", "properties": { "osm_id": "7141864956", "name": "Kaye's of Halton", "other_tags": "\"shop\"=>\"funeral_directors\"" }, "geometry": { "type": "Point", "coordinates": [ -1.4702712, 53.7960817 ] } },
	{ "type": "Feature", "properties": { "osm_id": "7869213668", "name": "Hughes Funeral Services", "other_tags": "\"shop\"=>\"funeral_directors\"" }, "geometry": { "type": "Point", "coordinates": [ -1.4523658, 53.8039874 ] } },
	{ "type": "Feature", "properties": { "osm_id": "8065478157", "name": "The Co-operative Funeralcare", "other_tags": "\"brand\"=>\"The Co-operative Funeralcare\",\"brand:wikidata\"=>\"Q7726521\",\"brand:wikipedia\"=>\"en:Co-op Funeralcare\",\"shop\"=>\"funeral_directors\"" }, "geometry": { "type": "Point", "coordinates": [ -1.5331036, 53.7486026 ] } }
]
}
