{
"type": "FeatureCollection",
"crs": { "type": "name", "properties": { "name": "urn:ogc:def:crs:OGC:1.3:CRS84" } },
"features": [
	{ "type": "Feature", "properties": { "osm_id": "333799006", "name": "Mulberry", "other_tags": "\"addr:city\"=>\"Leeds\",\"addr:housenumber\"=>\"2\",\"addr:postcode\"=>\"LS1 6BE\",\"addr:street\"=>\"Queen Victoria Street\",\"brand\"=>\"Mulberry\",\"brand:wikidata\"=>\"Q3866987\",\"brand:wikipedia\"=>\"en:Mulberry (company)\",\"old_name\"=>\"Karen Millen\",\"shop\"=>\"fashion_accessories\",\"wheelchair\"=>\"no\"" }, "geometry": { "type": "Point", "coordinates": [ -1.5419022, 53.7983256 ] } },
	{ "type": "Feature", "properties": { "osm_id": "3621975753", "name": "Mulberry", "other_tags": "\"addr:city\"=>\"Leeds\",\"addr:housenumber\"=>\"3-5\",\"addr:postcode\"=>\"LS1 6BW\",\"addr:street\"=>\"County Arcade\",\"brand\"=>\"Mulberry\",\"brand:wikidata\"=>\"Q3866987\",\"brand:wikipedia\"=>\"en:Mulberry (company)\",\"shop\"=>\"fashion_accessories\",\"website\"=>\"https:\/\/www.mulberry.com\/\"" }, "geometry": { "type": "Point", "coordinates": [ -1.5416574, 53.7983374 ] } },
	{ "type": "Feature", "properties": { "osm_id": "5941346435", "name": "Radley London", "other_tags": "\"addr:city\"=>\"Leeds\",\"addr:housenumber\"=>\"16-18\",\"addr:postcode\"=>\"LS1 6BN\",\"addr:street\"=>\"County Arcade\",\"brand\"=>\"Radley London\",\"brand:wikidata\"=>\"Q7281436\",\"brand:wikipedia\"=>\"en:Radley (company)\",\"shop\"=>\"fashion_accessories\",\"short_name\"=>\"Radley\",\"website\"=>\"https:\/\/www.radley.co.uk\/\"" }, "geometry": { "type": "Point", "coordinates": [ -1.5412447, 53.7984356 ] } },
	{ "type": "Feature", "properties": { "osm_id": "6022850212", "name": "Accessorize", "other_tags": "\"addr:city\"=>\"Leeds\",\"addr:housenumber\"=>\"30\",\"addr:postcode\"=>\"LS1 6EX\",\"addr:street\"=>\"Commercial Street\",\"brand\"=>\"Accessorize\",\"brand:wikidata\"=>\"Q65007482\",\"brand:wikipedia\"=>\"en:Monsoon Accessorize\",\"shop\"=>\"fashion_accessories\"" }, "geometry": { "type": "Point", "coordinates": [ -1.5444455, 53.7972825 ] } },
	{ "type": "Feature", "properties": { "osm_id": "6052531540", "name": "Accessorize", "other_tags": "\"brand\"=>\"Accessorize\",\"brand:wikidata\"=>\"Q65007482\",\"level\"=>\"0\",\"shop\"=>\"fashion_accessories\"" }, "geometry": { "type": "Point", "coordinates": [ -1.5745029, 53.7592574 ] } },
	{ "type": "Feature", "properties": { "osm_id": "6052531549", "name": "claire's", "other_tags": "\"brand\"=>\"claire's\",\"brand:wikidata\"=>\"Q2974996\",\"brand:wikipedia\"=>\"en:Claire's\",\"contact:website\"=>\"https:\/\/stores.claires.com\/gb-lds\/leeds\/478.html\",\"level\"=>\"0\",\"shop\"=>\"fashion_accessories\"" }, "geometry": { "type": "Point", "coordinates": [ -1.5746337, 53.7583387 ] } },
	{ "type": "Feature", "properties": { "osm_id": "8062785231", "name": "Claire's", "other_tags": "\"brand\"=>\"Claire's\",\"brand:wikidata\"=>\"Q2974996\",\"brand:wikipedia\"=>\"en:Claire's\",\"contact:website\"=>\"https:\/\/stores.claires.com\/gb-yor\/pudsey\/2312.html\",\"shop\"=>\"fashion_accessories\"" }, "geometry": { "type": "Point", "coordinates": [ -1.6713191, 53.8037131 ] } },
	{ "type": "Feature", "properties": { "osm_id": "8068235608", "name": "Claire's", "other_tags": "\"brand\"=>\"Claire's\",\"brand:wikidata\"=>\"Q2974996\",\"brand:wikipedia\"=>\"en:Claire's\",\"contact:website\"=>\"https:\/\/stores.claires.com\/gb-lds\/leeds\/2314.html\",\"shop\"=>\"fashion_accessories\"" }, "geometry": { "type": "Point", "coordinates": [ -1.6099848, 53.7355305 ] } }
]
}
