{
"type": "FeatureCollection",
"crs": { "type": "name", "properties": { "name": "urn:ogc:def:crs:OGC:1.3:CRS84" } },
"features": [
	{ "type": "Feature", "properties": { "osm_id": "302737809", "name": "Ice", "other_tags": "\"shop\"=>\"car_parts\"" }, "geometry": { "type": "Point", "coordinates": [ -1.6100772, 53.8047621 ] } },
	{ "type": "Feature", "properties": { "osm_id": "334884570", "name": "B&C Car Parts", "other_tags": "\"shop\"=>\"car_parts\"" }, "geometry": { "type": "Point", "coordinates": [ -1.5829099, 53.8065773 ] } },
	{ "type": "Feature", "properties": { "osm_id": "3620196192", "name": "Motor Parts", "other_tags": "\"shop\"=>\"car_parts\"" }, "geometry": { "type": "Point", "coordinates": [ -1.5439709, 53.8333562 ] } },
	{ "type": "Feature", "properties": { "osm_id": "3634785886", "other_tags": "\"shop\"=>\"car_parts\"" }, "geometry": { "type": "Point", "coordinates": [ -1.587003, 53.7621123 ] } },
	{ "type": "Feature", "properties": { "osm_id": "5306192753", "name": "Halfords", "other_tags": "\"shop\"=>\"car_parts\",\"brand\"=>\"Halfords\",\"brand:wikidata\"=>\"Q3398786\",\"brand:wikipedia\"=>\"en:Halfords\",\"service:bicycle:retail\"=>\"yes\"" }, "geometry": { "type": "Point", "coordinates": [ -1.7030391, 53.8686313 ] } },
	{ "type": "Feature", "properties": { "osm_id": "5407594213", "name": "Woodlesford Motor Spares", "other_tags": "\"shop\"=>\"car_parts\",\"addr:city\"=>\"Leeds\",\"addr:street\"=>\"Aberford Road\",\"addr:postcode\"=>\"LS26 8SN\",\"addr:housenumber\"=>\"110\"" }, "geometry": { "type": "Point", "coordinates": [ -1.4465341, 53.7525307 ] } },
	{ "type": "Feature", "properties": { "osm_id": "7126021310", "name": "Alba Tyres", "other_tags": "\"shop\"=>\"car_parts\"" }, "geometry": { "type": "Point", "coordinates": [ -1.6334066, 53.8457816 ] } }
]
}
