{
"type": "FeatureCollection",
"crs": { "type": "name", "properties": { "name": "urn:ogc:def:crs:OGC:1.3:CRS84" } },
"features": [
	{ "type": "Feature", "properties": { "osm_id": "357751910", "name": "The Card Room", "other_tags": "\"shop\"=>\"stationery\"" }, "geometry": { "type": "Point", "coordinates": [ -1.5522419, 53.8010249 ] } },
	{ "type": "Feature", "properties": { "osm_id": "2353468362", "name": "Mounseys Stationers", "other_tags": "\"shop\"=>\"stationery\",\"addr:city\"=>\"Otley\",\"is_in:town\"=>\"Otley\",\"addr:street\"=>\"Market Street\",\"addr:country\"=>\"GB\",\"addr:postcode\"=>\"LS21 3AF\",\"addr:housenumber\"=>\"1\"" }, "geometry": { "type": "Point", "coordinates": [ -1.6932546, 53.9053954 ] } },
	{ "type": "Feature", "properties": { "osm_id": "3771023685", "name": "Paperchase", "other_tags": "\"brand\"=>\"Paperchase\",\"brand:wikidata\"=>\"Q7132739\",\"brand:wikipedia\"=>\"en:Paperchase\",\"opening_hours:signed\"=>\"no\",\"shop\"=>\"stationery\"" }, "geometry": { "type": "Point", "coordinates": [ -1.5480997, 53.7956474 ] } },
	{ "type": "Feature", "properties": { "osm_id": "3887830118", "name": "Ideas Unlimited", "other_tags": "\"shop\"=>\"stationery\",\"phone\"=>\"+44 113 258 3339\",\"website\"=>\"https:\/\/www.facebook.com\/Ideashorsforth\",\"addr:city\"=>\"Leeds\",\"addr:street\"=>\"Town Street\",\"addr:suburb\"=>\"Horsforth\",\"addr:postcode\"=>\"LS18 5BP\",\"opening_hours\"=>\"Mo-Fr 09:30-17:30; Sa 09:30-17:00; Su Closed\",\"addr:housenumber\"=>\"85C\"" }, "geometry": { "type": "Point", "coordinates": [ -1.6394356, 53.8388411 ] } },
	{ "type": "Feature", "properties": { "osm_id": "3904772151", "name": "Card", "other_tags": "\"shop\"=>\"stationery\",\"phone\"=>\"+44 113 281 8433\",\"addr:city\"=>\"Horsforth\",\"addr:street\"=>\"New Road Side\",\"addr:postcode\"=>\"LS18 4QD\",\"addr:housenumber\"=>\"89\"" }, "geometry": { "type": "Point", "coordinates": [ -1.6414783, 53.8319717 ] } },
	{ "type": "Feature", "properties": { "osm_id": "4885695947", "name": "Ryman", "other_tags": "\"shop\"=>\"stationery\",\"brand\"=>\"Ryman\",\"brand:wikidata\"=>\"Q7385188\",\"brand:wikipedia\"=>\"en:Ryman\"" }, "geometry": { "type": "Point", "coordinates": [ -1.5442676, 53.8012188 ] } },
	{ "type": "Feature", "properties": { "osm_id": "6022850208", "name": "Paperchase", "other_tags": "\"shop\"=>\"stationery\",\"brand\"=>\"Paperchase\",\"addr:city\"=>\"Leeds\",\"addr:street\"=>\"Commercial Street\",\"addr:postcode\"=>\"LS1 6AL\",\"brand:wikidata\"=>\"Q7132739\",\"brand:wikipedia\"=>\"en:Paperchase\",\"addr:housenumber\"=>\"16-17\"" }, "geometry": { "type": "Point", "coordinates": [ -1.5443704, 53.7974603 ] } },
	{ "type": "Feature", "properties": { "osm_id": "6052531546", "name": "Smiggle", "other_tags": "\"brand\"=>\"Smiggle\",\"brand:wikidata\"=>\"Q7544536\",\"brand:wikipedia\"=>\"en:Smiggle\",\"level\"=>\"0\",\"shop\"=>\"stationery\"" }, "geometry": { "type": "Point", "coordinates": [ -1.5745495, 53.7586109 ] } },
	{ "type": "Feature", "properties": { "osm_id": "6052531553", "name": "Paperchase", "other_tags": "\"shop\"=>\"stationery\",\"brand\"=>\"Paperchase\",\"level\"=>\"0\",\"brand:wikidata\"=>\"Q7132739\",\"brand:wikipedia\"=>\"en:Paperchase\"" }, "geometry": { "type": "Point", "coordinates": [ -1.574395, 53.757993 ] } },
	{ "type": "Feature", "properties": { "osm_way_id": "201674125", "name": "AB4 Ltd", "building": "yes", "shop": "stationery", "other_tags": "\"addr:city\"=>\"Leeds\",\"addr:street\"=>\"Springwell Court\",\"addr:postcode\"=>\"LS12 1AL\",\"addr:housenumber\"=>\"5\"" }, "geometry": { "type": "Polygon", "coordinates": [ [ [ -1.5627865, 53.7910381 ], [ -1.5627423, 53.7910204 ], [ -1.562779, 53.7909884 ], [ -1.5628232, 53.7910061 ], [ -1.5628437, 53.7909882 ], [ -1.5631187, 53.7910984 ], [ -1.5629561, 53.7912399 ], [ -1.5626812, 53.7911297 ], [ -1.5627865, 53.7910381 ] ] ] } }
]
}
