{
"type": "FeatureCollection",
"crs": { "type": "name", "properties": { "name": "urn:ogc:def:crs:OGC:1.3:CRS84" } },
"features": [
	{ "type": "Feature", "properties": { "osm_id": "400962837", "name": "W. Kaye & Son Funeral Directors", "other_tags": "\"alt_name\"=>\"Lincoln Villa\",\"phone\"=>\"+44 113 705 553\",\"shop\"=>\"funeral_directors\"" }, "geometry": { "type": "Point", "coordinates": [ -1.5532601, 53.7783191 ] } },
	{ "type": "Feature", "properties": { "osm_id": "1162109998", "name": "The Co-operative Funeralcare", "other_tags": "\"addr:city\"=>\"Horsforth\",\"addr:housenumber\"=>\"104\",\"addr:postcode\"=>\"LS18 4QB\",\"addr:street\"=>\"New Road Side\",\"brand\"=>\"The Co-operative Funeralcare\",\"brand:wikidata\"=>\"Q7726521\",\"brand:wikipedia\"=>\"en:Co-op Funeralcare\",\"opening_hours\"=>\"Mo-Fr 09:00-16:30;Sa-Su \\\"by appointment\\\"\",\"phone\"=>\"+44 113 2586921\",\"shop\"=>\"funeral_directors\",\"website\"=>\"https:\/\/www.co-operativefuneralcare.co.uk\/our-homes\/the-co-operative-funeralcare-horsforth-104-new-road-side-leeds\"" }, "geometry": { "type": "Point", "coordinates": [ -1.6419106, 53.8322494 ] } },
	{ "type": "Feature", "properties": { "osm_id": "1407645498", "name": "Joseph Geldart & Son", "other_tags": "\"shop\"=>\"funeral_directors\"" }, "geometry": { "type": "Point", "coordinates": [ -1.6389239, 53.8319373 ] } },
	{ "type": "Feature", "properties": { "osm_id": "2353498845", "name": "Good's of Otley", "other_tags": "\"addr:city\"=>\"Otley\",\"addr:street\"=>\"Boroughgate\",\"description\"=>\"Letting Agents\",\"is_in:town\"=>\"Otley\",\"shop\"=>\"funeral_directors\",\"telephone\"=>\"01943 851357\",\"website\"=>\"www.belvoirlettings.com\"" }, "geometry": { "type": "Point", "coordinates": [ -1.6926967, 53.905803 ] } },
	{ "type": "Feature", "properties": { "osm_id": "3716946394", "name": "Co-op Funeral Care", "other_tags": "\"addr:city\"=>\"Yeadon\",\"addr:housenumber\"=>\"75\",\"addr:postcode\"=>\"LS19 7SP\",\"addr:street\"=>\"High Street\",\"phone\"=>\"+44 113 250 3978\",\"shop\"=>\"funeral_directors\"" }, "geometry": { "type": "Point", "coordinates": [ -1.6819096, 53.8663221 ] } },
	{ "type": "Feature", "properties": { "osm_id": "3718484580", "name": "Kettleys Funeral Home", "other_tags": "\"addr:city\"=>\"Yeadon\",\"addr:housenumber\"=>\"35-39\",\"addr:postcode\"=>\"LS19 7RE\",\"addr:street\"=>\"Ivegate\",\"phone\"=>\"+44 113 250 3716\",\"shop\"=>\"funeral_directors\",\"website\"=>\"https:\/\/www.kettleysfuneralservice.co.uk\/\"" }, "geometry": { "type": "Point", "coordinates": [ -1.6866238, 53.865251 ] } },
	{ "type": "Feature", "properties": { "osm_id": "3739391620", "other_tags": "\"shop\"=>\"funeral_directors\"" }, "geometry": { "type": "Point", "coordinates": [ -1.5349904, 53.8472711 ] } }
]
}
