{
"type": "FeatureCollection",
"crs": { "type": "name", "properties": { "name": "urn:ogc:def:crs:OGC:1.3:CRS84" } },
"features": [
	{ "type": "Feature", "properties": { "osm_id": "250220084", "name": "St Pauls Bookshop", "other_tags": "\"shop\"=>\"books\"" }, "geometry": { "type": "Point", "coordinates": [ -1.5475472, 53.8005109 ] } },
	{ "type": "Feature", "properties": { "osm_id": "252743612", "name": "St. Paul's Bookshop", "other_tags": "\"shop\"=>\"books\"" }, "geometry": { "type": "Point", "coordinates": [ -1.5704559, 53.8192137 ] } },
	{ "type": "Feature", "properties": { "osm_id": "334885902", "name": "The Bookshop", "other_tags": "\"shop\"=>\"books\"" }, "geometry": { "type": "Point", "coordinates": [ -1.6023376, 53.8155436 ] } },
	{ "type": "Feature", "properties": { "osm_id": "534354573", "other_tags": "\"shop\"=>\"books\",\"is_in:town\"=>\"Otley\"" }, "geometry": { "type": "Point", "coordinates": [ -1.6933173, 53.9048932 ] } },
	{ "type": "Feature", "properties": { "osm_id": "1725354133", "name": "Blackwell's", "other_tags": "\"shop\"=>\"books\",\"addr:street\"=>\"Blenheim Terrace\",\"addr:postcode\"=>\"LS2 9HJ\",\"addr:housenumber\"=>\"21\"" }, "geometry": { "type": "Point", "coordinates": [ -1.5511765, 53.8073773 ] } },
	{ "type": "Feature", "properties": { "osm_id": "2173904439", "name": "The Works", "other_tags": "\"brand\"=>\"The Works\",\"brand:wikidata\"=>\"Q7775853\",\"brand:wikipedia\"=>\"en:The Works (retailer)\",\"shop\"=>\"books\"" }, "geometry": { "type": "Point", "coordinates": [ -1.5410402, 53.7971414 ] } },
	{ "type": "Feature", "properties": { "osm_id": "2212678972", "name": "WHSmith", "other_tags": "\"addr:city\"=>\"Leeds\",\"addr:housenumber\"=>\"3-7\",\"addr:postcode\"=>\"LS1 6AW\",\"addr:street\"=>\"Lands Lane\",\"brand\"=>\"WHSmith\",\"brand:wikidata\"=>\"Q1548712\",\"brand:wikipedia\"=>\"en:WHSmith\",\"fhrs:id\"=>\"457948\",\"shop\"=>\"books\"" }, "geometry": { "type": "Point", "coordinates": [ -1.5439464, 53.7976807 ] } },
	{ "type": "Feature", "properties": { "osm_id": "2242805001", "name": "Browse Time", "other_tags": "\"addr:city\"=>\"Otley\",\"addr:housenumber\"=>\"3-5\",\"addr:postcode\"=>\"LS21 3AN\",\"addr:street\"=>\"Courthouse Street\",\"fhrs:id\"=>\"323009\",\"is_in:town\"=>\"Otley\",\"shop\"=>\"books\"" }, "geometry": { "type": "Point", "coordinates": [ -1.6938158, 53.9062383 ] } },
	{ "type": "Feature", "properties": { "osm_id": "2353486619", "name": "Just Books", "other_tags": "\"addr:city\"=>\"Otley\",\"addr:country\"=>\"GB\",\"addr:housenumber\"=>\"28\",\"addr:postcode\"=>\"LS21 3AQ\",\"addr:street\"=>\"Market Place\",\"shop\"=>\"books\"" }, "geometry": { "type": "Point", "coordinates": [ -1.6934879, 53.9055203 ] } },
	{ "type": "Feature", "properties": { "osm_id": "3817114480", "name": "The Works", "other_tags": "\"brand\"=>\"The Works\",\"brand:wikidata\"=>\"Q7775853\",\"brand:wikipedia\"=>\"en:The Works (retailer)\",\"shop\"=>\"books\"" }, "geometry": { "type": "Point", "coordinates": [ -1.5439837, 53.801049 ] } },
	{ "type": "Feature", "properties": { "osm_id": "4471291134", "name": "The Works", "other_tags": "\"brand\"=>\"The Works\",\"brand:wikidata\"=>\"Q7775853\",\"brand:wikipedia\"=>\"en:The Works (retailer)\",\"shop\"=>\"books\",\"wheelchair\"=>\"yes\"" }, "geometry": { "type": "Point", "coordinates": [ -1.4506675, 53.8062255 ] } }
]
}
