{
"type": "FeatureCollection",
"crs": { "type": "name", "properties": { "name": "urn:ogc:def:crs:OGC:1.3:CRS84" } },
"features": [
	{ "type": "Feature", "properties": { "osm_id": "274257501", "other_tags": "\"shop\"=>\"laundry\"" }, "geometry": { "type": "Point", "coordinates": [ -1.550829, 53.8125885 ] } },
	{ "type": "Feature", "properties": { "osm_id": "292238285", "other_tags": "\"shop\"=>\"laundry\"" }, "geometry": { "type": "Point", "coordinates": [ -1.5558368, 53.7671986 ] } },
	{ "type": "Feature", "properties": { "osm_id": "302043800", "name": "Washday Blues", "other_tags": "\"shop\"=>\"laundry\"" }, "geometry": { "type": "Point", "coordinates": [ -1.6205359, 53.796129 ] } },
	{ "type": "Feature", "properties": { "osm_id": "349352556", "name": "Stitches", "other_tags": "\"shop\"=>\"laundry\"" }, "geometry": { "type": "Point", "coordinates": [ -1.6369154, 53.806571 ] } },
	{ "type": "Feature", "properties": { "osm_id": "390942296", "name": "Posh Wash Launderette", "other_tags": "\"shop\"=>\"laundry\"" }, "geometry": { "type": "Point", "coordinates": [ -1.5513904, 53.7739699 ] } },
	{ "type": "Feature", "properties": { "osm_id": "2353566232", "name": "Top Dry Cleaner", "other_tags": "\"shop\"=>\"laundry\",\"addr:city\"=>\"Otley\",\"telephone\"=>\"01943 466166\",\"is_in:town\"=>\"Otley\"" }, "geometry": { "type": "Point", "coordinates": [ -1.6937908, 53.9039337 ] } },
	{ "type": "Feature", "properties": { "osm_id": "2353670238", "name": "Chevin View Laundry", "other_tags": "\"shop\"=>\"laundry\"" }, "geometry": { "type": "Point", "coordinates": [ -1.6896497, 53.902077 ] } },
	{ "type": "Feature", "properties": { "osm_id": "2402695805", "name": "West Park", "other_tags": "\"shop\"=>\"laundry\"" }, "geometry": { "type": "Point", "coordinates": [ -1.5937522, 53.8335379 ] } },
	{ "type": "Feature", "properties": { "osm_id": "3194894615", "name": "Lincoln Green Launderette", "other_tags": "\"addr:city\"=>\"Leeds\",\"addr:housenumber\"=>\"90\",\"addr:postcode\"=>\"LS9 7SU\",\"addr:street\"=>\"Lincoln Green Road\",\"shop\"=>\"laundry\"" }, "geometry": { "type": "Point", "coordinates": [ -1.5259771, 53.8023064 ] } },
	{ "type": "Feature", "properties": { "osm_id": "3620359806", "other_tags": "\"shop\"=>\"laundry\"" }, "geometry": { "type": "Point", "coordinates": [ -1.5667507, 53.8272807 ] } },
	{ "type": "Feature", "properties": { "osm_id": "3632290918", "name": "Gildersome Launderette", "other_tags": "\"addr:city\"=>\"Leeds\",\"addr:housenumber\"=>\"64\",\"addr:postcode\"=>\"LS27 7AA\",\"addr:street\"=>\"Town Street\",\"shop\"=>\"laundry\"" }, "geometry": { "type": "Point", "coordinates": [ -1.6279551, 53.7583182 ] } },
	{ "type": "Feature", "properties": { "osm_id": "3715212983", "name": "Bubbles", "other_tags": "\"addr:city\"=>\"Rawdon\",\"addr:housenumber\"=>\"1\",\"addr:postcode\"=>\"LS19 6LR\",\"addr:street\"=>\"Canada Road\",\"phone\"=>\"+44 113 250 2713\",\"shop\"=>\"laundry\"" }, "geometry": { "type": "Point", "coordinates": [ -1.6792821, 53.8572772 ] } },
	{ "type": "Feature", "properties": { "osm_id": "4189523455", "name": "Cleanerama", "other_tags": "\"shop\"=>\"laundry\"" }, "geometry": { "type": "Point", "coordinates": [ -1.4110545, 53.9076253 ] } }
]
}
