{
"type": "FeatureCollection",
"crs": { "type": "name", "properties": { "name": "urn:ogc:def:crs:OGC:1.3:CRS84" } },
"features": [
	{ "type": "Feature", "properties": { "osm_id": "250220084", "name": "St Pauls Bookshop", "other_tags": "\"shop\"=>\"books\"" }, "geometry": { "type": "Point", "coordinates": [ -1.5475472, 53.8005109 ] } },
	{ "type": "Feature", "properties": { "osm_id": "252743612", "name": "St. Paul's Bookshop", "other_tags": "\"shop\"=>\"books\"" }, "geometry": { "type": "Point", "coordinates": [ -1.5704559, 53.8192137 ] } },
	{ "type": "Feature", "properties": { "osm_id": "334885902", "name": "The Bookshop", "other_tags": "\"shop\"=>\"books\"" }, "geometry": { "type": "Point", "coordinates": [ -1.6023376, 53.8155436 ] } },
	{ "type": "Feature", "properties": { "osm_id": "534354573", "other_tags": "\"shop\"=>\"books\",\"is_in:town\"=>\"Otley\"" }, "geometry": { "type": "Point", "coordinates": [ -1.6933173, 53.9048932 ] } },
	{ "type": "Feature", "properties": { "osm_id": "1725354133", "name": "Blackwell's", "other_tags": "\"shop\"=>\"books\",\"addr:street\"=>\"Blenheim Terrace\",\"addr:postcode\"=>\"LS2 9HJ\",\"addr:housenumber\"=>\"21\"" }, "geometry": { "type": "Point", "coordinates": [ -1.5511765, 53.8073773 ] } },
	{ "type": "Feature", "properties": { "osm_id": "2173904439", "name": "The Works", "other_tags": "\"shop\"=>\"books\",\"brand\"=>\"The Works\",\"brand:wikidata\"=>\"Q7775853\",\"brand:wikipedia\"=>\"en:The Works (retailer)\"" }, "geometry": { "type": "Point", "coordinates": [ -1.5410402, 53.7971414 ] } },
	{ "type": "Feature", "properties": { "osm_id": "2212678972", "name": "WHSmith", "other_tags": "\"shop\"=>\"books\",\"brand\"=>\"WHSmith\",\"fhrs:id\"=>\"457948\",\"addr:city\"=>\"Leeds\",\"addr:street\"=>\"Lands Lane\",\"addr:postcode\"=>\"LS1 6AW\",\"brand:wikidata\"=>\"Q1548712\",\"brand:wikipedia\"=>\"en:WHSmith\",\"addr:housenumber\"=>\"3-7\"" }, "geometry": { "type": "Point", "coordinates": [ -1.5439464, 53.7976807 ] } },
	{ "type": "Feature", "properties": { "osm_id": "2353486619", "name": "Just Books", "other_tags": "\"shop\"=>\"books\",\"addr:city\"=>\"Otley\",\"addr:street\"=>\"Market Place\",\"addr:country\"=>\"GB\",\"addr:postcode\"=>\"LS21 3AQ\",\"addr:housenumber\"=>\"28\"" }, "geometry": { "type": "Point", "coordinates": [ -1.6934879, 53.9055203 ] } },
	{ "type": "Feature", "properties": { "osm_id": "3817114480", "name": "The Works", "other_tags": "\"shop\"=>\"books\",\"brand\"=>\"The Works\",\"brand:wikidata\"=>\"Q7775853\",\"brand:wikipedia\"=>\"en:The Works (retailer)\"" }, "geometry": { "type": "Point", "coordinates": [ -1.5439837, 53.801049 ] } },
	{ "type": "Feature", "properties": { "osm_id": "3874017905", "name": "The Works", "other_tags": "\"brand\"=>\"The Works\",\"brand:wikidata\"=>\"Q7775853\",\"brand:wikipedia\"=>\"en:The Works (retailer)\",\"shop\"=>\"books\"" }, "geometry": { "type": "Point", "coordinates": [ -1.6046369, 53.8162804 ] } },
	{ "type": "Feature", "properties": { "osm_id": "4471291134", "name": "The Works", "other_tags": "\"shop\"=>\"books\",\"brand\"=>\"The Works\",\"wheelchair\"=>\"yes\",\"brand:wikidata\"=>\"Q7775853\",\"brand:wikipedia\"=>\"en:The Works (retailer)\"" }, "geometry": { "type": "Point", "coordinates": [ -1.4506675, 53.8062255 ] } },
	{ "type": "Feature", "properties": { "osm_id": "4739710818", "name": "Otley Lions Bookshop", "other_tags": "\"shop\"=>\"books\",\"description\"=>\"Charity second-hand bookstore\"" }, "geometry": { "type": "Point", "coordinates": [ -1.6937501, 53.9043892 ] } },
	{ "type": "Feature", "properties": { "osm_id": "5135843346", "name": "Waterstones Leeds", "other_tags": "\"addr:city\"=>\"Leeds\",\"addr:housenumber\"=>\"93-97\",\"addr:postcode\"=>\"LS1 5JS\",\"addr:street\"=>\"Albion Street\",\"brand\"=>\"Waterstones\",\"brand:wikidata\"=>\"Q151779\",\"brand:wikipedia\"=>\"en:Waterstones\",\"opening_hours\"=>\"Mo-We 09:00-19:00; Th 09:00-20:00; Fr-Sa 09:00-19:00; Su 11:00-17:00\",\"operator\"=>\"Waterstones\",\"phone\"=>\"+44 113 244 4588\",\"shop\"=>\"books\",\"website\"=>\"https:\/\/www.waterstones.com\/bookshops\/leeds-93\"" }, "geometry": { "type": "Point", "coordinates": [ -1.5452502, 53.7989365 ] } },
	{ "type": "Feature", "properties": { "osm_id": "5311505831", "name": "Chevin Books", "other_tags": "\"shop\"=>\"books\"" }, "geometry": { "type": "Point", "coordinates": [ -1.693705, 53.9060961 ] } },
	{ "type": "Feature", "properties": { "osm_id": "5918780433", "name": "The Little Bookshop", "other_tags": "\"shop\"=>\"books\",\"fhrs:id\"=>\"1024522\",\"addr:city\"=>\"Leeds\",\"addr:street\"=>\"Harrogate Road\",\"addr:postcode\"=>\"LS7 3PD\",\"addr:housenumber\"=>\"47\"" }, "geometry": { "type": "Point", "coordinates": [ -1.5378573, 53.8284978 ] } },
	{ "type": "Feature", "properties": { "osm_id": "5941346470", "name": "OK Comics", "other_tags": "\"shop\"=>\"books\",\"addr:city\"=>\"Leeds\",\"addr:street\"=>\"Thornton's Arcade\",\"addr:postcode\"=>\"LS1 6LQ\",\"addr:housenumber\"=>\"19\"" }, "geometry": { "type": "Point", "coordinates": [ -1.5429714, 53.7986487 ] } },
	{ "type": "Feature", "properties": { "osm_id": "5941346472", "name": "Village", "other_tags": "\"shop\"=>\"books\",\"addr:city\"=>\"Leeds\",\"addr:street\"=>\"Thornton's Arcade\",\"addr:postcode\"=>\"LS1 6LQ\",\"addr:housenumber\"=>\"3\"" }, "geometry": { "type": "Point", "coordinates": [ -1.5424771, 53.7986009 ] } },
	{ "type": "Feature", "properties": { "osm_id": "6515446371", "name": "The Works", "other_tags": "\"addr:city\"=>\"Leeds\",\"addr:housename\"=>\"The Springs\",\"addr:housenumber\"=>\"Unit 10\",\"addr:postcode\"=>\"LS15 8GG\",\"addr:street\"=>\"Thorpe Park View\",\"addr:suburb\"=>\"Austhorpe\",\"brand\"=>\"The Works\",\"brand:wikidata\"=>\"Q7775853\",\"brand:wikipedia\"=>\"en:The Works (retailer)\",\"shop\"=>\"books\"" }, "geometry": { "type": "Point", "coordinates": [ -1.424959, 53.8002372 ] } }
]
}
