{
"type": "FeatureCollection",
"crs": { "type": "name", "properties": { "name": "urn:ogc:def:crs:OGC:1.3:CRS84" } },
"features": [
	{ "type": "Feature", "properties": { "osm_id": "1164240429", "name": "Fulton's Foods", "other_tags": "\"shop\"=>\"frozen_food\",\"brand\"=>\"Fulton's Foods\",\"fhrs:id\"=>\"322357\",\"addr:city\"=>\"Leeds\",\"addr:street\"=>\"Dib Lane\",\"addr:postcode\"=>\"LS8 3AY\",\"brand:wikidata\"=>\"Q6112633\",\"brand:wikipedia\"=>\"en:Fulton's Foods\",\"addr:housenumber\"=>\"112-112a\"" }, "geometry": { "type": "Point", "coordinates": [ -1.4870279, 53.8229972 ] } },
	{ "type": "Feature", "properties": { "osm_id": "3636152204", "name": "Iceland", "other_tags": "\"shop\"=>\"frozen_food\",\"brand\"=>\"Iceland\",\"fhrs:id\"=>\"467124\",\"addr:city\"=>\"Leeds\",\"addr:street\"=>\"Torre Lane\",\"addr:postcode\"=>\"LS9 6TN\",\"brand:wikidata\"=>\"Q721810\",\"brand:wikipedia\"=>\"en:Iceland (supermarket)\"" }, "geometry": { "type": "Point", "coordinates": [ -1.5059131, 53.8004688 ] } },
	{ "type": "Feature", "properties": { "osm_id": "3716946414", "name": "Fulton's Foods", "other_tags": "\"addr:city\"=>\"Yeadon\",\"addr:housenumber\"=>\"69\",\"addr:postcode\"=>\"LS19 7PS\",\"addr:street\"=>\"High Street\",\"brand\"=>\"Fulton's Foods\",\"brand:wikidata\"=>\"Q6112633\",\"brand:wikipedia\"=>\"en:Fulton's Foods\",\"phone\"=>\"+44 1132 397075\",\"shop\"=>\"frozen_food\",\"website\"=>\"http:\/\/www.fultonsfoods.co.uk\/\"" }, "geometry": { "type": "Point", "coordinates": [ -1.682369, 53.8662525 ] } },
	{ "type": "Feature", "properties": { "osm_id": "4654826636", "name": "Fulton's Foods", "other_tags": "\"shop\"=>\"frozen_food\",\"brand\"=>\"Fulton's Foods\",\"fhrs:id\"=>\"322422\",\"addr:city\"=>\"Leeds\",\"addr:street\"=>\"Jail Yard Parade\",\"addr:postcode\"=>\"LS26 0AF\",\"brand:wikidata\"=>\"Q6112633\",\"brand:wikipedia\"=>\"en:Fulton's Foods\",\"addr:housenumber\"=>\"9\"" }, "geometry": { "type": "Point", "coordinates": [ -1.4776155, 53.7488707 ] } },
	{ "type": "Feature", "properties": { "osm_id": "4717956983", "name": "Fulton's Foods", "other_tags": "\"addr:city\"=>\"Leeds\",\"addr:postcode\"=>\"LS27 8HA\",\"addr:street\"=>\"Market Square, Hope Street\",\"addr:unit\"=>\"10-11\",\"brand\"=>\"Fulton's Foods\",\"brand:wikidata\"=>\"Q6112633\",\"brand:wikipedia\"=>\"en:Fulton's Foods\",\"fhrs:id\"=>\"323232\",\"shop\"=>\"frozen_food\"" }, "geometry": { "type": "Point", "coordinates": [ -1.5995421, 53.7452919 ] } },
	{ "type": "Feature", "properties": { "osm_id": "4885695948", "name": "Iceland", "other_tags": "\"shop\"=>\"frozen_food\",\"brand\"=>\"Iceland\",\"fhrs:id\"=>\"1109154\",\"old_name\"=>\"Poundworld\",\"addr:city\"=>\"Leeds\",\"addr:street\"=>\"Merrion Centre\",\"addr:postcode\"=>\"LS2 8NG\",\"brand:wikidata\"=>\"Q721810\",\"brand:wikipedia\"=>\"en:Iceland (supermarket)\",\"addr:housenumber\"=>\"19-23\"" }, "geometry": { "type": "Point", "coordinates": [ -1.5443101, 53.8012948 ] } },
	{ "type": "Feature", "properties": { "osm_id": "5262528855", "name": "(jack) Fultons Deals", "other_tags": "\"shop\"=>\"frozen_food\",\"brand\"=>\"Fulton's Foods\",\"fhrs:id\"=>\"321029\",\"addr:city\"=>\"Leeds\",\"addr:street\"=>\"Seacroft Avenue\",\"addr:suburb\"=>\"Seacroft\",\"addr:postcode\"=>\"LS14 6JD\",\"brand:wikidata\"=>\"Q6112633\",\"brand:wikipedia\"=>\"en:Fulton's Foods\",\"addr:housenumber\"=>\"25\"" }, "geometry": { "type": "Point", "coordinates": [ -1.4603987, 53.8226502 ] } },
	{ "type": "Feature", "properties": { "osm_id": "5443307292", "name": "Fulton's Foods", "other_tags": "\"shop\"=>\"frozen_food\",\"brand\"=>\"Fulton's Foods\",\"fhrs:id\"=>\"321464\",\"addr:city\"=>\"Leeds\",\"addr:street\"=>\"Selby Road\",\"addr:suburb\"=>\"Osmondthorpe\",\"addr:postcode\"=>\"LS15 0LF\",\"brand:wikidata\"=>\"Q6112633\",\"brand:wikipedia\"=>\"en:Fulton's Foods\",\"addr:housenumber\"=>\"186-188\"" }, "geometry": { "type": "Point", "coordinates": [ -1.4695328, 53.7961 ] } },
	{ "type": "Feature", "properties": { "osm_id": "5462715935", "name": "Fulton's Foods", "other_tags": "\"shop\"=>\"frozen_food\",\"brand\"=>\"Fulton's Foods\",\"fhrs:id\"=>\"319808\",\"addr:city\"=>\"Leeds\",\"addr:street\"=>\"Harehills Lane\",\"addr:suburb\"=>\"Harehills\",\"addr:postcode\"=>\"LS9 6AX\",\"brand:wikidata\"=>\"Q6112633\",\"brand:wikipedia\"=>\"en:Fulton's Foods\",\"addr:housenumber\"=>\"347\"" }, "geometry": { "type": "Point", "coordinates": [ -1.5092374, 53.8093253 ] } },
	{ "type": "Feature", "properties": { "osm_id": "5468024762", "name": "B&M Express", "other_tags": "\"addr:city\"=>\"Stanningley\",\"addr:housenumber\"=>\"3\",\"addr:parentstreet\"=>\"Town Street\",\"addr:place\"=>\"Belgrave Retail Park\",\"addr:postcode\"=>\"LS28 6HQ\",\"brand\"=>\"B&M Express\",\"brand:wikidata\"=>\"Q99640578\",\"fhrs:id\"=>\"1225980\",\"old_name\"=>\"Heron Foods\",\"operator\"=>\"Heron Foods\",\"shop\"=>\"frozen_food\",\"source:addr\"=>\"FHRS Open Data\",\"website\"=>\"https:\/\/heronfoods.com\/storelocator\/store-details\/stanningley\"" }, "geometry": { "type": "Point", "coordinates": [ -1.6622293, 53.8062344 ] } },
	{ "type": "Feature", "properties": { "osm_id": "5494060731", "name": "Fulton's Foods", "other_tags": "\"shop\"=>\"frozen_food\",\"brand\"=>\"Fulton's Foods\",\"fhrs:id\"=>\"732836\",\"addr:city\"=>\"Leeds\",\"addr:unit\"=>\"2\",\"addr:street\"=>\"Main Street\",\"addr:suburb\"=>\"Garforth\",\"addr:postcode\"=>\"LS25 1AF\",\"brand:wikidata\"=>\"Q6112633\",\"brand:wikipedia\"=>\"en:Fulton's Foods\",\"addr:housenumber\"=>\"75\"" }, "geometry": { "type": "Point", "coordinates": [ -1.3885206, 53.7947116 ] } },
	{ "type": "Feature", "properties": { "osm_id": "5981573968", "name": "Eskimo Joe's", "other_tags": "\"shop\"=>\"frozen_food\"" }, "geometry": { "type": "Point", "coordinates": [ -1.5394559, 53.797028 ] } },
	{ "type": "Feature", "properties": { "osm_id": "6976925531", "name": "COOK", "other_tags": "\"shop\"=>\"frozen_food\",\"fhrs:id\"=>\"1075924\",\"website\"=>\"https:\/\/www.cookfood.net\/\",\"addr:city\"=>\"Leeds\",\"addr:unit\"=>\"2\",\"addr:street\"=>\"Harrogate Road\",\"addr:suburb\"=>\"Moortown\",\"addr:postcode\"=>\"LS17 6QD\",\"addr:housenumber\"=>\"331a\"" }, "geometry": { "type": "Point", "coordinates": [ -1.5340278, 53.8422011 ] } },
	{ "type": "Feature", "properties": { "osm_id": "7261626675", "name": "Fulton's Foods", "other_tags": "\"shop\"=>\"frozen_food\",\"brand\"=>\"Fulton's Foods\",\"fhrs:id\"=>\"320252\",\"building\"=>\"yes\",\"addr:street\"=>\"Town Street\",\"addr:postcode\"=>\"LS12 3AB\",\"brand:wikidata\"=>\"Q6112633\",\"brand:wikipedia\"=>\"en:Fulton's Foods\",\"addr:housenumber\"=>\"16-18\"" }, "geometry": { "type": "Point", "coordinates": [ -1.5892369, 53.7973982 ] } },
	{ "type": "Feature", "properties": { "osm_id": "7485465627", "name": "Fulton's Foods", "other_tags": "\"addr:city\"=>\"Leeds\",\"addr:housenumber\"=>\"264a\",\"addr:postcode\"=>\"LS8 5RL\",\"addr:street\"=>\"Roundhay Road\",\"brand\"=>\"Fulton's Foods\",\"brand:wikidata\"=>\"Q6112633\",\"brand:wikipedia\"=>\"en:Fulton's Foods\",\"fhrs:id\"=>\"1018254\",\"shop\"=>\"frozen_food\"" }, "geometry": { "type": "Point", "coordinates": [ -1.5162501, 53.8172553 ] } },
	{ "type": "Feature", "properties": { "osm_id": "8065478156", "name": "Iceland", "other_tags": "\"brand\"=>\"Iceland\",\"brand:wikidata\"=>\"Q721810\",\"brand:wikipedia\"=>\"en:Iceland (supermarket)\",\"shop\"=>\"frozen_food\"" }, "geometry": { "type": "Point", "coordinates": [ -1.5327822, 53.7486636 ] } }
]
}
