{
"type": "FeatureCollection",
"crs": { "type": "name", "properties": { "name": "urn:ogc:def:crs:OGC:1.3:CRS84" } },
"features": [
	{ "type": "Feature", "properties": { "osm_id": "268975100", "name": "Airedale DIY", "other_tags": "\"shop\"=>\"doityourself\"" }, "geometry": { "type": "Point", "coordinates": [ -1.6712623, 53.8780201 ] } },
	{ "type": "Feature", "properties": { "osm_id": "319428954", "name": "Raj's DIY & News", "other_tags": "\"shop\"=>\"doityourself\",\"fhrs:id\"=>\"466916\",\"addr:city\"=>\"Leeds\",\"addr:street\"=>\"Brudenell Grove\",\"addr:suburb\"=>\"Headingley\",\"addr:postcode\"=>\"LS6 1HR\",\"addr:housenumber\"=>\"51\"" }, "geometry": { "type": "Point", "coordinates": [ -1.5678167, 53.8116432 ] } },
	{ "type": "Feature", "properties": { "osm_id": "319428959", "name": "KH DIY Centre", "other_tags": "\"shop\"=>\"doityourself\"" }, "geometry": { "type": "Point", "coordinates": [ -1.5676621, 53.8120069 ] } },
	{ "type": "Feature", "properties": { "osm_id": "319429906", "name": "Marcher Roofing DIY & Hardwarre", "other_tags": "\"shop\"=>\"doityourself\"" }, "geometry": { "type": "Point", "coordinates": [ -1.5677026, 53.8127911 ] } },
	{ "type": "Feature", "properties": { "osm_id": "498472157", "name": "Tile Depot", "other_tags": "\"shop\"=>\"doityourself\"" }, "geometry": { "type": "Point", "coordinates": [ -1.578795, 53.772244 ] } },
	{ "type": "Feature", "properties": { "osm_id": "954908961", "name": "Magnet Trade", "other_tags": "\"shop\"=>\"doityourself\"" }, "geometry": { "type": "Point", "coordinates": [ -1.6230935, 53.7444815 ] } },
	{ "type": "Feature", "properties": { "osm_id": "1111901557", "name": "Hireworld", "other_tags": "\"shop\"=>\"doityourself\"" }, "geometry": { "type": "Point", "coordinates": [ -1.4352752, 53.7958528 ] } },
	{ "type": "Feature", "properties": { "osm_id": "2472720040", "name": "B&Q", "other_tags": "\"shop\"=>\"doityourself\",\"brand\"=>\"B&Q\",\"addr:city\"=>\"Leeds\",\"addr:street\"=>\"Killingbeck Drive\",\"addr:postcode\"=>\"LS14 6\",\"brand:wikidata\"=>\"Q707602\",\"brand:wikipedia\"=>\"en:B&Q\"" }, "geometry": { "type": "Point", "coordinates": [ -1.4788058, 53.8065937 ] } },
	{ "type": "Feature", "properties": { "osm_id": "3901161757", "name": "J&L Marshall", "other_tags": "\"shop\"=>\"doityourself\",\"phone\"=>\"+44 113 258 3463\",\"website\"=>\"http:\/\/www.jandlmarshall.com\/\",\"addr:city\"=>\"Horsforth\",\"addr:street\"=>\"New Road Side\",\"addr:postcode\"=>\"LS18 4DR\",\"opening_hours\"=>\"Mo-Fr 07:00-17:00; Sa 07:30-12:00; Su Closed\",\"addr:housename\"=>\"Victoria Works\"" }, "geometry": { "type": "Point", "coordinates": [ -1.6449194, 53.832199 ] } },
	{ "type": "Feature", "properties": { "osm_id": "4373244280", "other_tags": "\"shop\"=>\"doityourself\",\"operator\"=>\"Farsley DIY & Pet Supplies\",\"addr:city\"=>\"Farsley\",\"addr:street\"=>\"Town Street\",\"addr:postcode\"=>\"LS28 5HX\",\"addr:housenumber\"=>\"43\"" }, "geometry": { "type": "Point", "coordinates": [ -1.6714386, 53.8126516 ] } },
	{ "type": "Feature", "properties": { "osm_id": "4541774126", "name": "Screwfix", "other_tags": "\"shop\"=>\"doityourself\",\"brand\"=>\"Screwfix\",\"brand:wikidata\"=>\"Q7439115\",\"brand:wikipedia\"=>\"en:Screwfix\"" }, "geometry": { "type": "Point", "coordinates": [ -1.457334, 53.8272225 ] } },
	{ "type": "Feature", "properties": { "osm_id": "6528406356", "name": "Travis Perkins", "other_tags": "\"shop\"=>\"doityourself\",\"brand\"=>\"Travis Perkins\",\"brand:wikidata\"=>\"Q2450664\",\"brand:wikipedia\"=>\"en:Travis Perkins\"" }, "geometry": { "type": "Point", "coordinates": [ -1.4572496, 53.8269842 ] } },
	{ "type": "Feature", "properties": { "osm_id": "7126021309", "name": "Screwfix", "other_tags": "\"brand\"=>\"Screwfix\",\"brand:wikidata\"=>\"Q7439115\",\"brand:wikipedia\"=>\"en:Screwfix\",\"shop\"=>\"doityourself\"" }, "geometry": { "type": "Point", "coordinates": [ -1.6329989, 53.8457722 ] } }
]
}
