{
"type": "FeatureCollection",
"crs": { "type": "name", "properties": { "name": "urn:ogc:def:crs:OGC:1.3:CRS84" } },
"features": [
	{ "type": "Feature", "properties": { "osm_id": "333799043", "name": "MegaValue.com", "other_tags": "\"shop\"=>\"houseware\"" }, "geometry": { "type": "Point", "coordinates": [ -1.5435229, 53.7991374 ] } },
	{ "type": "Feature", "properties": { "osm_id": "4885695946", "name": "Yorkshire Linen Company", "other_tags": "\"shop\"=>\"houseware\"" }, "geometry": { "type": "Point", "coordinates": [ -1.5442251, 53.8011399 ] } },
	{ "type": "Feature", "properties": { "osm_id": "5407217965", "name": "Home Sense", "other_tags": "\"shop\"=>\"houseware\"" }, "geometry": { "type": "Point", "coordinates": [ -1.5423131, 53.7993709 ] } },
	{ "type": "Feature", "properties": { "osm_id": "5422663145", "name": "Home Bargains", "other_tags": "\"addr:city\"=>\"Leeds\",\"addr:housename\"=>\"The Merrion Centre\",\"addr:postcode\"=>\"LS2 8NG\",\"addr:unit\"=>\"66-70\",\"fhrs:id\"=>\"322391\",\"shop\"=>\"houseware\"" }, "geometry": { "type": "Point", "coordinates": [ -1.5442349, 53.8019213 ] } },
	{ "type": "Feature", "properties": { "osm_id": "5573895437", "name": "Wilko", "other_tags": "\"addr:city\"=>\"Leeds\",\"addr:housenumber\"=>\"34-38\",\"addr:postcode\"=>\"LS2 8LX\",\"addr:street\"=>\"Woodhouse Lane\",\"shop\"=>\"houseware\"" }, "geometry": { "type": "Point", "coordinates": [ -1.5449336, 53.801549 ] } },
	{ "type": "Feature", "properties": { "osm_id": null, "centroid": { "latitude": 53.751642, "longitude": -1.630738 }, "osm_way_id": "181175712", "building": "retail", "shop": "houseware", "other_tags": "\"addr:city\"=>\"Leeds\",\"addr:housename\"=>\"Overland Park\",\"addr:postcode\"=>\"LS27 7FE\",\"addr:street\"=>\"Gelderd Road\",\"addr:suburb\"=>\"Gildersome\",\"addr:unit\"=>\"14\",\"fhrs:id\"=>\"687556\"" }, "geometry": { "type": "Polygon", "coordinates": [ [ [ -1.631253, 53.7518864 ], [ -1.6303288, 53.7519485 ], [ -1.6302228, 53.7513975 ], [ -1.631147, 53.7513354 ], [ -1.631253, 53.7518864 ] ] ] } }
]
}
