{
"type": "FeatureCollection",
"crs": { "type": "name", "properties": { "name": "urn:ogc:def:crs:OGC:1.3:CRS84" } },
"features": [
	{ "type": "Feature", "properties": { "osm_id": "333799006", "name": "Mulberry", "other_tags": "\"shop\"=>\"fashion_accessories\",\"brand\"=>\"Mulberry\",\"old_name\"=>\"Karen Millen\",\"addr:city\"=>\"Leeds\",\"wheelchair\"=>\"no\",\"addr:street\"=>\"Queen Victoria Street\",\"addr:postcode\"=>\"LS1 6BE\",\"brand:wikidata\"=>\"Q3866987\",\"brand:wikipedia\"=>\"en:Mulberry (company)\",\"addr:housenumber\"=>\"2\"" }, "geometry": { "type": "Point", "coordinates": [ -1.5419022, 53.7983256 ] } },
	{ "type": "Feature", "properties": { "osm_id": "3621975753", "name": "Mulberry", "other_tags": "\"shop\"=>\"fashion_accessories\",\"brand\"=>\"Mulberry\",\"website\"=>\"https:\/\/www.mulberry.com\/\",\"addr:city\"=>\"Leeds\",\"addr:street\"=>\"County Arcade\",\"addr:postcode\"=>\"LS1 6BW\",\"brand:wikidata\"=>\"Q3866987\",\"brand:wikipedia\"=>\"en:Mulberry (company)\",\"addr:housenumber\"=>\"3-5\"" }, "geometry": { "type": "Point", "coordinates": [ -1.5416574, 53.7983374 ] } },
	{ "type": "Feature", "properties": { "osm_id": "5941346435", "name": "Radley London", "other_tags": "\"shop\"=>\"fashion_accessories\",\"brand\"=>\"Radley London\",\"website\"=>\"https:\/\/www.radley.co.uk\/\",\"addr:city\"=>\"Leeds\",\"short_name\"=>\"Radley\",\"addr:street\"=>\"County Arcade\",\"addr:postcode\"=>\"LS1 6BN\",\"brand:wikidata\"=>\"Q7281436\",\"addr:housenumber\"=>\"16-18\"" }, "geometry": { "type": "Point", "coordinates": [ -1.5412447, 53.7984356 ] } },
	{ "type": "Feature", "properties": { "osm_id": "6052531549", "name": "Claire's", "other_tags": "\"shop\"=>\"fashion_accessories\",\"brand\"=>\"Claire's\",\"level\"=>\"0\",\"brand:wikidata\"=>\"Q2974996\",\"brand:wikipedia\"=>\"en:Claire's\"" }, "geometry": { "type": "Point", "coordinates": [ -1.5746337, 53.7583387 ] } },
	{ "type": "Feature", "properties": { "osm_id": "8062785231", "name": "Claire's", "other_tags": "\"brand\"=>\"Claire's\",\"brand:wikidata\"=>\"Q2974996\",\"brand:wikipedia\"=>\"en:Claire's\",\"shop\"=>\"fashion_accessories\"" }, "geometry": { "type": "Point", "coordinates": [ -1.6713191, 53.8037131 ] } }
]
}
