{
"type": "FeatureCollection",
"crs": { "type": "name", "properties": { "name": "urn:ogc:def:crs:OGC:1.3:CRS84" } },
"features": [
	{ "type": "Feature", "properties": { "osm_id": "320998140", "name": "CC Hair and Beauty", "other_tags": "\"addr:city\"=>\"Leeds\",\"addr:housenumber\"=>\"1-5\",\"addr:postcode\"=>\"LS2 7DT\",\"addr:street\"=>\"New York Street\",\"fhrs:id\"=>\"1251318\",\"shop\"=>\"cosmetics\"" }, "geometry": { "type": "Point", "coordinates": [ -1.5392695, 53.796631 ] } },
	{ "type": "Feature", "properties": { "osm_id": "333467298", "name": "The Body Shop", "other_tags": "\"addr:city\"=>\"Leeds\",\"addr:housenumber\"=>\"64\",\"addr:postcode\"=>\"LS1 6LH\",\"addr:street\"=>\"Briggate\",\"brand\"=>\"The Body Shop\",\"brand:wikidata\"=>\"Q837851\",\"brand:wikipedia\"=>\"en:The Body Shop\",\"shop\"=>\"cosmetics\"" }, "geometry": { "type": "Point", "coordinates": [ -1.5424439, 53.7978903 ] } },
	{ "type": "Feature", "properties": { "osm_id": "3621975754", "name": "L'Occitane", "other_tags": "\"addr:city\"=>\"Leeds\",\"addr:housenumber\"=>\"1\",\"addr:postcode\"=>\"LS1 6BW\",\"addr:street\"=>\"County Arcade\",\"brand\"=>\"L'Occitane\",\"brand:wikidata\"=>\"Q1880676\",\"brand:wikipedia\"=>\"en:L'Occitane en Provence\",\"shop\"=>\"cosmetics\",\"website\"=>\"https:\/\/www.loccitane.com\/\"" }, "geometry": { "type": "Point", "coordinates": [ -1.541888, 53.7983833 ] } },
	{ "type": "Feature", "properties": { "osm_id": "4237364590", "name": "Lush", "other_tags": "\"addr:city\"=>\"Leeds\",\"addr:housenumber\"=>\"12-13\",\"addr:postcode\"=>\"LS1 6AL\",\"addr:street\"=>\"Commercial Street\",\"brand\"=>\"Lush\",\"brand:wikidata\"=>\"Q1585448\",\"brand:wikipedia\"=>\"en:Lush (company)\",\"shop\"=>\"cosmetics\"" }, "geometry": { "type": "Point", "coordinates": [ -1.5439706, 53.7974965 ] } },
	{ "type": "Feature", "properties": { "osm_id": "4489200798", "name": "Scentiments", "other_tags": "\"shop\"=>\"cosmetics\"" }, "geometry": { "type": "Point", "coordinates": [ -1.4504143, 53.8064394 ] } },
	{ "type": "Feature", "properties": { "osm_id": "5648164603", "name": "Bodycare", "other_tags": "\"shop\"=>\"cosmetics\",\"level\"=>\"0\",\"addr:city\"=>\"Leeds\",\"addr:street\"=>\"Albion Street\",\"addr:postcode\"=>\"LS2 8LQ\",\"addr:housename\"=>\"St Johns Centre\",\"addr:housenumber\"=>\"110-118\"" }, "geometry": { "type": "Point", "coordinates": [ -1.5437581, 53.8002445 ] } },
	{ "type": "Feature", "properties": { "osm_id": "5941346421", "name": "Space NK", "other_tags": "\"shop\"=>\"cosmetics\",\"addr:city\"=>\"Leeds\",\"addr:street\"=>\"Queen Victoria Street\",\"addr:postcode\"=>\"LS1 6BA\",\"addr:housenumber\"=>\"16-18\"" }, "geometry": { "type": "Point", "coordinates": [ -1.5413075, 53.7982583 ] } },
	{ "type": "Feature", "properties": { "osm_id": "5981573967", "name": "Maya's Hair & Cosmetics", "other_tags": "\"shop\"=>\"cosmetics\"" }, "geometry": { "type": "Point", "coordinates": [ -1.5393339, 53.7974424 ] } },
	{ "type": "Feature", "properties": { "osm_id": "6022850186", "name": "Sally", "other_tags": "\"shop\"=>\"cosmetics\",\"addr:city\"=>\"Leeds\",\"addr:street\"=>\"Albion Street\",\"addr:postcode\"=>\"LS1 5AA\",\"addr:housenumber\"=>\"77\"" }, "geometry": { "type": "Point", "coordinates": [ -1.5452823, 53.7983467 ] } },
	{ "type": "Feature", "properties": { "osm_id": "6022850275", "name": "The Look", "other_tags": "\"shop\"=>\"cosmetics\"" }, "geometry": { "type": "Point", "coordinates": [ -1.5387518, 53.7972548 ] } },
	{ "type": "Feature", "properties": { "osm_id": "6025306259", "name": "Savers Health And Beauty", "other_tags": "\"shop\"=>\"cosmetics\",\"fhrs:id\"=>\"467315\",\"addr:city\"=>\"Leeds\",\"addr:street\"=>\"Queen Street\",\"addr:suburb\"=>\"Morley\",\"addr:postcode\"=>\"LS27 8DW\"" }, "geometry": { "type": "Point", "coordinates": [ -1.6010883, 53.7454735 ] } },
	{ "type": "Feature", "properties": { "osm_id": "6052531556", "name": "The Body Shop", "other_tags": "\"brand\"=>\"The Body Shop\",\"brand:wikidata\"=>\"Q837851\",\"brand:wikipedia\"=>\"en:The Body Shop\",\"level\"=>\"0\",\"shop\"=>\"cosmetics\"" }, "geometry": { "type": "Point", "coordinates": [ -1.5744209, 53.7576793 ] } },
	{ "type": "Feature", "properties": { "osm_id": "6052531573", "name": "Lush", "other_tags": "\"brand\"=>\"Lush\",\"brand:wikidata\"=>\"Q1585448\",\"brand:wikipedia\"=>\"en:Lush (company)\",\"level\"=>\"0\",\"shop\"=>\"cosmetics\"" }, "geometry": { "type": "Point", "coordinates": [ -1.5739256, 53.7581405 ] } },
	{ "type": "Feature", "properties": { "osm_id": "6436610922", "name": "Body Shop", "other_tags": "\"addr:city\"=>\"Leeds\",\"addr:housenumber\"=>\"Unit 12a\",\"addr:postcode\"=>\"LS1 6LH\",\"addr:street\"=>\"Leeds City Station\",\"layer\"=>\"1\",\"opening_hours\"=>\"Mo-Fr 07:00-19:30; Sa 08:00-19:30; Su 10:30-17:30\",\"operator\"=>\"The Body Shop International Limited\",\"phone\"=>\"+44 113 243 2926\",\"shop\"=>\"cosmetics\"" }, "geometry": { "type": "Point", "coordinates": [ -1.5472845, 53.7948464 ] } }
]
}
