{
"type": "FeatureCollection",
"crs": { "type": "name", "properties": { "name": "urn:ogc:def:crs:OGC:1.3:CRS84" } },
"features": [
	{ "type": "Feature", "properties": { "osm_id": "330089354", "name": "Cash Converters", "other_tags": "\"shop\"=>\"pawnbroker\"" }, "geometry": { "type": "Point", "coordinates": [ -1.5888196, 53.7974026 ] } },
	{ "type": "Feature", "properties": { "osm_id": "2091013188", "name": "Herbert Brown", "other_tags": "\"shop\"=>\"pawnbroker\"" }, "geometry": { "type": "Point", "coordinates": [ -1.5405257, 53.7971311 ] } },
	{ "type": "Feature", "properties": { "osm_id": "2128107740", "name": "Herbert Brown", "other_tags": "\"addr:city\"=>\"Leeds\",\"addr:housenumber\"=>\"29-33\",\"addr:postcode\"=>\"LS1 6PU\",\"addr:street\"=>\"The Headrow\",\"shop\"=>\"pawnbroker\"" }, "geometry": { "type": "Point", "coordinates": [ -1.5414082, 53.7989065 ] } },
	{ "type": "Feature", "properties": { "osm_id": "3194894611", "name": "Cash Converters", "other_tags": "\"shop\"=>\"pawnbroker\"" }, "geometry": { "type": "Point", "coordinates": [ -1.5261661, 53.8020197 ] } },
	{ "type": "Feature", "properties": { "osm_id": "4489200794", "name": "Cash Generator (Cheque Centre)", "other_tags": "\"shop\"=>\"pawnbroker\"" }, "geometry": { "type": "Point", "coordinates": [ -1.4504103, 53.8067031 ] } },
	{ "type": "Feature", "properties": { "osm_id": "5407217971", "name": "Cash Convertors", "other_tags": "\"shop\"=>\"pawnbroker\"" }, "geometry": { "type": "Point", "coordinates": [ -1.5406883, 53.7970156 ] } },
	{ "type": "Feature", "properties": { "osm_id": "5527199859", "name": "Cash Planet", "other_tags": "\"shop\"=>\"pawnbroker\"" }, "geometry": { "type": "Point", "coordinates": [ -1.5832533, 53.806687 ] } },
	{ "type": "Feature", "properties": { "osm_id": "6022850242", "name": "Ramsdens", "other_tags": "\"shop\"=>\"pawnbroker\"" }, "geometry": { "type": "Point", "coordinates": [ -1.5412885, 53.7972243 ] } },
	{ "type": "Feature", "properties": { "osm_id": null, "centroid": { "latitude": 53.796662, "longitude": -1.540802 }, "osm_way_id": "639133096", "name": "H & T Pawnbrokers", "building": "yes", "shop": "pawnbroker" }, "geometry": { "type": "Polygon", "coordinates": [ [ [ -1.5408593, 53.7966504 ], [ -1.5409183, 53.7966631 ], [ -1.5408895, 53.7967094 ], [ -1.5406854, 53.7966648 ], [ -1.5407144, 53.7966155 ], [ -1.5408593, 53.7966504 ] ] ] } }
]
}
