{
"type": "FeatureCollection",
"crs": { "type": "name", "properties": { "name": "urn:ogc:def:crs:OGC:1.3:CRS84" } },
"features": [
	{ "type": "Feature", "properties": { "osm_id": "313182994", "name": "Downtown Electricals", "other_tags": "\"shop\"=>\"electronics\",\"old_name\"=>\"The Rose & Crown\"" }, "geometry": { "type": "Point", "coordinates": [ -1.584491, 53.798901 ] } },
	{ "type": "Feature", "properties": { "osm_id": "313246929", "name": "SS Electrical Superstore", "other_tags": "\"shop\"=>\"electronics\"" }, "geometry": { "type": "Point", "coordinates": [ -1.5893778, 53.7981476 ] } },
	{ "type": "Feature", "properties": { "osm_id": "313246932", "name": "Electrocare", "other_tags": "\"shop\"=>\"electronics\"" }, "geometry": { "type": "Point", "coordinates": [ -1.5902898, 53.7987791 ] } },
	{ "type": "Feature", "properties": { "osm_id": "333799024", "name": "Samsung", "other_tags": "\"addr:city\"=>\"Leeds\",\"addr:housenumber\"=>\"89-91\",\"addr:postcode\"=>\"LS1 6NP\",\"addr:street\"=>\"Briggate\",\"brand\"=>\"Samsung\",\"brand:wikidata\"=>\"Q20718\",\"brand:wikipedia\"=>\"en:Samsung Electronics\",\"shop\"=>\"electronics\"" }, "geometry": { "type": "Point", "coordinates": [ -1.541806, 53.7989164 ] } },
	{ "type": "Feature", "properties": { "osm_id": "333799052", "name": "Currys PC World", "other_tags": "\"brand\"=>\"Currys PC World\",\"brand:wikidata\"=>\"Q3246464\",\"brand:wikipedia\"=>\"en:Currys\",\"shop\"=>\"electronics\"" }, "geometry": { "type": "Point", "coordinates": [ -1.5447208, 53.7992369 ] } },
	{ "type": "Feature", "properties": { "osm_id": "367872373", "name": "Argos", "other_tags": "\"addr:city\"=>\"Otley\",\"addr:country\"=>\"GB\",\"shop\"=>\"electronics\",\"website\"=>\"https:\/\/www.argos.co.uk\/\"" }, "geometry": { "type": "Point", "coordinates": [ -1.6922214, 53.9027496 ] } },
	{ "type": "Feature", "properties": { "osm_id": "2129684012", "name": "CeX", "other_tags": "\"addr:housenumber\"=>\"28\",\"addr:street\"=>\"The Headrow\",\"brand\"=>\"CeX\",\"brand:wikidata\"=>\"Q5055676\",\"brand:wikipedia\"=>\"en:CeX (company)\",\"internet_access\"=>\"wlan\",\"payment:bitcoin\"=>\"yes\",\"phone\"=>\"+44 845 345 1664\",\"shop\"=>\"electronics\"" }, "geometry": { "type": "Point", "coordinates": [ -1.5443754, 53.7995573 ] } },
	{ "type": "Feature", "properties": { "osm_id": "2138696603", "name": "Sony Centre", "other_tags": "\"brand\"=>\"Sony Centre\",\"brand:wikidata\"=>\"Q3437496\",\"brand:wikipedia\"=>\"en:Sony Centre\",\"shop\"=>\"electronics\"" }, "geometry": { "type": "Point", "coordinates": [ -1.5399939, 53.7993646 ] } },
	{ "type": "Feature", "properties": { "osm_id": "2157985619", "name": "Saville Audio Visual", "other_tags": "\"addr:postcode\"=>\"LS10 1JD\",\"addr:street\"=>\"Scala Court\",\"industrial\"=>\"warehouse\",\"shop\"=>\"electronics\"" }, "geometry": { "type": "Point", "coordinates": [ -1.5381959, 53.7877954 ] } },
	{ "type": "Feature", "properties": { "osm_id": "2212678970", "name": "Apple Store", "other_tags": "\"brand\"=>\"Apple Store\",\"brand:wikidata\"=>\"Q421253\",\"brand:wikipedia\"=>\"en:Apple Store\",\"shop\"=>\"electronics\",\"short_name\"=>\"Apple\"" }, "geometry": { "type": "Point", "coordinates": [ -1.5438952, 53.7966351 ] } },
	{ "type": "Feature", "properties": { "osm_id": "2212678975", "name": "iPatch", "other_tags": "\"shop\"=>\"electronics\"" }, "geometry": { "type": "Point", "coordinates": [ -1.5461483, 53.7965336 ] } },
	{ "type": "Feature", "properties": { "osm_id": "2400790056", "name": "Audio Republic", "other_tags": "\"shop\"=>\"electronics\"" }, "geometry": { "type": "Point", "coordinates": [ -1.5821077, 53.8269911 ] } },
	{ "type": "Feature", "properties": { "osm_id": "2408752506", "name": "Taybell", "other_tags": "\"shop\"=>\"electronics\"" }, "geometry": { "type": "Point", "coordinates": [ -1.5662901, 53.8285969 ] } },
	{ "type": "Feature", "properties": { "osm_id": "3222614870", "name": "Apple Corner", "other_tags": "\"shop\"=>\"electronics\"" }, "geometry": { "type": "Point", "coordinates": [ -1.5610823, 53.8145088 ] } },
	{ "type": "Feature", "properties": { "osm_id": "3801400064", "name": "Repair Lab", "other_tags": "\"shop\"=>\"electronics\",\"craft\"=>\"electronics_repair\"" }, "geometry": { "type": "Point", "coordinates": [ -1.6022609, 53.8154878 ] } },
	{ "type": "Feature", "properties": { "osm_id": "4475968862", "name": "EHS", "other_tags": "\"shop\"=>\"electronics\"" }, "geometry": { "type": "Point", "coordinates": [ -1.4490809, 53.8071494 ] } },
	{ "type": "Feature", "properties": { "osm_id": "4632341179", "name": "Bright Ideas", "other_tags": "\"shop\"=>\"electronics\"" }, "geometry": { "type": "Point", "coordinates": [ -1.3845435, 53.9305963 ] } }
]
}
