{
"type": "FeatureCollection",
"crs": { "type": "name", "properties": { "name": "urn:ogc:def:crs:OGC:1.3:CRS84" } },
"features": [
	{ "type": "Feature", "properties": { "osm_id": "52361151", "name": "Paddy Power", "other_tags": "\"addr:city\"=>\"Leeds\",\"addr:housenumber\"=>\"13\",\"addr:postcode\"=>\"LS1 6PU\",\"addr:street\"=>\"The Headrow\",\"brand\"=>\"Paddy Power\",\"brand:wikidata\"=>\"Q3888718\",\"brand:wikipedia\"=>\"en:Paddy Power\",\"shop\"=>\"bookmaker\"" }, "geometry": { "type": "Point", "coordinates": [ -1.5406996, 53.798823 ] } },
	{ "type": "Feature", "properties": { "osm_id": "301022531", "name": "William Hill", "other_tags": "\"brand\"=>\"William Hill\",\"brand:wikidata\"=>\"Q4053147\",\"brand:wikipedia\"=>\"en:William Hill (bookmaker)\",\"shop\"=>\"bookmaker\"" }, "geometry": { "type": "Point", "coordinates": [ -1.5830101, 53.8066093 ] } },
	{ "type": "Feature", "properties": { "osm_id": "330089303", "name": "Betfred", "other_tags": "\"brand\"=>\"Betfred\",\"brand:wikidata\"=>\"Q4897425\",\"brand:wikipedia\"=>\"en:Betfred\",\"shop\"=>\"bookmaker\"" }, "geometry": { "type": "Point", "coordinates": [ -1.5908235, 53.7969865 ] } },
	{ "type": "Feature", "properties": { "osm_id": "330089350", "name": "Coral", "other_tags": "\"brand\"=>\"Coral\",\"brand:wikidata\"=>\"Q54621344\",\"brand:wikipedia\"=>\"en:Coral (bookmaker)\",\"shop\"=>\"bookmaker\"" }, "geometry": { "type": "Point", "coordinates": [ -1.5894236, 53.7970912 ] } },
	{ "type": "Feature", "properties": { "osm_id": "340071332", "name": "Simon Hurd Bookmakers", "other_tags": "\"shop\"=>\"bookmaker\"" }, "geometry": { "type": "Point", "coordinates": [ -1.6323896, 53.8139969 ] } },
	{ "type": "Feature", "properties": { "osm_id": "349349900", "name": "Taylor's Bookmakers", "other_tags": "\"shop\"=>\"bookmaker\"" }, "geometry": { "type": "Point", "coordinates": [ -1.6502162, 53.8101507 ] } },
	{ "type": "Feature", "properties": { "osm_id": "683271083", "name": "Betfred", "other_tags": "\"addr:city\"=>\"Leeds\",\"addr:housenumber\"=>\"61\",\"addr:postcode\"=>\"LS11 9LH\",\"addr:street\"=>\"Top Moor Side\",\"brand\"=>\"Betfred\",\"brand:wikidata\"=>\"Q4897425\",\"brand:wikipedia\"=>\"en:Betfred\",\"shop\"=>\"bookmaker\"" }, "geometry": { "type": "Point", "coordinates": [ -1.5596138, 53.784824 ] } },
	{ "type": "Feature", "properties": { "osm_id": "2017048919", "name": "William Hill", "other_tags": "\"addr:city\"=>\"Leeds\",\"addr:housename\"=>\"Kirkstall District Centre\",\"addr:postcode\"=>\"LS5 3BH\",\"addr:street\"=>\"Kirkstall Lane\",\"addr:suburb\"=>\"Kirkstall\",\"brand\"=>\"William Hill\",\"brand:wikidata\"=>\"Q4053147\",\"brand:wikipedia\"=>\"en:William Hill (bookmaker)\",\"fhrs:id\"=>\"467017\",\"shop\"=>\"bookmaker\"" }, "geometry": { "type": "Point", "coordinates": [ -1.6011436, 53.8158068 ] } },
	{ "type": "Feature", "properties": { "osm_id": "2091013180", "name": "Betfred", "other_tags": "\"addr:city\"=>\"Leeds\",\"addr:housenumber\"=>\"79-81\",\"addr:postcode\"=>\"LS1 6QA\",\"addr:street\"=>\"Vicar Lane\",\"brand\"=>\"Betfred\",\"brand:wikidata\"=>\"Q4897425\",\"brand:wikipedia\"=>\"en:Betfred\",\"shop\"=>\"bookmaker\"" }, "geometry": { "type": "Point", "coordinates": [ -1.5400885, 53.7986377 ] } },
	{ "type": "Feature", "properties": { "osm_id": "2091013183", "name": "Betfred", "other_tags": "\"addr:city\"=>\"Leeds\",\"addr:housenumber\"=>\"41\",\"addr:postcode\"=>\"LS1 6DS\",\"addr:street\"=>\"Vicar Lane\",\"brand\"=>\"Betfred\",\"brand:wikidata\"=>\"Q4897425\",\"brand:wikipedia\"=>\"en:Betfred\",\"shop\"=>\"bookmaker\"" }, "geometry": { "type": "Point", "coordinates": [ -1.5405535, 53.7972957 ] } },
	{ "type": "Feature", "properties": { "osm_id": "2106070853", "name": "Ladbrokes", "other_tags": "\"shop\"=>\"bookmaker\"" }, "geometry": { "type": "Point", "coordinates": [ -1.5783367, 53.8221909 ] } },
	{ "type": "Feature", "properties": { "osm_id": "2125610537", "name": "William Hill", "other_tags": "\"addr:city\"=>\"Leeds\",\"addr:housename\"=>\"City Station\",\"addr:postcode\"=>\"LS1 4DT\",\"addr:street\"=>\"New Station Street\",\"addr:unit\"=>\"30 North Concourse\",\"brand\"=>\"William Hill\",\"brand:wikidata\"=>\"Q4053147\",\"brand:wikipedia\"=>\"en:William Hill (bookmaker)\",\"fhrs:id\"=>\"405903\",\"shop\"=>\"bookmaker\"" }, "geometry": { "type": "Point", "coordinates": [ -1.548569, 53.7959809 ] } },
	{ "type": "Feature", "properties": { "osm_id": "2131042054", "name": "Ladbrokes", "other_tags": "\"brand\"=>\"Ladbrokes\",\"brand:wikidata\"=>\"Q1799875\",\"brand:wikipedia\"=>\"en:Ladbrokes Coral\",\"shop\"=>\"bookmaker\"" }, "geometry": { "type": "Point", "coordinates": [ -1.5394192, 53.7982788 ] } },
	{ "type": "Feature", "properties": { "osm_id": "2135315770", "name": "Coral", "other_tags": "\"brand\"=>\"Coral\",\"brand:wikidata\"=>\"Q54621344\",\"brand:wikipedia\"=>\"en:Coral (bookmaker)\",\"shop\"=>\"bookmaker\"" }, "geometry": { "type": "Point", "coordinates": [ -1.5378936, 53.7963131 ] } },
	{ "type": "Feature", "properties": { "osm_id": "2408752501", "name": "Ladbrokes", "other_tags": "\"shop\"=>\"bookmaker\"" }, "geometry": { "type": "Point", "coordinates": [ -1.5664344, 53.8285036 ] } },
	{ "type": "Feature", "properties": { "osm_id": "3194894618", "name": "William Hill", "other_tags": "\"addr:city\"=>\"Leeds\",\"addr:housenumber\"=>\"80-82\",\"addr:postcode\"=>\"LS9 7SU\",\"addr:street\"=>\"Lincoln Green Road\",\"brand\"=>\"William Hill\",\"brand:wikidata\"=>\"Q4053147\",\"brand:wikipedia\"=>\"en:William Hill (bookmaker)\",\"shop\"=>\"bookmaker\"" }, "geometry": { "type": "Point", "coordinates": [ -1.5261129, 53.8020839 ] } },
	{ "type": "Feature", "properties": { "osm_id": "3257021637", "name": "Stan James", "other_tags": "\"shop\"=>\"bookmaker\"" }, "geometry": { "type": "Point", "coordinates": [ -1.367879, 53.7664615 ] } },
	{ "type": "Feature", "properties": { "osm_id": "3257031707", "name": "William Hill", "other_tags": "\"brand\"=>\"William Hill\",\"brand:wikidata\"=>\"Q4053147\",\"brand:wikipedia\"=>\"en:William Hill (bookmaker)\",\"shop\"=>\"bookmaker\"" }, "geometry": { "type": "Point", "coordinates": [ -1.3881396, 53.7948671 ] } },
	{ "type": "Feature", "properties": { "osm_id": "3300696425", "name": "William Hill", "other_tags": "\"brand\"=>\"William Hill\",\"brand:wikidata\"=>\"Q4053147\",\"brand:wikipedia\"=>\"en:William Hill (bookmaker)\",\"shop\"=>\"bookmaker\"" }, "geometry": { "type": "Point", "coordinates": [ -1.5455445, 53.7953453 ] } },
	{ "type": "Feature", "properties": { "osm_id": "3716946392", "name": "Betfred", "other_tags": "\"shop\"=>\"bookmaker\",\"addr:city\"=>\"Yeadon\",\"addr:street\"=>\"High Street\",\"addr:postcode\"=>\"LS19 7SP\",\"addr:housenumber\"=>\"79A\"" }, "geometry": { "type": "Point", "coordinates": [ -1.6817592, 53.866334 ] } },
	{ "type": "Feature", "properties": { "osm_id": "3718181645", "name": "Coral", "other_tags": "\"addr:city\"=>\"Yeadon\",\"addr:housenumber\"=>\"55-57\",\"addr:postcode\"=>\"LS19 7SP\",\"addr:street\"=>\"High Street\",\"phone\"=>\"+44 800 328 4273\",\"shop\"=>\"bookmaker\"" }, "geometry": { "type": "Point", "coordinates": [ -1.683243, 53.8661784 ] } },
	{ "type": "Feature", "properties": { "osm_id": "3755643981", "name": "Ladbrokes", "other_tags": "\"shop\"=>\"bookmaker\"" }, "geometry": { "type": "Point", "coordinates": [ -1.6944701, 53.9054682 ] } },
	{ "type": "Feature", "properties": { "osm_id": "3777443921", "name": "Betfred", "other_tags": "\"brand\"=>\"Betfred\",\"brand:wikidata\"=>\"Q4897425\",\"brand:wikipedia\"=>\"en:Betfred\",\"shop\"=>\"bookmaker\"" }, "geometry": { "type": "Point", "coordinates": [ -1.6635999, 53.7964597 ] } },
	{ "type": "Feature", "properties": { "osm_id": "3886297929", "name": "Betfred", "other_tags": "\"addr:city\"=>\"Leeds\",\"addr:housenumber\"=>\"37\",\"addr:postcode\"=>\"LS18 5LJ\",\"addr:street\"=>\"Town Street\",\"addr:suburb\"=>\"Horsforth\",\"opening_hours\"=>\"Mo-Sa 09:00-21:30; Su 10:00-21:30\",\"shop\"=>\"bookmaker\"" }, "geometry": { "type": "Point", "coordinates": [ -1.6411183, 53.8376667 ] } },
	{ "type": "Feature", "properties": { "osm_id": "3904386519", "name": "Coral", "other_tags": "\"addr:city\"=>\"Horsforth\",\"addr:housenumber\"=>\"111A\",\"addr:postcode\"=>\"LS18 4QD\",\"addr:street\"=>\"New Road Side\",\"brand\"=>\"Coral\",\"brand:wikidata\"=>\"Q54621344\",\"brand:wikipedia\"=>\"en:Coral (bookmaker)\",\"shop\"=>\"bookmaker\"" }, "geometry": { "type": "Point", "coordinates": [ -1.6424899, 53.8320215 ] } }
]
}
