{
"type": "FeatureCollection",
"crs": { "type": "name", "properties": { "name": "urn:ogc:def:crs:OGC:1.3:CRS84" } },
"features": [
	{ "type": "Feature", "properties": { "osm_id": "333467301", "name": "Michael Kors", "other_tags": "\"addr:city\"=>\"Leeds\",\"addr:housenumber\"=>\"112-114\",\"addr:postcode\"=>\"LS1 6BG\",\"addr:street\"=>\"Briggate\",\"shop\"=>\"boutique\"" }, "geometry": { "type": "Point", "coordinates": [ -1.5419633, 53.7978638 ] } },
	{ "type": "Feature", "properties": { "osm_id": "3892414281", "name": "Dressie Boutique", "other_tags": "\"addr:city\"=>\"Leeds\",\"addr:housenumber\"=>\"164\",\"addr:postcode\"=>\"LS18 4AQ\",\"addr:street\"=>\"Town Street\",\"addr:suburb\"=>\"Horsforth\",\"phone\"=>\"+44 113 318 4683\",\"shop\"=>\"boutique\",\"website\"=>\"https:\/\/www.facebook.com\/Dressie-B-Horsforth-1547982788803939\"" }, "geometry": { "type": "Point", "coordinates": [ -1.6360364, 53.8411583 ] } },
	{ "type": "Feature", "properties": { "osm_id": "5632562238", "name": "Dolls Boutique", "other_tags": "\"addr:city\"=>\"Leeds\",\"addr:housename\"=>\"The Light\",\"addr:postcode\"=>\"LS1 8TL\",\"addr:street\"=>\"The Headrow\",\"addr:unit\"=>\"10a\",\"shop\"=>\"boutique\"" }, "geometry": { "type": "Point", "coordinates": [ -1.5460065, 53.7998873 ] } },
	{ "type": "Feature", "properties": { "osm_id": "5918770659", "name": "Sass Boutique", "other_tags": "\"addr:city\"=>\"Leeds\",\"addr:housenumber\"=>\"130\",\"addr:postcode\"=>\"LS7 4NZ\",\"addr:street\"=>\"Harrogate Road\",\"shop\"=>\"boutique\"" }, "geometry": { "type": "Point", "coordinates": [ -1.5381658, 53.8300523 ] } },
	{ "type": "Feature", "properties": { "osm_id": "5940387580", "name": "Bridal Emporium", "other_tags": "\"addr:city\"=>\"Leeds\",\"addr:housenumber\"=>\"4-5\",\"addr:postcode\"=>\"LS1 6PG\",\"addr:street\"=>\"Grand Arcade\",\"shop\"=>\"boutique\",\"website\"=>\"https:\/\/www.the-bridal-emporium.com\/\"" }, "geometry": { "type": "Point", "coordinates": [ -1.5399788, 53.8001544 ] } },
	{ "type": "Feature", "properties": { "osm_id": "5940387584", "name": "Labels Designer Menswear", "other_tags": "\"addr:city\"=>\"Leeds\",\"addr:housenumber\"=>\"13\",\"addr:postcode\"=>\"LS1 6PG\",\"addr:street\"=>\"Grand Arcade\",\"shop\"=>\"boutique\"" }, "geometry": { "type": "Point", "coordinates": [ -1.5408117, 53.8002481 ] } },
	{ "type": "Feature", "properties": { "osm_id": "5941346442", "name": "Berketex Bride", "other_tags": "\"addr:city\"=>\"Leeds\",\"addr:housenumber\"=>\"1\",\"addr:postcode\"=>\"LS1 6LF\",\"addr:street\"=>\"Queens Arcade\",\"shop\"=>\"boutique\",\"website\"=>\"https:\/\/www.berketexbride.com\/\"" }, "geometry": { "type": "Point", "coordinates": [ -1.5424658, 53.7983805 ] } },
	{ "type": "Feature", "properties": { "osm_id": "5941346462", "name": "Bolongaro Trevor", "other_tags": "\"addr:city\"=>\"Leeds\",\"addr:housenumber\"=>\"14\",\"addr:postcode\"=>\"LS1 6LQ\",\"addr:street\"=>\"Thornton's Arcade\",\"shop\"=>\"boutique\"" }, "geometry": { "type": "Point", "coordinates": [ -1.5427167, 53.7987324 ] } },
	{ "type": "Feature", "properties": { "osm_id": "6022850212", "name": "Accessorize", "other_tags": "\"addr:city\"=>\"Leeds\",\"addr:housenumber\"=>\"30\",\"addr:postcode\"=>\"LS1 6EX\",\"addr:street\"=>\"Commercial Street\",\"shop\"=>\"boutique\"" }, "geometry": { "type": "Point", "coordinates": [ -1.5444455, 53.7972825 ] } },
	{ "type": "Feature", "properties": { "osm_id": "6033886285", "name": "Precious Proms & Pearls", "other_tags": "\"addr:city\"=>\"Leeds\",\"addr:housename\"=>\"Corn Exchange\",\"addr:postcode\"=>\"LS1 7BR\",\"addr:street\"=>\"Call Lane\",\"level\"=>\"1\",\"shop\"=>\"boutique\",\"website\"=>\"https:\/\/www.promsandpearls.co.uk\/\"" }, "geometry": { "type": "Point", "coordinates": [ -1.5404846, 53.795979 ] } },
	{ "type": "Feature", "properties": { "osm_id": "6092510503", "name": "The Bridal House", "other_tags": "\"addr:city\"=>\"Leeds\",\"addr:housename\"=>\"Citispace\",\"addr:housenumber\"=>\"11\",\"addr:postcode\"=>\"LS2 7QN\",\"addr:street\"=>\"Regent Street\",\"addr:unit\"=>\"1\",\"shop\"=>\"boutique\"" }, "geometry": { "type": "Point", "coordinates": [ -1.5333223, 53.8025644 ] } }
]
}
