{
"type": "FeatureCollection",
"crs": { "type": "name", "properties": { "name": "urn:ogc:def:crs:OGC:1.3:CRS84" } },
"features": [
	{ "type": "Feature", "properties": { "osm_id": "274257501", "other_tags": "\"shop\"=>\"laundry\"" }, "geometry": { "type": "Point", "coordinates": [ -1.550829, 53.8125885 ] } },
	{ "type": "Feature", "properties": { "osm_id": "292238285", "other_tags": "\"shop\"=>\"laundry\"" }, "geometry": { "type": "Point", "coordinates": [ -1.5558368, 53.7671986 ] } },
	{ "type": "Feature", "properties": { "osm_id": "292238404", "name": "Smart Wash Laundrette", "other_tags": "\"addr:city\"=>\"Leeds\",\"addr:housenumber\"=>\"201\",\"addr:postcode\"=>\"LS11 5EG\",\"addr:street\"=>\"Dewsbury Road\",\"payment:cash\"=>\"yes\",\"payment:coins\"=>\"yes\",\"shop\"=>\"laundry\"" }, "geometry": { "type": "Point", "coordinates": [ -1.5446042, 53.7777415 ] } },
	{ "type": "Feature", "properties": { "osm_id": "302043800", "name": "Washday Blues", "other_tags": "\"shop\"=>\"laundry\"" }, "geometry": { "type": "Point", "coordinates": [ -1.6206593, 53.7962411 ] } },
	{ "type": "Feature", "properties": { "osm_id": "349352556", "name": "Stitches", "other_tags": "\"shop\"=>\"laundry\"" }, "geometry": { "type": "Point", "coordinates": [ -1.6369154, 53.806571 ] } },
	{ "type": "Feature", "properties": { "osm_id": "390942296", "name": "Posh Wash Launderette", "other_tags": "\"shop\"=>\"laundry\"" }, "geometry": { "type": "Point", "coordinates": [ -1.5513904, 53.7739699 ] } },
	{ "type": "Feature", "properties": { "osm_id": "2164142492", "other_tags": "\"shop\"=>\"laundry\",\"website\"=>\"http:\/\/www.192.com\/atoz\/business\/leeds-ls9\/ironing-services\/ironing-express\/9f0cf40a5ffce06836cd64aff5c58627c9444626\/ml\/\",\"addr:street\"=>\"Selby Road\",\"addr:postcode\"=>\"LS9 0EW\",\"addr:housename\"=>\"Ironing Express\",\"addr:housenumber\"=>\"47\"" }, "geometry": { "type": "Point", "coordinates": [ -1.4823654, 53.8002082 ] } },
	{ "type": "Feature", "properties": { "osm_id": "2353566232", "name": "Top Dry Cleaner", "other_tags": "\"shop\"=>\"laundry\",\"addr:city\"=>\"Otley\",\"telephone\"=>\"01943 466166\",\"is_in:town\"=>\"Otley\"" }, "geometry": { "type": "Point", "coordinates": [ -1.6937908, 53.9039337 ] } },
	{ "type": "Feature", "properties": { "osm_id": "2353670238", "name": "Chevin View Laundry", "other_tags": "\"shop\"=>\"laundry\"" }, "geometry": { "type": "Point", "coordinates": [ -1.6896497, 53.902077 ] } },
	{ "type": "Feature", "properties": { "osm_id": "2402695805", "name": "West Park", "other_tags": "\"shop\"=>\"laundry\"" }, "geometry": { "type": "Point", "coordinates": [ -1.5937522, 53.8335379 ] } },
	{ "type": "Feature", "properties": { "osm_id": "3194894615", "name": "Lincoln Green Launderette", "other_tags": "\"shop\"=>\"laundry\"" }, "geometry": { "type": "Point", "coordinates": [ -1.5259939, 53.8023024 ] } },
	{ "type": "Feature", "properties": { "osm_id": "3620359806", "other_tags": "\"shop\"=>\"laundry\"" }, "geometry": { "type": "Point", "coordinates": [ -1.5667507, 53.8272807 ] } },
	{ "type": "Feature", "properties": { "osm_id": "3632290918", "other_tags": "\"shop\"=>\"laundry\"" }, "geometry": { "type": "Point", "coordinates": [ -1.6279551, 53.7583182 ] } },
	{ "type": "Feature", "properties": { "osm_id": "3715212983", "name": "Bubbles", "other_tags": "\"addr:city\"=>\"Rawdon\",\"addr:housenumber\"=>\"1\",\"addr:postcode\"=>\"LS19 6LR\",\"addr:street\"=>\"Canada Road\",\"phone\"=>\"+44 113 250 2713\",\"shop\"=>\"laundry\"" }, "geometry": { "type": "Point", "coordinates": [ -1.6792821, 53.8572772 ] } },
	{ "type": "Feature", "properties": { "osm_id": "4189523455", "name": "Cleanerama", "other_tags": "\"shop\"=>\"laundry\"" }, "geometry": { "type": "Point", "coordinates": [ -1.4110545, 53.9076253 ] } },
	{ "type": "Feature", "properties": { "osm_id": "4964806676", "name": "The Wash House", "other_tags": "\"shop\"=>\"laundry\"" }, "geometry": { "type": "Point", "coordinates": [ -1.5940429, 53.743994 ] } },
	{ "type": "Feature", "properties": { "osm_id": null, "centroid": { "latitude": 53.782537, "longitude": -1.562887 }, "osm_way_id": "128798748", "building": "yes", "shop": "laundry", "other_tags": "\"addr:street\"=>\"Colenso Grove\",\"addr:housenumber\"=>\"2\"" }, "geometry": { "type": "Polygon", "coordinates": [ [ [ -1.5628498, 53.7825586 ], [ -1.56286, 53.7825111 ], [ -1.5629236, 53.7825159 ], [ -1.5629134, 53.7825634 ], [ -1.5628498, 53.7825586 ] ] ] } },
	{ "type": "Feature", "properties": { "osm_id": null, "centroid": { "latitude": 53.800216, "longitude": -1.482345 }, "osm_way_id": "206401861", "name": "Ironing Express", "building": "yes", "shop": "laundry", "other_tags": "\"addr:housenumber\"=>\"47\",\"addr:postcode\"=>\"LS9 0EW\",\"addr:street\"=>\"Selby Road\",\"website\"=>\"http:\/\/www.192.com\/atoz\/business\/leeds-ls9\/ironing-services\/ironing-express\/9f0cf40a5ffce06836cd64aff5c58627c9444626\/ml\/\"" }, "geometry": { "type": "Polygon", "coordinates": [ [ [ -1.4823374, 53.8002615 ], [ -1.4822805, 53.8002415 ], [ -1.4823519, 53.8001706 ], [ -1.4824089, 53.8001906 ], [ -1.4823374, 53.8002615 ] ] ] } },
	{ "type": "Feature", "properties": { "osm_id": null, "centroid": { "latitude": 53.833239, "longitude": -1.603758 }, "osm_way_id": "305716094", "building": "yes", "shop": "laundry" }, "geometry": { "type": "Polygon", "coordinates": [ [ [ -1.6038292, 53.8332587 ], [ -1.603763, 53.8332893 ], [ -1.6036876, 53.8332346 ], [ -1.6037843, 53.8331881 ], [ -1.6038292, 53.8332587 ] ] ] } }
]
}
