{
"type": "FeatureCollection",
"crs": { "type": "name", "properties": { "name": "urn:ogc:def:crs:OGC:1.3:CRS84" } },
"features": [
	{ "type": "Feature", "properties": { "osm_id": "330318327", "name": "Durtnell Veterinary Centre", "amenity": "veterinary" }, "geometry": { "type": "Point", "coordinates": [ -1.5937312, 53.7938066 ] } },
	{ "type": "Feature", "properties": { "osm_id": "444622854", "name": "Companion Care Veterinary Practice", "amenity": "veterinary" }, "geometry": { "type": "Point", "coordinates": [ -1.6620616, 53.795719 ] } },
	{ "type": "Feature", "properties": { "osm_id": "1414618675", "name": "Dogs Trust", "amenity": "veterinary" }, "geometry": { "type": "Point", "coordinates": [ -1.3788768, 53.8519632 ] } },
	{ "type": "Feature", "properties": { "osm_id": "1646062176", "name": "Aire Veterinary Centre", "amenity": "veterinary", "other_tags": "\"addr:street\"=>\"Kirkstall Lane\",\"addr:postcode\"=>\"LS6 3EJ\",\"contact:website\"=>\"http:\/\/www.aireveterinarycentre.co.uk\/\",\"addr:housenumber\"=>\"177\"" }, "geometry": { "type": "Point", "coordinates": [ -1.5861235, 53.8178101 ] } },
	{ "type": "Feature", "properties": { "osm_id": "2408752470", "name": "Yorkshire Vets", "amenity": "veterinary" }, "geometry": { "type": "Point", "coordinates": [ -1.5672846, 53.8292271 ] } },
	{ "type": "Feature", "properties": { "osm_id": "3191671092", "name": "White Cross Vets", "amenity": "veterinary" }, "geometry": { "type": "Point", "coordinates": [ -1.7256509, 53.8775825 ] } },
	{ "type": "Feature", "properties": { "osm_id": "3898525383", "name": "Yorkshire Vets", "amenity": "veterinary", "other_tags": "\"addr:city\"=>\"Leeds\",\"addr:housenumber\"=>\"1\",\"addr:postcode\"=>\"LS18 5PA\",\"addr:street\"=>\"Station Road\",\"addr:suburb\"=>\"Horsforth\",\"opening_hours\"=>\"Mo-Fr 08:30-10:00, 14:00-18:00; Sa 08:30-11:00; Su Closed\",\"phone\"=>\"+44 113 259 1196\",\"website\"=>\"https:\/\/www.yorkshirevets.co.uk\/surgeries\/horsforth\/\"" }, "geometry": { "type": "Point", "coordinates": [ -1.6338384, 53.8465833 ] } },
	{ "type": "Feature", "properties": { "osm_id": "3916647730", "name": "J S Baxter", "amenity": "veterinary", "other_tags": "\"addr:city\"=>\"Horsforth\",\"addr:housenumber\"=>\"2\",\"addr:postcode\"=>\"LS18 4QE\",\"addr:street\"=>\"Rose Avenue\",\"phone\"=>\"+44 113 258 3215\"" }, "geometry": { "type": "Point", "coordinates": [ -1.6438663, 53.8322925 ] } },
	{ "type": "Feature", "properties": { "osm_id": "4035680656", "name": "Tweed House Veterinary Surgery", "amenity": "veterinary" }, "geometry": { "type": "Point", "coordinates": [ -1.6843549, 53.8647276 ] } },
	{ "type": "Feature", "properties": { "osm_id": "4397050320", "name": "Parkhill Veterinary Surgery", "amenity": "veterinary" }, "geometry": { "type": "Point", "coordinates": [ -1.3746015, 53.9245454 ] } }
]
}
