{
"type": "FeatureCollection",
"crs": { "type": "name", "properties": { "name": "urn:ogc:def:crs:OGC:1.3:CRS84" } },
"features": [
	{ "type": "Feature", "properties": { "osm_id": "29058588", "name": "Leeds Art Gallery", "amenity": "arts_centre", "other_tags": "\"tourism\"=>\"museum\",\"wikidata\"=>\"Q6515835\",\"wikipedia\"=>\"en:Leeds Art Gallery\",\"wheelchair\"=>\"yes\"" }, "geometry": { "type": "Point", "coordinates": [ -1.5481087, 53.8000274 ] } },
	{ "type": "Feature", "properties": { "osm_id": "313100554", "name": "Project Space Leeds", "amenity": "arts_centre" }, "geometry": { "type": "Point", "coordinates": [ -1.5566836, 53.7935659 ] } },
	{ "type": "Feature", "properties": { "osm_id": "342579618", "name": "Fabrication2", "amenity": "arts_centre", "other_tags": "\"addr:city\"=>\"Leeds\",\"addr:street\"=>\"Edward Street\",\"addr:postcode\"=>\"LS2 7NT\",\"addr:housename\"=>\"Hereford House\",\"addr:housenumber\"=>\"6\"" }, "geometry": { "type": "Point", "coordinates": [ -1.5388338, 53.7999545 ] } },
	{ "type": "Feature", "properties": { "osm_id": "1025703041", "name": "Centenary Gallery", "amenity": "arts_centre", "other_tags": "\"shop\"=>\"art\"" }, "geometry": { "type": "Point", "coordinates": [ -1.5525639, 53.8080907 ] } },
	{ "type": "Feature", "properties": { "osm_id": "1187324667", "name": "The Stanley & Audrey Burton Gallery", "amenity": "arts_centre", "other_tags": "\"shop\"=>\"art\",\"wheelchair\"=>\"yes\"" }, "geometry": { "type": "Point", "coordinates": [ -1.552564, 53.8077104 ] } },
	{ "type": "Feature", "properties": { "osm_id": "2492651387", "name": "Seven", "amenity": "arts_centre", "other_tags": "\"website\"=>\"http:\/\/www.sevenleeds.co.uk\/\"" }, "geometry": { "type": "Point", "coordinates": [ -1.5377236, 53.8277943 ] } },
	{ "type": "Feature", "properties": { "osm_id": "3899541491", "name": "elev8dance", "amenity": "arts_centre", "other_tags": "\"phone\"=>\"+44 113 258 5605\",\"website\"=>\"https:\/\/www.elev8dance.co.uk\/\",\"addr:city\"=>\"Leeds\",\"addr:street\"=>\"Town Street\",\"addr:suburb\"=>\"Horsforth\",\"addr:postcode\"=>\"LS18 4RJ\",\"addr:housenumber\"=>\"22-28\"" }, "geometry": { "type": "Point", "coordinates": [ -1.6411548, 53.8373997 ] } },
	{ "type": "Feature", "properties": { "osm_id": "4602768932", "name": "The Rainbow Factory", "amenity": "arts_centre", "other_tags": "\"fhrs:id\"=>\"785915\",\"addr:city\"=>\"Leeds\",\"addr:unit\"=>\"13c\",\"addr:street\"=>\"Bagley Lane\",\"addr:suburb\"=>\"Farsley\",\"addr:postcode\"=>\"LS28 5LY\",\"addr:housename\"=>\"Springfield Commercial Centre\"" }, "geometry": { "type": "Point", "coordinates": [ -1.6660696, 53.8173697 ] } }
]
}
