{
"type": "FeatureCollection",
"crs": { "type": "name", "properties": { "name": "urn:ogc:def:crs:OGC:1.3:CRS84" } },
"features": [
	{ "type": "Feature", "properties": { "osm_id": "313182994", "name": "Downtown Electricals", "other_tags": "\"shop\"=>\"electronics\",\"old_name\"=>\"The Rose & Crown\"" }, "geometry": { "type": "Point", "coordinates": [ -1.584491, 53.798901 ] } },
	{ "type": "Feature", "properties": { "osm_id": "313246929", "name": "SS Electrical Superstore", "other_tags": "\"shop\"=>\"electronics\"" }, "geometry": { "type": "Point", "coordinates": [ -1.5893778, 53.7981476 ] } },
	{ "type": "Feature", "properties": { "osm_id": "313246932", "name": "Electrocare", "other_tags": "\"shop\"=>\"electronics\"" }, "geometry": { "type": "Point", "coordinates": [ -1.5902898, 53.7987791 ] } },
	{ "type": "Feature", "properties": { "osm_id": "333799024", "name": "Samsung", "other_tags": "\"addr:city\"=>\"Leeds\",\"addr:housenumber\"=>\"89-91\",\"addr:postcode\"=>\"LS1 6NP\",\"addr:street\"=>\"Briggate\",\"brand\"=>\"Samsung\",\"brand:wikidata\"=>\"Q20718\",\"brand:wikipedia\"=>\"en:Samsung Electronics\",\"shop\"=>\"electronics\"" }, "geometry": { "type": "Point", "coordinates": [ -1.541806, 53.7989164 ] } },
	{ "type": "Feature", "properties": { "osm_id": "333799052", "name": "Currys PC World", "other_tags": "\"brand\"=>\"Currys PC World\",\"brand:wikidata\"=>\"Q3246464\",\"brand:wikipedia\"=>\"en:Currys\",\"shop\"=>\"electronics\"" }, "geometry": { "type": "Point", "coordinates": [ -1.5447208, 53.7992369 ] } },
	{ "type": "Feature", "properties": { "osm_id": "367872373", "name": "Argos", "other_tags": "\"addr:city\"=>\"Otley\",\"addr:country\"=>\"GB\",\"shop\"=>\"electronics\",\"website\"=>\"https:\/\/www.argos.co.uk\/\"" }, "geometry": { "type": "Point", "coordinates": [ -1.6922214, 53.9027496 ] } },
	{ "type": "Feature", "properties": { "osm_id": "2129684012", "name": "CeX", "other_tags": "\"addr:housenumber\"=>\"28\",\"addr:street\"=>\"The Headrow\",\"brand\"=>\"CeX\",\"brand:wikidata\"=>\"Q5055676\",\"brand:wikipedia\"=>\"en:CeX (company)\",\"internet_access\"=>\"wlan\",\"payment:bitcoin\"=>\"yes\",\"phone\"=>\"+44 845 345 1664\",\"shop\"=>\"electronics\"" }, "geometry": { "type": "Point", "coordinates": [ -1.5443754, 53.7995573 ] } },
	{ "type": "Feature", "properties": { "osm_id": "2138696603", "name": "Sony Centre", "other_tags": "\"brand\"=>\"Sony Centre\",\"brand:wikidata\"=>\"Q3437496\",\"brand:wikipedia\"=>\"en:Sony Centre\",\"shop\"=>\"electronics\"" }, "geometry": { "type": "Point", "coordinates": [ -1.5399939, 53.7993646 ] } },
	{ "type": "Feature", "properties": { "osm_id": "2157985619", "name": "Saville Audio Visual", "other_tags": "\"addr:postcode\"=>\"LS10 1JD\",\"addr:street\"=>\"Scala Court\",\"industrial\"=>\"warehouse\",\"shop\"=>\"electronics\"" }, "geometry": { "type": "Point", "coordinates": [ -1.5381959, 53.7877954 ] } },
	{ "type": "Feature", "properties": { "osm_id": "2212678970", "name": "Apple Store", "other_tags": "\"brand\"=>\"Apple Store\",\"brand:wikidata\"=>\"Q421253\",\"brand:wikipedia\"=>\"en:Apple Store\",\"shop\"=>\"electronics\",\"short_name\"=>\"Apple\"" }, "geometry": { "type": "Point", "coordinates": [ -1.5438952, 53.7966351 ] } },
	{ "type": "Feature", "properties": { "osm_id": "2212678975", "name": "iPatch", "other_tags": "\"shop\"=>\"electronics\"" }, "geometry": { "type": "Point", "coordinates": [ -1.5461483, 53.7965336 ] } },
	{ "type": "Feature", "properties": { "osm_id": "2400790056", "name": "Audio Republic", "other_tags": "\"shop\"=>\"electronics\"" }, "geometry": { "type": "Point", "coordinates": [ -1.5821077, 53.8269911 ] } },
	{ "type": "Feature", "properties": { "osm_id": "2408752506", "name": "Taybell", "other_tags": "\"shop\"=>\"electronics\"" }, "geometry": { "type": "Point", "coordinates": [ -1.5662901, 53.8285969 ] } },
	{ "type": "Feature", "properties": { "osm_id": "3222614870", "name": "Apple Corner", "other_tags": "\"shop\"=>\"electronics\"" }, "geometry": { "type": "Point", "coordinates": [ -1.5610823, 53.8145088 ] } },
	{ "type": "Feature", "properties": { "osm_id": "3801400064", "name": "Repair Lab", "other_tags": "\"shop\"=>\"electronics\",\"craft\"=>\"electronics_repair\"" }, "geometry": { "type": "Point", "coordinates": [ -1.6022609, 53.8154878 ] } },
	{ "type": "Feature", "properties": { "osm_id": "4475968862", "name": "EHS", "other_tags": "\"shop\"=>\"electronics\"" }, "geometry": { "type": "Point", "coordinates": [ -1.4490809, 53.8071494 ] } },
	{ "type": "Feature", "properties": { "osm_id": "4632341179", "name": "Bright Ideas", "other_tags": "\"shop\"=>\"electronics\"" }, "geometry": { "type": "Point", "coordinates": [ -1.3845435, 53.9305963 ] } },
	{ "type": "Feature", "properties": { "osm_id": "5084759494", "name": "CeX", "other_tags": "\"brand\"=>\"CeX\",\"brand:wikidata\"=>\"Q5055676\",\"brand:wikipedia\"=>\"en:CeX (company)\",\"shop\"=>\"electronics\"" }, "geometry": { "type": "Point", "coordinates": [ -1.4518675, 53.8063557 ] } },
	{ "type": "Feature", "properties": { "osm_id": "5306192754", "name": "Currys PC World", "other_tags": "\"brand\"=>\"Currys PC World\",\"brand:wikidata\"=>\"Q7118727\",\"brand:wikipedia\"=>\"en:PC World (retailer)\",\"shop\"=>\"electronics\"" }, "geometry": { "type": "Point", "coordinates": [ -1.7024164, 53.8688968 ] } },
	{ "type": "Feature", "properties": { "osm_id": "5648164585", "name": "Rocking Gadgets", "other_tags": "\"addr:city\"=>\"Leeds\",\"addr:housename\"=>\"St Johns Centre\",\"addr:housenumber\"=>\"110-118\",\"addr:postcode\"=>\"LS2 8LQ\",\"addr:street\"=>\"Albion Street\",\"level\"=>\"1\",\"shop\"=>\"electronics\"" }, "geometry": { "type": "Point", "coordinates": [ -1.5437856, 53.8004742 ] } },
	{ "type": "Feature", "properties": { "osm_id": "5648164602", "name": "Trade Me In", "other_tags": "\"addr:city\"=>\"Leeds\",\"addr:housename\"=>\"St Johns Centre\",\"addr:housenumber\"=>\"110-118\",\"addr:postcode\"=>\"LS2 8LQ\",\"addr:street\"=>\"Albion Street\",\"level\"=>\"0\",\"shop\"=>\"electronics\",\"website\"=>\"https:\/\/www.trademein.co.uk\/\"" }, "geometry": { "type": "Point", "coordinates": [ -1.5437615, 53.8001811 ] } },
	{ "type": "Feature", "properties": { "osm_id": "6052531518", "name": "Sky", "other_tags": "\"level\"=>\"0\",\"shop\"=>\"electronics\"" }, "geometry": { "type": "Point", "coordinates": [ -1.5742984, 53.7593884 ] } },
	{ "type": "Feature", "properties": { "osm_id": "6052531536", "name": "Menkind", "other_tags": "\"level\"=>\"0\",\"shop\"=>\"electronics\"" }, "geometry": { "type": "Point", "coordinates": [ -1.5744788, 53.759588 ] } },
	{ "type": "Feature", "properties": { "osm_id": "6052531601", "name": "CeX", "other_tags": "\"brand\"=>\"CeX\",\"brand:wikidata\"=>\"Q5055676\",\"brand:wikipedia\"=>\"en:CeX (company)\",\"level\"=>\"0\",\"shop\"=>\"electronics\"" }, "geometry": { "type": "Point", "coordinates": [ -1.5736115, 53.7597795 ] } },
	{ "type": "Feature", "properties": { "osm_id": "6331294924", "name": "Do$h", "other_tags": "\"addr:city\"=>\"Leeds\",\"addr:housenumber\"=>\"6\",\"addr:postcode\"=>\"LS27 9EW\",\"addr:street\"=>\"South Queen Street\",\"addr:suburb\"=>\"Morley\",\"shop\"=>\"electronics\"" }, "geometry": { "type": "Point", "coordinates": [ -1.5994522, 53.7428483 ] } },
	{ "type": "Feature", "properties": { "osm_id": 9290703, "centroid": { "latitude": 53.818558, "longitude": -1.514396 }, "name": "electrotown", "type": "multipolygon", "building": "yes", "shop": "electronics" }, "geometry": { "type": "Polygon", "coordinates": [ [ [ -1.5144689, 53.8186801 ], [ -1.5143451, 53.8188065 ], [ -1.514199, 53.8188031 ], [ -1.514078, 53.8185684 ], [ -1.5140256, 53.8183141 ], [ -1.5146455, 53.8183095 ], [ -1.5147486, 53.8183352 ], [ -1.5147667, 53.8183811 ], [ -1.5147417, 53.8184004 ], [ -1.514722, 53.8184488 ], [ -1.5144689, 53.8186801 ] ], [ [ -1.5145375, 53.8184183 ], [ -1.5144483, 53.8184183 ], [ -1.5144523, 53.818511 ], [ -1.5145375, 53.8184183 ] ] ] } },
	{ "type": "Feature", "properties": { "osm_id": null, "centroid": { "latitude": 53.787543, "longitude": -1.539604 }, "osm_way_id": "203009411", "name": "Currys PC World", "building": "yes", "shop": "electronics", "other_tags": "\"brand\"=>\"Currys PC World\",\"brand:wikidata\"=>\"Q3246464\",\"brand:wikipedia\"=>\"en:Currys\"" }, "geometry": { "type": "Polygon", "coordinates": [ [ [ -1.539396, 53.7877669 ], [ -1.5392983, 53.787767 ], [ -1.5392973, 53.7873186 ], [ -1.5398859, 53.7873181 ], [ -1.5399095, 53.7873181 ], [ -1.5399104, 53.7877665 ], [ -1.539396, 53.7877669 ] ] ] } },
	{ "type": "Feature", "properties": { "osm_id": null, "centroid": { "latitude": 53.799925, "longitude": -1.579483 }, "osm_way_id": "234009291", "name": "Farnell Element14", "building": "yes", "shop": "electronics", "other_tags": "\"addr:city\"=>\"Leeds\",\"addr:country\"=>\"GB\",\"addr:postcode\"=>\"LS12 2TU\",\"addr:street\"=>\"Canal Road\",\"fax\"=>\"+44 113 263 3411\",\"operator\"=>\"Premier Farnell PLC\",\"phone\"=>\"+44 113 279 0101\"" }, "geometry": { "type": "Polygon", "coordinates": [ [ [ -1.579872, 53.8002641 ], [ -1.5791808, 53.7999934 ], [ -1.579248, 53.7999335 ], [ -1.5788334, 53.7997712 ], [ -1.5790414, 53.7995859 ], [ -1.580132, 53.8000252 ], [ -1.579872, 53.8002641 ] ] ] } },
	{ "type": "Feature", "properties": { "osm_id": null, "centroid": { "latitude": 53.796428, "longitude": -1.592093 }, "osm_way_id": "516664438", "name": "Appliances 4 U", "building": "yes", "shop": "electronics" }, "geometry": { "type": "Polygon", "coordinates": [ [ [ -1.5922443, 53.7963862 ], [ -1.5922035, 53.7964624 ], [ -1.5919418, 53.7964697 ], [ -1.5919939, 53.796389 ], [ -1.5922443, 53.7963862 ] ] ] } },
	{ "type": "Feature", "properties": { "osm_id": null, "centroid": { "latitude": 53.748343, "longitude": -1.478279 }, "osm_way_id": "590809713", "name": "Olwyn Fox", "building": "commercial", "shop": "electronics" }, "geometry": { "type": "Polygon", "coordinates": [ [ [ -1.4781984, 53.7482526 ], [ -1.4783627, 53.7482537 ], [ -1.4783617, 53.7483038 ], [ -1.4783591, 53.7484343 ], [ -1.4781948, 53.7484332 ], [ -1.4781984, 53.7482526 ] ] ] } }
]
}
