{
"type": "FeatureCollection",
"crs": { "type": "name", "properties": { "name": "urn:ogc:def:crs:OGC:1.3:CRS84" } },
"features": [
	{ "type": "Feature", "properties": { "osm_id": "2106238885", "name": "Admiral", "other_tags": "\"addr:city\"=>\"Leeds\",\"addr:housenumber\"=>\"43-47\",\"addr:postcode\"=>\"LS1 6DS\",\"addr:street\"=>\"Vicar Lane\",\"brand\"=>\"Admiral\",\"brand:wikidata\"=>\"Q25205850\",\"brand:wikipedia\"=>\"en:Admiral (gambling)\",\"contact:website\"=>\"https:\/\/www.admiralslots.co.uk\/venues\/leeds-vicar-lane\/\",\"fhrs:id\"=>\"716405\",\"gambling\"=>\"slot_machines\",\"leisure\"=>\"adult_gaming_centre\",\"shop\"=>\"amusements\"" }, "geometry": { "type": "Point", "coordinates": [ -1.5405384, 53.7974226 ] } },
	{ "type": "Feature", "properties": { "osm_id": "2128107733", "name": "Admiral", "other_tags": "\"addr:city\"=>\"Leeds\",\"addr:housenumber\"=>\"7\",\"addr:postcode\"=>\"LS1 6PU\",\"addr:street\"=>\"The Headrow\",\"brand\"=>\"Admiral\",\"brand:wikidata\"=>\"Q25205850\",\"brand:wikipedia\"=>\"en:Admiral (gambling)\",\"contact:website\"=>\"https:\/\/www.admiralslots.co.uk\/venues\/leeds-the-headrow\/\",\"fhrs:id\"=>\"1157893\",\"gambling\"=>\"slot_machines\",\"leisure\"=>\"adult_gaming_centre\",\"old_name\"=>\"Quicksilver\"" }, "geometry": { "type": "Point", "coordinates": [ -1.540401, 53.7988039 ] } },
	{ "type": "Feature", "properties": { "osm_id": "2131042059", "name": "Admiral", "other_tags": "\"brand\"=>\"Admiral\",\"brand:wikidata\"=>\"Q25205850\",\"brand:wikipedia\"=>\"en:Admiral (gambling)\",\"gambling\"=>\"slot_machines\",\"leisure\"=>\"adult_gaming_centre\"" }, "geometry": { "type": "Point", "coordinates": [ -1.5396566, 53.7978161 ] } },
	{ "type": "Feature", "properties": { "osm_id": "3718484565", "name": "Holdsworth Amusements", "other_tags": "\"addr:city\"=>\"Yeadon\",\"addr:housenumber\"=>\"4-6\",\"addr:postcode\"=>\"LS19 7RE\",\"addr:street\"=>\"Ivegate\",\"leisure\"=>\"adult_gaming_centre\"" }, "geometry": { "type": "Point", "coordinates": [ -1.6856419, 53.8655866 ] } },
	{ "type": "Feature", "properties": { "osm_id": "8112004466", "name": "Merkur Slots", "other_tags": "\"leisure\"=>\"adult_gaming_centre\"" }, "geometry": { "type": "Point", "coordinates": [ -1.6276833, 53.8121315 ] } }
]
}
