{
"type": "FeatureCollection",
"crs": { "type": "name", "properties": { "name": "urn:ogc:def:crs:OGC:1.3:CRS84" } },
"features": [
	{ "type": "Feature", "properties": { "osm_id": "611105", "name": "The Mexborough Arms", "amenity": "pub" }, "geometry": { "type": "Point", "coordinates": [ -1.42461, 53.7281 ] } },
	{ "type": "Feature", "properties": { "osm_id": "820090", "name": "The Nook", "amenity": "pub", "other_tags": "\"fhrs:id\"=>\"320852\",\"addr:city\"=>\"Wakefield\",\"addr:street\"=>\"Lingwell Gate Lane\",\"addr:postcode\"=>\"WF3 3JU\"" }, "geometry": { "type": "Point", "coordinates": [ -1.518587, 53.7258813 ] } },
	{ "type": "Feature", "properties": { "osm_id": "21029699", "name": "The Black Horse Hotel", "amenity": "pub", "other_tags": "\"tourism\"=>\"guest_house\",\"website\"=>\"theblackhorsehotel.org.uk\",\"addr:city\"=>\"Otley\",\"is_in:town\"=>\"Otley\",\"addr:street\"=>\"Westgate\",\"is_in:county\"=>\"West Yorkshire\",\"accommodation\"=>\"yes\",\"addr:postcode\"=>\"LS21 2EA\"" }, "geometry": { "type": "Point", "coordinates": [ -1.6946046, 53.9057132 ] } },
	{ "type": "Feature", "properties": { "osm_id": "26124686", "name": "The Waggon and Horses", "amenity": "pub" }, "geometry": { "type": "Point", "coordinates": [ -1.4955957, 53.7255091 ] } },
	{ "type": "Feature", "properties": { "osm_id": "26124687", "name": "The Castle", "amenity": "pub" }, "geometry": { "type": "Point", "coordinates": [ -1.4956129, 53.7257265 ] } },
	{ "type": "Feature", "properties": { "osm_id": "26308454", "name": "Tut 'n' Shive", "amenity": "pub", "other_tags": "\"addr:city\"=>\"Yeadon\",\"addr:street\"=>\"Kirk Lane\",\"addr:postcode\"=>\"LS19 7EP\",\"addr:housenumber\"=>\"11\"" }, "geometry": { "type": "Point", "coordinates": [ -1.6874786, 53.8656902 ] } },
	{ "type": "Feature", "properties": { "osm_id": "27297278", "name": "Cross Pipes", "amenity": "pub", "other_tags": "\"fhrs:id\"=>\"831733\",\"website\"=>\"www.otleypubclub.co.uk\/otley-pubs-present\/the-cross-pipes\",\"alt_name\"=>\"The Cross Pipes\",\"addr:city\"=>\"Otley\",\"is_in:town\"=>\"Otley\",\"addr:street\"=>\"Westgate\",\"addr:country\"=>\"GB\",\"is_in:county\"=>\"West Yorkshire\",\"addr:postcode\"=>\"LS21 3AS\",\"opening_hours\"=>\"Mo-Su 12:00-24:00\",\"addr:housenumber\"=>\"36\"" }, "geometry": { "type": "Point", "coordinates": [ -1.696442, 53.9048065 ] } },
	{ "type": "Feature", "properties": { "osm_id": "27305438", "name": "Bay Horse", "amenity": "pub", "other_tags": "\"fhrs:id\"=>\"831735\",\"website\"=>\"www.otleypubclub.co.uk\/otley-pubs-present\/the-bay-horse-inn\",\"operator\"=>\"Tetleys\",\"addr:city\"=>\"Otley\",\"is_in:town\"=>\"Otley\",\"addr:street\"=>\"market Place\",\"source:addr\"=>\"FHRS Open Data\",\"addr:country\"=>\"GB\",\"is_in:county\"=>\"West Yorkshire\",\"addr:postcode\"=>\"LS21 1SB\",\"addr:housenumber\"=>\"20\"" }, "geometry": { "type": "Point", "coordinates": [ -1.6936299, 53.9058268 ] } },
	{ "type": "Feature", "properties": { "osm_id": "27305443", "name": "Black Bull", "amenity": "pub", "other_tags": "\"fhrs:id\"=>\"322038\",\"website\"=>\"www.otleypubclub.co.uk\/otley-pubs-present\/the-black-bull\",\"historic\"=>\"pub\",\"addr:city\"=>\"Otley\",\"is_in:town\"=>\"Otley\",\"addr:street\"=>\"Market Place\",\"description\"=>\"Otley's oldest pub, reputedly drunk dry by King's men in Civil War\",\"is_in:county\"=>\"West Yorkshire\",\"addr:postcode\"=>\"LS21 3AQ\"" }, "geometry": { "type": "Point", "coordinates": [ -1.6934391, 53.9053843 ] } },
	{ "type": "Feature", "properties": { "osm_id": "27338381", "name": "Half Moon Inn", "amenity": "pub" }, "geometry": { "type": "Point", "coordinates": [ -1.6290348, 53.9024793 ] } },
	{ "type": "Feature", "properties": { "osm_id": "27441181", "name": "White Swan", "amenity": "pub", "other_tags": "\"fhrs:id\"=>\"831734\",\"website\"=>\"www.otleypubclub.co.uk\/otley-pubs-present\/the-white-swan\",\"is_in:town\"=>\"Otley\",\"addr:street\"=>\"Boroughgate\",\"fixme:addr1\"=>\"68 Boroughgate\",\"is_in:county\"=>\"West Yorkshire\",\"addr:postcode\"=>\"LS21 1AE\",\"addr:housenumber\"=>\"68\"" }, "geometry": { "type": "Point", "coordinates": [ -1.6902951, 53.9059547 ] } },
	{ "type": "Feature", "properties": { "osm_id": "27457036", "name": "Harewood Arms Hotel", "amenity": "pub", "other_tags": "\"fhrs:id\"=>\"319760\",\"addr:street\"=>\"Harrogate Road\",\"source:addr\"=>\"FHRS Open Data\",\"addr:postcode\"=>\"LS17 9LH\"" }, "geometry": { "type": "Point", "coordinates": [ -1.5116311, 53.9013658 ] } },
	{ "type": "Feature", "properties": { "osm_id": "27465047", "name": "Swan & Talbot", "amenity": "pub", "other_tags": "\"addr:housenumber\"=>\"34\",\"addr:postcode\"=>\"LS22 6NN\",\"addr:street\"=>\"North Street\",\"addr:town\"=>\"Wetherby\",\"fhrs:id\"=>\"687629\",\"tourism\"=>\"guest_house\"" }, "geometry": { "type": "Point", "coordinates": [ -1.3851593, 53.9294773 ] } },
	{ "type": "Feature", "properties": { "osm_id": "27475931", "name": "The Royal Oak", "amenity": "pub", "other_tags": "\"fhrs:id\"=>\"702414\",\"tourism\"=>\"bed_and_breakfast\",\"website\"=>\"www.theroyaloakwetherby.co.uk\",\"addr:city\"=>\"Wetherby\",\"addr:street\"=>\"North Street\",\"source:addr\"=>\"FHRS Open Data\",\"addr:postcode\"=>\"LS22 6NR\",\"addr:housenumber\"=>\"60\"" }, "geometry": { "type": "Point", "coordinates": [ -1.3843302, 53.9308259 ] } },
	{ "type": "Feature", "properties": { "osm_id": "27475944", "name": "The Angel", "amenity": "pub" }, "geometry": { "type": "Point", "coordinates": [ -1.3854883, 53.9284149 ] } },
	{ "type": "Feature", "properties": { "osm_id": "27475947", "name": "Black Bull", "amenity": "pub", "other_tags": "\"fhrs:id\"=>\"803041\",\"addr:street\"=>\"Market Place\",\"source:addr\"=>\"FHRS Open Data\",\"addr:postcode\"=>\"LS22 6LN\",\"addr:housenumber\"=>\"53\"" }, "geometry": { "type": "Point", "coordinates": [ -1.3863967, 53.9285555 ] } },
	{ "type": "Feature", "properties": { "osm_id": "27476334", "name": "Crown Inn", "amenity": "pub", "other_tags": "\"addr:housenumber\"=>\"25\",\"addr:postcode\"=>\"LS22 6LR\",\"addr:street\"=>\"High Street\",\"fhrs:id\"=>\"320624\",\"source:addr\"=>\"FHRS Open Data\"" }, "geometry": { "type": "Point", "coordinates": [ -1.3858331, 53.9277289 ] } },
	{ "type": "Feature", "properties": { "osm_id": "27476336", "name": "The Red Lion", "amenity": "pub", "other_tags": "\"addr:housenumber\"=>\"19\",\"addr:postcode\"=>\"LS22 6LR\",\"addr:street\"=>\"High Street\",\"addr:town\"=>\"Wetherby\",\"fhrs:id\"=>\"495540\"" }, "geometry": { "type": "Point", "coordinates": [ -1.3858437, 53.927539 ] } },
	{ "type": "Feature", "properties": { "osm_id": "27492130", "name": "Horse and Farrier", "amenity": "pub", "other_tags": "\"addr:city\"=>\"Otley\",\"addr:country\"=>\"GB\",\"addr:housenumber\"=>\"5\",\"addr:postcode\"=>\"LS21 1BQ\",\"addr:street\"=>\"Bridge Street\",\"fhrs:id\"=>\"371274\",\"is_in:county\"=>\"West Yorkshire\",\"is_in:town\"=>\"Otley\",\"old_name\"=>\"Three Horseshoes\",\"opening_hours\"=>\"Mo-Su 11:00-23:00\",\"website\"=>\"http:\/\/www.otleypubclub.co.uk\/otley-pubs-present\/the-horse-and-farrier\"" }, "geometry": { "type": "Point", "coordinates": [ -1.6937155, 53.906689 ] } },
	{ "type": "Feature", "properties": { "osm_id": "27492466", "name": "The Whitakers", "amenity": "pub", "other_tags": "\"website\"=>\"www.otleypubclub.co.uk\/otley-pubs-present\/whitakers-arms\",\"alt_name\"=>\"Whitakers Arns\",\"addr:city\"=>\"Otley\",\"date_start\"=>\"c1811\",\"is_in:town\"=>\"Otley\",\"addr:street\"=>\"Kirkgate\",\"addr:country\"=>\"GB\",\"is_in:county\"=>\"West Yorkshire\",\"addr:postcode\"=>\"LS21 3HN\",\"addr:housenumber\"=>\"49\"" }, "geometry": { "type": "Point", "coordinates": [ -1.6943761, 53.9047765 ] } },
	{ "type": "Feature", "properties": { "osm_id": "27492467", "name": "Red Lion", "amenity": "pub", "other_tags": "\"fhrs:id\"=>\"926943\",\"website\"=>\"www.otleypubclub.co.uk\/otley-pubs-present\/the-red-lion\",\"addr:city\"=>\"Otley\",\"is_in:town\"=>\"Otley\",\"addr:street\"=>\"Kirkgate\",\"addr:country\"=>\"GB\",\"is_in:county\"=>\"West Yorkshire\",\"addr:postcode\"=>\"LS21 3HN\",\"addr:housenumber\"=>\"47\"" }, "geometry": { "type": "Point", "coordinates": [ -1.6943827, 53.9048674 ] } },
	{ "type": "Feature", "properties": { "osm_id": "27492469", "name": "Otley Tavern", "amenity": "pub", "other_tags": "\"fhrs:id\"=>\"735591\",\"website\"=>\"www.otleypubclub.co.uk\/otley-pubs-present\/the-ring-o-bells\",\"old_name\"=>\"Ring O'Bells\",\"addr:city\"=>\"Otley\",\"is_in:town\"=>\"Otley\",\"local_name\"=>\"Ringers\",\"addr:street\"=>\"New Market\",\"addr:country\"=>\"GB\",\"is_in:county\"=>\"West Yorkshire\",\"addr:postcode\"=>\"LS21 3AE\"" }, "geometry": { "type": "Point", "coordinates": [ -1.693182, 53.9043477 ] } },
	{ "type": "Feature", "properties": { "osm_id": "27557236", "name": "Rose & Crown", "amenity": "pub", "other_tags": "\"website\"=>\"www.roseandcrownotley.co.uk\",\"addr:city\"=>\"Otley\",\"is_in:town\"=>\"Otley\",\"addr:street\"=>\"Bondgate\",\"addr:country\"=>\"GB\",\"is_in:county\"=>\"West Yorkshire\",\"addr:postcode\"=>\"LS21 1AD\",\"addr:housenumber\"=>\"20\"" }, "geometry": { "type": "Point", "coordinates": [ -1.6920894, 53.9041078 ] } },
	{ "type": "Feature", "properties": { "osm_id": "29047760", "name": "White Cross", "amenity": "pub", "other_tags": "\"addr:city\"=>\"Leeds\",\"addr:postcode\"=>\"LS20 8LY\",\"addr:street\"=>\"Otley Road\",\"alt_name\"=>\"The White Cross Hotel\",\"fhrs:id\"=>\"320485\",\"operator\"=>\"Ember Inns\",\"website\"=>\"http:\/\/www.emberinns.co.uk\/the-white-cross-hotel-guiseley\",\"wifi\"=>\"free\"" }, "geometry": { "type": "Point", "coordinates": [ -1.725318, 53.8780413 ] } },
	{ "type": "Feature", "properties": { "osm_id": "29048409", "name": "The Station", "amenity": "pub", "other_tags": "\"fhrs:id\"=>\"818443\",\"addr:city\"=>\"Guiseley\",\"addr:street\"=>\"Otley Road\",\"source:addr\"=>\"FHRS Open Data\",\"addr:postcode\"=>\"LS20 8BH\",\"addr:housenumber\"=>\"70\"" }, "geometry": { "type": "Point", "coordinates": [ -1.7132486, 53.8742006 ] } },
	{ "type": "Feature", "properties": { "osm_id": "29057124", "name": "The New Inn", "amenity": "pub" }, "geometry": { "type": "Point", "coordinates": [ -1.7067611, 53.87536 ] } },
	{ "type": "Feature", "properties": { "osm_id": "29057189", "name": "The Yorkshire Rose", "amenity": "pub", "other_tags": "\"fhrs:id\"=>\"687633\",\"addr:city\"=>\"Guiseley\",\"addr:street\"=>\"Leeds Road\",\"source:addr\"=>\"FHRS Open Data\",\"addr:postcode\"=>\"LS20 9NA\"" }, "geometry": { "type": "Point", "coordinates": [ -1.7072452, 53.8712384 ] } },
	{ "type": "Feature", "properties": { "osm_id": "29064424", "name": "Bridge Inn", "amenity": "pub", "other_tags": "\"website\"=>\"http:\/\/www.kirkstallbridge.co.uk\/\",\"operator\"=>\"Kirkstall Brewery\",\"opening_hours\"=>\"Mo-Th 12:00-23:30; Fr,Sa 12:00-00:30; Su 12:00-23:30\"" }, "geometry": { "type": "Point", "coordinates": [ -1.60668, 53.815986 ] } },
	{ "type": "Feature", "properties": { "osm_id": "30810941", "name": "The New Inn", "amenity": "pub", "other_tags": "\"fhrs:id\"=>\"320595\",\"addr:city\"=>\"Leeds\",\"addr:street\"=>\"Berry Lane\",\"addr:postcode\"=>\"LS26 8AX\"" }, "geometry": { "type": "Point", "coordinates": [ -1.3912291, 53.7607963 ] } },
	{ "type": "Feature", "properties": { "osm_id": "30810948", "name": "The White Swan", "amenity": "pub" }, "geometry": { "type": "Point", "coordinates": [ -1.3708847, 53.7669966 ] } },
	{ "type": "Feature", "properties": { "osm_id": "30810950", "name": "The Moorgate", "amenity": "pub", "other_tags": "\"fhrs:id\"=>\"320589\",\"addr:city\"=>\"Leeds\",\"addr:street\"=>\"Leeds Road\",\"addr:postcode\"=>\"LS25 7EP\"" }, "geometry": { "type": "Point", "coordinates": [ -1.3740205, 53.7738165 ] } },
	{ "type": "Feature", "properties": { "osm_id": "30810961", "name": "Garforth Working Men's Club", "amenity": "pub", "other_tags": "\"addr:city\"=>\"Leeds\",\"addr:housenumber\"=>\"55\",\"addr:postcode\"=>\"LS25 1AU\",\"addr:street\"=>\"Barley Hill Road\",\"fhrs:id\"=>\"467247\"" }, "geometry": { "type": "Point", "coordinates": [ -1.3946446, 53.7922357 ] } },
	{ "type": "Feature", "properties": { "osm_id": "30810963", "name": "The Newmarket Inn", "amenity": "pub", "other_tags": "\"addr:city\"=>\"Leeds\",\"addr:housenumber\"=>\"71\",\"addr:postcode\"=>\"LS25 1AF\",\"addr:street\"=>\"Main Street\",\"fhrs:id\"=>\"322538\"" }, "geometry": { "type": "Point", "coordinates": [ -1.3885275, 53.7945534 ] } },
	{ "type": "Feature", "properties": { "osm_id": "30810974", "name": "The Gascoigne Arms", "amenity": "pub" }, "geometry": { "type": "Point", "coordinates": [ -1.3941264, 53.8318301 ] } },
	{ "type": "Feature", "properties": { "osm_id": "30810980", "name": "The Royal Oak", "amenity": "pub" }, "geometry": { "type": "Point", "coordinates": [ -1.3423336, 53.8347609 ] } },
	{ "type": "Feature", "properties": { "osm_id": "30810997", "name": "The Crown Hotel", "amenity": "pub" }, "geometry": { "type": "Point", "coordinates": [ -1.3489702, 53.9056204 ] } },
	{ "type": "Feature", "properties": { "osm_id": "30820328", "name": "The Beehive", "amenity": "pub", "other_tags": "\"fhrs:id\"=>\"699373\",\"addr:street\"=>\"Main Street\",\"addr:postcode\"=>\"LS14 3BU\"" }, "geometry": { "type": "Point", "coordinates": [ -1.4301132, 53.8547831 ] } },
	{ "type": "Feature", "properties": { "osm_id": "30820332", "name": "The Fox", "amenity": "pub", "other_tags": "\"fhrs:id\"=>\"553209\",\"addr:street\"=>\"Main Street\",\"source:addr\"=>\"FHRS Open Data\",\"addr:postcode\"=>\"LS14 3DX\",\"addr:housenumber\"=>\"37\"" }, "geometry": { "type": "Point", "coordinates": [ -1.4280625, 53.8573306 ] } },
	{ "type": "Feature", "properties": { "osm_id": "30820333", "name": "The Mexborough Arms", "amenity": "pub" }, "geometry": { "type": "Point", "coordinates": [ -1.4265835, 53.8588038 ] } },
	{ "type": "Feature", "properties": { "osm_id": "30822584", "name": "The Templar", "amenity": "pub", "other_tags": "\"addr:city\"=>\"Leeds\",\"addr:housenumber\"=>\"2\",\"addr:postcode\"=>\"LS2 7NU\",\"addr:street\"=>\"Templar Street\",\"fhrs:id\"=>\"486646\",\"old_name\"=>\"The Templars' Inn\",\"source:old_name\"=>\"OS Leeds Sheet 11 Godfrey Edition, 1847\"" }, "geometry": { "type": "Point", "coordinates": [ -1.5392725, 53.8000742 ] } },
	{ "type": "Feature", "properties": { "osm_id": "30822839", "name": "Scarborough Hotel", "amenity": "pub", "other_tags": "\"addr:city\"=>\"Leeds\",\"addr:housenumber\"=>\"3\",\"addr:postcode\"=>\"LS1 5DY\",\"addr:street\"=>\"Bishopgate Street\",\"fhrs:id\"=>\"321498\",\"food\"=>\"yes\",\"real_ale\"=>\"yes\"" }, "geometry": { "type": "Point", "coordinates": [ -1.5463654, 53.7954088 ] } },
	{ "type": "Feature", "properties": { "osm_id": "30822840", "name": "The Head of Steam", "amenity": "pub", "other_tags": "\"addr:city\"=>\"Leeds\",\"addr:postcode\"=>\"LS1 5DQ\",\"addr:street\"=>\"Mill Hill\",\"fhrs:id\"=>\"765498\"" }, "geometry": { "type": "Point", "coordinates": [ -1.5458167, 53.7953226 ] } },
	{ "type": "Feature", "properties": { "osm_id": "30860439", "name": "The Bay Horse", "amenity": "pub", "other_tags": "\"addr:city\"=>\"Wakefield\",\"addr:housenumber\"=>\"42-44\",\"addr:postcode\"=>\"WF3 2HQ\",\"addr:street\"=>\"Bradford Road\",\"fhrs:id\"=>\"879218\"" }, "geometry": { "type": "Point", "coordinates": [ -1.5389155, 53.7206736 ] } },
	{ "type": "Feature", "properties": { "osm_id": "30860451", "name": "Restyle Fitness", "amenity": "pub", "other_tags": "\"addr:city\"=>\"East Ardsley\",\"addr:street\"=>\"Thorpe Road\",\"addr:postcode\"=>\"WF3 2AB\"" }, "geometry": { "type": "Point", "coordinates": [ -1.5389129, 53.7214323 ] } },
	{ "type": "Feature", "properties": { "osm_id": "30860477", "name": "The Bedford Arms", "amenity": "pub" }, "geometry": { "type": "Point", "coordinates": [ -1.5360814, 53.7250127 ] } },
	{ "type": "Feature", "properties": { "osm_id": "30860525", "name": "The Falconers Rest", "amenity": "pub", "other_tags": "\"odbl\"=>\"clean\"" }, "geometry": { "type": "Point", "coordinates": [ -1.5432017, 53.73863 ] } },
	{ "type": "Feature", "properties": { "osm_id": "30860805", "name": "The Tommy Wass", "amenity": "pub" }, "geometry": { "type": "Point", "coordinates": [ -1.5624081, 53.7644258 ] } },
	{ "type": "Feature", "properties": { "osm_id": "30860830", "name": "Dewsbury Road Social Club", "amenity": "pub", "other_tags": "\"fhrs:id\"=>\"466960\",\"addr:city\"=>\"Leeds\",\"addr:street\"=>\"Dewsbury Road\",\"addr:postcode\"=>\"LS11 5LR\",\"addr:housenumber\"=>\"393\"" }, "geometry": { "type": "Point", "coordinates": [ -1.5501704, 53.7702099 ] } },
	{ "type": "Feature", "properties": { "osm_id": "44969926", "name": "The Victoria Family and Commercial Hotel", "amenity": "pub", "other_tags": "\"food\"=>\"yes\",\"real_ale\"=>\"yes\",\"beer_garden\"=>\"no\"" }, "geometry": { "type": "Point", "coordinates": [ -1.5499957, 53.8008347 ] } },
	{ "type": "Feature", "properties": { "osm_id": "48978333", "name": "The Three Legs", "amenity": "pub", "other_tags": "\"addr:city\"=>\"Leeds\",\"addr:housenumber\"=>\"11\",\"addr:postcode\"=>\"LS1 6PU\",\"addr:street\"=>\"The Headrow\",\"fhrs:id\"=>\"841410\"" }, "geometry": { "type": "Point", "coordinates": [ -1.5405265, 53.7988116 ] } },
	{ "type": "Feature", "properties": { "osm_id": "48978335", "name": "The Horse And Trumpet", "amenity": "pub", "other_tags": "\"addr:city\"=>\"Leeds\",\"addr:housenumber\"=>\"51-53\",\"addr:postcode\"=>\"LS1 6LR\",\"addr:street\"=>\"The Headrow\",\"fhrs:id\"=>\"323293\"" }, "geometry": { "type": "Point", "coordinates": [ -1.5425625, 53.7990338 ] } },
	{ "type": "Feature", "properties": { "osm_id": "51342173", "name": "The Hyde Park", "amenity": "pub", "other_tags": "\"addr:city\"=>\"Leeds\",\"addr:housenumber\"=>\"2\",\"addr:postcode\"=>\"LS6 2AS\",\"addr:street\"=>\"Headingley Lane\",\"fhrs:id\"=>\"323335\"" }, "geometry": { "type": "Point", "coordinates": [ -1.5616882, 53.8148919 ] } },
	{ "type": "Feature", "properties": { "osm_id": "52056944", "name": "The Red Lion", "amenity": "pub" }, "geometry": { "type": "Point", "coordinates": [ -1.5424824, 53.7945085 ] } },
	{ "type": "Feature", "properties": { "osm_id": "52167314", "name": "The Lounge", "amenity": "pub", "other_tags": "\"old_name\"=>\"St Johns House\",\"real_ale\"=>\"no\"" }, "geometry": { "type": "Point", "coordinates": [ -1.5419748, 53.80046 ] } },
	{ "type": "Feature", "properties": { "osm_id": "52678104", "name": "The Hobby Horse", "amenity": "pub" }, "geometry": { "type": "Point", "coordinates": [ -1.5390507, 53.8045892 ] } },
	{ "type": "Feature", "properties": { "osm_id": "52745037", "name": "The Adelphi", "amenity": "pub", "other_tags": "\"addr:city\"=>\"Leeds\",\"addr:postcode\"=>\"LS10 1JQ\",\"addr:street\"=>\"Hunslet Road\",\"fhrs:id\"=>\"321212\"" }, "geometry": { "type": "Point", "coordinates": [ -1.5409774, 53.7933039 ] } },
	{ "type": "Feature", "properties": { "osm_id": "53358766", "name": "The Highland Inn", "amenity": "pub" }, "geometry": { "type": "Point", "coordinates": [ -1.5617992, 53.7999462 ] } },
	{ "type": "Feature", "properties": { "osm_id": "59179413", "name": "The Blooming Rose", "amenity": "pub", "other_tags": "\"real_ale\"=>\"no\",\"addr:postcode\"=>\"LS11 5NX\",\"addr:housenumber\"=>\"19\"" }, "geometry": { "type": "Point", "coordinates": [ -1.5416967, 53.7794954 ] } },
	{ "type": "Feature", "properties": { "osm_id": "59989936", "name": "Halfway House", "amenity": "pub", "other_tags": "\"addr:city\"=>\"Leeds\",\"addr:housenumber\"=>\"727\",\"addr:postcode\"=>\"LS28 6PE\",\"addr:street\"=>\"Leeds And Bradford Road\",\"fhrs:id\"=>\"937223\"" }, "geometry": { "type": "Point", "coordinates": [ -1.6515102, 53.8098355 ] } },
	{ "type": "Feature", "properties": { "osm_id": "84445335", "name": "The Leeds Rifleman", "amenity": "pub", "other_tags": "\"addr:city\"=>\"Leeds\",\"addr:housenumber\"=>\"1-3\",\"addr:postcode\"=>\"LS7 1HA\",\"addr:street\"=>\"Carlton Parade\",\"fhrs:id\"=>\"466929\"" }, "geometry": { "type": "Point", "coordinates": [ -1.5421716, 53.80676 ] } },
	{ "type": "Feature", "properties": { "osm_id": "84455594", "name": "O'Neill's", "amenity": "pub" }, "geometry": { "type": "Point", "coordinates": [ -1.5493899, 53.8008604 ] } },
	{ "type": "Feature", "properties": { "osm_id": "84455596", "name": "The George", "amenity": "pub", "other_tags": "\"addr:city\"=>\"Leeds\",\"addr:housenumber\"=>\"69\",\"addr:postcode\"=>\"LS1 3BB\",\"addr:street\"=>\"Great George Street\",\"fhrs:id\"=>\"812314\"" }, "geometry": { "type": "Point", "coordinates": [ -1.5525134, 53.8010402 ] } },
	{ "type": "Feature", "properties": { "osm_id": "84455603", "name": "Town Hall Tavern", "amenity": "pub", "other_tags": "\"addr:postcode\"=>\"LS1 2RA\",\"beer_garden\"=>\"no\",\"fhrs:id\"=>\"632698\",\"food\"=>\"yes\",\"operator\"=>\"Timothy Taylors\",\"phone\"=>\"+44 113 244 0765\",\"real_ale\"=>\"yes\",\"website\"=>\"http:\/\/www.townhalltavernleeds.co.uk\/\"" }, "geometry": { "type": "Point", "coordinates": [ -1.5513647, 53.7995127 ] } },
	{ "type": "Feature", "properties": { "osm_id": "84455613", "name": "Whitelocks", "amenity": "pub", "other_tags": "\"addr:city\"=>\"Leeds\",\"addr:housenumber\"=>\"6-8\",\"addr:postcode\"=>\"LS1 6HB\",\"addr:street\"=>\"Turks Head Yard\",\"beer_garden\"=>\"yes\",\"fhrs:id\"=>\"428959\",\"food\"=>\"yes\",\"old_name\"=>\"The Turk's Head Inn\",\"phone\"=>\"+44 113 245 3950\",\"real_ale\"=>\"yes\",\"source:old_name\"=>\"OS Leeds Sheet 11 Godfrey Edition, 1847\"" }, "geometry": { "type": "Point", "coordinates": [ -1.5428815, 53.7971655 ] } },
	{ "type": "Feature", "properties": { "osm_id": "127960333", "name": "The Chemic Tavern", "amenity": "pub", "other_tags": "\"fhrs:id\"=>\"741911\",\"addr:city\"=>\"Leeds\",\"addr:street\"=>\"Johnston Street\",\"source:addr\"=>\"FHRS Open Data\",\"addr:postcode\"=>\"LS6 2NG\",\"addr:housenumber\"=>\"9 - 11\"" }, "geometry": { "type": "Point", "coordinates": [ -1.552881, 53.8145142 ] } },
	{ "type": "Feature", "properties": { "osm_id": "151406549", "name": "The Fox and Newt", "amenity": "pub", "other_tags": "\"addr:city\"=>\"Leeds\",\"addr:housenumber\"=>\"7-9\",\"addr:postcode\"=>\"LS3 1LD\",\"addr:street\"=>\"Burley Street\",\"fhrs:id\"=>\"323462\",\"food\"=>\"yes\",\"microbrewery\"=>\"yes\",\"real_ale\"=>\"yes\"" }, "geometry": { "type": "Point", "coordinates": [ -1.5594777, 53.7999774 ] } },
	{ "type": "Feature", "properties": { "osm_id": "153767795", "name": "Arcadia", "amenity": "pub", "other_tags": "\"addr:housename\"=>\"34 ARNDALE CENTRE\",\"addr:postcode\"=>\"LS6 2UE\",\"addr:street\"=>\"Otley Road\",\"fhrs:id\"=>\"321216\",\"real_ale\"=>\"yes\",\"website\"=>\"http:\/\/www.markettowntaverns.co.uk\/arcadia.asp?Tavern=Arcadia&Section=Main\",\"wifi\"=>\"yes\"" }, "geometry": { "type": "Point", "coordinates": [ -1.5789641, 53.8228025 ] } },
	{ "type": "Feature", "properties": { "osm_id": "180338997", "name": "The Lord Darcy", "amenity": "pub", "other_tags": "\"addr:city\"=>\"Leeds\",\"addr:postcode\"=>\"LS17 8EH\",\"addr:street\"=>\"Harrogate Road\",\"fhrs:id\"=>\"321674\",\"operator\"=>\"Greene King\",\"real_ale\"=>\"yes\"" }, "geometry": { "type": "Point", "coordinates": [ -1.530169, 53.856308 ] } },
	{ "type": "Feature", "properties": { "osm_id": "245070064", "name": "The Head of Steam", "amenity": "pub", "other_tags": "\"addr:city\"=>\"Leeds\",\"addr:housenumber\"=>\"11-13\",\"addr:postcode\"=>\"LS6 3HG\",\"addr:street\"=>\"North Lane\",\"fhrs:id\"=>\"899504\",\"old_name\"=>\"Citrus\",\"real_ale\"=>\"yes\"" }, "geometry": { "type": "Point", "coordinates": [ -1.5788089, 53.8209584 ] } },
	{ "type": "Feature", "properties": { "osm_id": "249297538", "name": "The Cross Green", "amenity": "pub" }, "geometry": { "type": "Point", "coordinates": [ -1.522941, 53.7894833 ] } },
	{ "type": "Feature", "properties": { "osm_id": "249310902", "name": "Becketts Bank", "amenity": "pub", "other_tags": "\"addr:city\"=>\"Leeds\",\"addr:housenumber\"=>\"28\",\"addr:postcode\"=>\"LS1 5HU\",\"addr:street\"=>\"Park Row\",\"fhrs:id\"=>\"320050\",\"food\"=>\"yes\",\"opening_hours\"=>\"08:00-24:00; Th,Fr 08:00-01:00\",\"operator\"=>\"Wetherspoons\",\"phone\"=>\"+44 113 394 5900\",\"real_ale\"=>\"yes\",\"smoking\"=>\"no\",\"website\"=>\"https:\/\/www.jdwetherspoon.com\/pubs\/all-pubs\/england\/west-yorkshire\/becketts-bank-leeds\"" }, "geometry": { "type": "Point", "coordinates": [ -1.5472688, 53.7985791 ] } },
	{ "type": "Feature", "properties": { "osm_id": "250142926", "name": "The Royal", "amenity": "pub", "other_tags": "\"addr:housenumber\"=>\"2\",\"addr:postcode\"=>\"LS27 8JW\",\"addr:street\"=>\"Station Road\",\"fhrs:id\"=>\"322586\",\"old_name\"=>\"The Last Orders\"" }, "geometry": { "type": "Point", "coordinates": [ -1.6018079, 53.7490197 ] } },
	{ "type": "Feature", "properties": { "osm_id": "250142929", "name": "The Miner's Arms", "amenity": "pub", "other_tags": "\"addr:city\"=>\"Leeds\",\"addr:housenumber\"=>\"107\",\"addr:postcode\"=>\"LS27 8LG\",\"addr:street\"=>\"Albert Road\",\"fhrs:id\"=>\"877761\",\"wheelchair\"=>\"limited\"" }, "geometry": { "type": "Point", "coordinates": [ -1.5932336, 53.7480041 ] } },
	{ "type": "Feature", "properties": { "osm_id": "250220081", "name": "Nation Of Shopkeepers", "amenity": "pub", "other_tags": "\"addr:city\"=>\"Leeds\",\"addr:housenumber\"=>\"29-35\",\"addr:postcode\"=>\"LS2 3AG\",\"addr:street\"=>\"Great George Street\",\"fhrs:id\"=>\"323060\",\"wifi\"=>\"free\"" }, "geometry": { "type": "Point", "coordinates": [ -1.547584, 53.800711 ] } },
	{ "type": "Feature", "properties": { "osm_id": "250225357", "name": "Viaduct Showbar", "amenity": "pub", "other_tags": "\"gay\"=>\"yes\"" }, "geometry": { "type": "Point", "coordinates": [ -1.5426851, 53.7950322 ] } },
	{ "type": "Feature", "properties": { "osm_id": "250250973", "name": "The Malt Shovel", "amenity": "pub", "other_tags": "\"addr:city\"=>\"Leeds\",\"addr:housenumber\"=>\"21\",\"addr:postcode\"=>\"LS12 3AG\",\"addr:street\"=>\"Crab Lane\",\"fhrs:id\"=>\"321272\"" }, "geometry": { "type": "Point", "coordinates": [ -1.58825, 53.7974398 ] } },
	{ "type": "Feature", "properties": { "osm_id": "250291549", "name": "Mr Foley's", "amenity": "pub", "other_tags": "\"addr:housenumber\"=>\"159\",\"addr:postcode\"=>\"LS1 5RG\",\"beer_garden\"=>\"no\",\"fhrs:id\"=>\"471174\",\"food\"=>\"yes\",\"old_name\"=>\"Baroque\",\"operator\"=>\"York Brewery\",\"phone\"=>\"+44 113 242 9674\",\"real_ale\"=>\"yes\"" }, "geometry": { "type": "Point", "coordinates": [ -1.5489426, 53.799432 ] } },
	{ "type": "Feature", "properties": { "osm_id": "250557408", "name": "Pack Horse Inn", "amenity": "pub", "other_tags": "\"addr:city\"=>\"Leeds\",\"addr:postcode\"=>\"LS1 6AT\",\"addr:street\"=>\"Pack Horse Yard\",\"beer_garden\"=>\"yes\",\"fhrs:id\"=>\"959758\",\"real_ale\"=>\"yes\"" }, "geometry": { "type": "Point", "coordinates": [ -1.5430331, 53.7975608 ] } },
	{ "type": "Feature", "properties": { "osm_id": "250557410", "name": "Ship Inn", "amenity": "pub", "other_tags": "\"addr:housenumber\"=>\"71a\",\"addr:postcode\"=>\"LS1 6LH\",\"addr:street\"=>\"Briggate\",\"fhrs:id\"=>\"322513\",\"real_ale\"=>\"yes\",\"website\"=>\"http:\/\/www.theshipleeds.co.uk\/\"" }, "geometry": { "type": "Point", "coordinates": [ -1.5428131, 53.7982704 ] } },
	{ "type": "Feature", "properties": { "osm_id": "267012631", "name": "Black Swan", "amenity": "pub", "other_tags": "\"fhrs:id\"=>\"320567\",\"addr:street\"=>\"The Cross\",\"source:addr\"=>\"FHRS Open Data\",\"addr:postcode\"=>\"LS15 4JP\",\"addr:housenumber\"=>\"7\"" }, "geometry": { "type": "Point", "coordinates": [ -1.3934158, 53.8318564 ] } },
	{ "type": "Feature", "properties": { "osm_id": "268100242", "name": "Hudson's Bar", "amenity": "pub", "other_tags": "\"tourism\"=>\"chalet\"" }, "geometry": { "type": "Point", "coordinates": [ -1.76905, 53.8680427 ] } },
	{ "type": "Feature", "properties": { "osm_id": "270337149", "name": "The Albert", "amenity": "pub", "other_tags": "\"addr:city\"=>\"Yeadon\",\"addr:housenumber\"=>\"81\",\"addr:street\"=>\"High Street\",\"phone\"=>\"+44 7525 749925\"" }, "geometry": { "type": "Point", "coordinates": [ -1.6802001, 53.8663586 ] } },
	{ "type": "Feature", "properties": { "osm_id": "272096936", "name": "The Hope Inn", "amenity": "pub", "other_tags": "\"addr:city\"=>\"Leeds\",\"addr:housename\"=>\"74\",\"addr:postcode\"=>\"LS9 8ES\",\"addr:street\"=>\"York Road\",\"fhrs:id\"=>\"320353\"" }, "geometry": { "type": "Point", "coordinates": [ -1.523563, 53.7975923 ] } },
	{ "type": "Feature", "properties": { "osm_id": "288338336", "name": "The Bridge", "amenity": "pub", "other_tags": "\"addr:city\"=>\"Leeds\",\"addr:postcode\"=>\"LS1 7HG\",\"addr:street\"=>\"Bridge End\",\"fhrs:id\"=>\"319575\",\"gay\"=>\"yes\"" }, "geometry": { "type": "Point", "coordinates": [ -1.5420643, 53.7944327 ] } },
	{ "type": "Feature", "properties": { "osm_id": "288347975", "name": "The Old White Hart", "amenity": "pub", "other_tags": "\"addr:city\"=>\"Leeds\",\"addr:housenumber\"=>\"45\",\"addr:postcode\"=>\"LS11 8BZ\",\"addr:street\"=>\"Town Street\",\"fhrs:id\"=>\"322845\"" }, "geometry": { "type": "Point", "coordinates": [ -1.5677832, 53.772267 ] } },
	{ "type": "Feature", "properties": { "osm_id": "288347977", "name": "The Whistlestop", "amenity": "pub", "other_tags": "\"addr:city\"=>\"Leeds\",\"addr:postcode\"=>\"LS11 8DG\",\"addr:street\"=>\"Town Street\",\"fhrs:id\"=>\"997542\"" }, "geometry": { "type": "Point", "coordinates": [ -1.5727599, 53.7714829 ] } },
	{ "type": "Feature", "properties": { "osm_id": "288347984", "name": "The New Inn", "amenity": "pub" }, "geometry": { "type": "Point", "coordinates": [ -1.545545, 53.774859 ] } },
	{ "type": "Feature", "properties": { "osm_id": "288493113", "name": "Swillington Miners Welfare Club and Institute", "amenity": "pub", "other_tags": "\"addr:city\"=>\"Leeds\",\"addr:postcode\"=>\"LS26 8DT\",\"addr:street\"=>\"Wakefield Road\",\"fhrs:id\"=>\"320599\"" }, "geometry": { "type": "Point", "coordinates": [ -1.4197038, 53.7671438 ] } },
	{ "type": "Feature", "properties": { "osm_id": "292050105", "name": "Moorhouse Inn", "amenity": "pub", "other_tags": "\"food\"=>\"no\",\"brewery\"=>\"samuel_smith\",\"fhrs:id\"=>\"467042\",\"real_ale\"=>\"yes\",\"addr:city\"=>\"Leeds\",\"addr:street\"=>\"Moor Crescent\",\"beer_garden\"=>\"yes\",\"addr:postcode\"=>\"LS11 5NQ\"" }, "geometry": { "type": "Point", "coordinates": [ -1.5435347, 53.7814308 ] } },
	{ "type": "Feature", "properties": { "osm_id": "292050107", "name": "Spinning Wheel", "amenity": "pub", "other_tags": "\"fhrs:id\"=>\"319509\",\"addr:city\"=>\"Leeds\",\"addr:street\"=>\"Admiral Street\",\"addr:postcode\"=>\"LS11 5NG\"" }, "geometry": { "type": "Point", "coordinates": [ -1.5438832, 53.7819363 ] } },
	{ "type": "Feature", "properties": { "osm_id": "292070347", "name": "The Regent", "amenity": "pub", "other_tags": "\"fhrs:id\"=>\"495543\",\"operator\"=>\"Original Pub Company\",\"real_ale\"=>\"yes\",\"addr:street\"=>\"Regent Street\",\"fixme:addr3\"=>\"Leeds\",\"source:addr\"=>\"FHRS Open Data\",\"addr:postcode\"=>\"LS7 4PE\",\"addr:housenumber\"=>\"15 - 17\"" }, "geometry": { "type": "Point", "coordinates": [ -1.536785, 53.830343 ] } },
	{ "type": "Feature", "properties": { "osm_id": "294182573", "name": "East & West Ardsley Social Club", "amenity": "pub", "other_tags": "\"addr:city\"=>\"Wakefield\",\"addr:postcode\"=>\"WF3 2EP\",\"addr:street\"=>\"Common Lane\",\"fhrs:id\"=>\"736976\"" }, "geometry": { "type": "Point", "coordinates": [ -1.5522962, 53.7276898 ] } },
	{ "type": "Feature", "properties": { "osm_id": "295769462", "name": "The Hare and Hounds", "amenity": "pub" }, "geometry": { "type": "Point", "coordinates": [ -1.5802548, 53.7163546 ] } },
	{ "type": "Feature", "properties": { "osm_id": "295769764", "name": "The British Oak", "amenity": "pub", "other_tags": "\"addr:housenumber\"=>\"407\",\"addr:postcode\"=>\"WF3 1AF\",\"addr:street\"=>\"Westerton Road\",\"fhrs:id\"=>\"639205\"" }, "geometry": { "type": "Point", "coordinates": [ -1.5762929, 53.7239023 ] } },
	{ "type": "Feature", "properties": { "osm_id": "296022263", "name": "The Old Unicorn", "amenity": "pub", "other_tags": "\"real_ale\"=>\"yes\"" }, "geometry": { "type": "Point", "coordinates": [ -1.6274821, 53.8109134 ] } },
	{ "type": "Feature", "properties": { "osm_id": "296490745", "name": "The Railway", "amenity": "pub" }, "geometry": { "type": "Point", "coordinates": [ -1.5431914, 53.7320997 ] } },
	{ "type": "Feature", "properties": { "osm_id": "297118284", "name": "The Crown Inn", "amenity": "pub" }, "geometry": { "type": "Point", "coordinates": [ -1.656092, 53.7977286 ] } },
	{ "type": "Feature", "properties": { "osm_id": "297118291", "name": "Masons Arms", "amenity": "pub" }, "geometry": { "type": "Point", "coordinates": [ -1.6597818, 53.7975307 ] } },
	{ "type": "Feature", "properties": { "osm_id": "297118295", "name": "Bojangles", "amenity": "pub", "other_tags": "\"addr:housenumber\"=>\"28-30\",\"addr:postcode\"=>\"LS28 7AA\",\"addr:street\"=>\"Lowtown\",\"addr:town\"=>\"Pudsey\",\"fhrs:id\"=>\"321201\"" }, "geometry": { "type": "Point", "coordinates": [ -1.6614069, 53.7972762 ] } },
	{ "type": "Feature", "properties": { "osm_id": "297118297", "name": "Cellar V", "amenity": "pub" }, "geometry": { "type": "Point", "coordinates": [ -1.6621236, 53.7967951 ] } },
	{ "type": "Feature", "properties": { "osm_id": "297118300", "name": "Crossed Shuttle", "amenity": "pub", "other_tags": "\"addr:postcode\"=>\"LS28 7BJ\",\"addr:street\"=>\"Manor House Street\",\"addr:town\"=>\"Pudsey\",\"fhrs:id\"=>\"323206\"" }, "geometry": { "type": "Point", "coordinates": [ -1.6619569, 53.7965409 ] } },
	{ "type": "Feature", "properties": { "osm_id": "297118475", "name": "Butchers Arms", "amenity": "pub", "other_tags": "\"addr:housenumber\"=>\"30\",\"addr:postcode\"=>\"LS28 7RF\",\"addr:street\"=>\"Church Lane\",\"addr:town\"=>\"Pudsey\",\"fhrs:id\"=>\"320429\"" }, "geometry": { "type": "Point", "coordinates": [ -1.6642417, 53.7954852 ] } },
	{ "type": "Feature", "properties": { "osm_id": "298127842", "name": "West Hunslet Conservative Club", "amenity": "pub" }, "geometry": { "type": "Point", "coordinates": [ -1.5455096, 53.7782221 ] } },
	{ "type": "Feature", "properties": { "osm_id": "299171005", "name": "Viva Cuba", "amenity": "pub" }, "geometry": { "type": "Point", "coordinates": [ -1.5456161, 53.8031653 ] } },
	{ "type": "Feature", "properties": { "osm_id": "300010590", "name": "Painters Arms", "amenity": "pub", "other_tags": "\"food\"=>\"yes\",\"real_ale\"=>\"yes\",\"beer_garden\"=>\"yes\"" }, "geometry": { "type": "Point", "coordinates": [ -1.6637832, 53.7573947 ] } },
	{ "type": "Feature", "properties": { "osm_id": "300706757", "name": "The Gildersome Arms", "amenity": "pub" }, "geometry": { "type": "Point", "coordinates": [ -1.6198242, 53.7561699 ] } },
	{ "type": "Feature", "properties": { "osm_id": "301022530", "name": "The Cardigan Arms", "amenity": "pub", "other_tags": "\"addr:city\"=>\"Leeds\",\"addr:country\"=>\"GB\",\"addr:housenumber\"=>\"364\",\"addr:postcode\"=>\"LS4 2HQ\",\"addr:street\"=>\"Kirkstall Road\"" }, "geometry": { "type": "Point", "coordinates": [ -1.5826388, 53.8064929 ] } },
	{ "type": "Feature", "properties": { "osm_id": "301285315", "name": "The Sports Cafe", "amenity": "pub" }, "geometry": { "type": "Point", "coordinates": [ -1.5472872, 53.7994228 ] } },
	{ "type": "Feature", "properties": { "osm_id": "301687715", "name": "The Picturehouse", "amenity": "pub", "other_tags": "\"addr:city\"=>\"Leeds\",\"addr:housenumber\"=>\"82-90\",\"addr:postcode\"=>\"LS2 8LW\",\"addr:street\"=>\"Merrion Street\",\"fhrs:id\"=>\"319960\",\"old_name\"=>\"Edwards\",\"operator\"=>\"Crown Carveries\"" }, "geometry": { "type": "Point", "coordinates": [ -1.5443427, 53.8009494 ] } },
	{ "type": "Feature", "properties": { "osm_id": "302323964", "name": "The New Scarborough", "amenity": "pub", "other_tags": "\"addr:city\"=>\"Wakefield\",\"addr:postcode\"=>\"WF3 1LH\",\"addr:street\"=>\"Dewsbury Road\",\"fhrs:id\"=>\"559042\"" }, "geometry": { "type": "Point", "coordinates": [ -1.5799041, 53.729646 ] } },
	{ "type": "Feature", "properties": { "osm_id": "302324064", "name": "Tingley Working Mens Club & Institute", "amenity": "pub", "other_tags": "\"addr:city\"=>\"Leeds\",\"addr:postcode\"=>\"WF3 1JZ\",\"addr:street\"=>\"Bradford Road\",\"fhrs:id\"=>\"467327\"" }, "geometry": { "type": "Point", "coordinates": [ -1.5797478, 53.7315602 ] } },
	{ "type": "Feature", "properties": { "osm_id": "302326233", "name": "East Ardsley Conservative Club", "amenity": "pub", "other_tags": "\"addr:city\"=>\"Wakefield\",\"addr:postcode\"=>\"WF3 2AA\",\"addr:street\"=>\"Chapel Street\",\"fhrs:id\"=>\"323537\"" }, "geometry": { "type": "Point", "coordinates": [ -1.5400748, 53.721646 ] } },
	{ "type": "Feature", "properties": { "osm_id": "303791391", "name": "Carlton Social Club", "amenity": "pub", "other_tags": "\"addr:city\"=>\"Leeds\",\"addr:postcode\"=>\"WF3 3RW\",\"addr:street\"=>\"Main Street\",\"fhrs:id\"=>\"467333\"" }, "geometry": { "type": "Point", "coordinates": [ -1.4893304, 53.7410387 ] } },
	{ "type": "Feature", "properties": { "osm_id": "303791393", "name": "The Unicorn Inn", "amenity": "pub", "other_tags": "\"addr:city\"=>\"Leeds\",\"addr:postcode\"=>\"WF3 3RW\",\"addr:street\"=>\"Main Street\",\"fhrs:id\"=>\"626771\"" }, "geometry": { "type": "Point", "coordinates": [ -1.4888807, 53.7410242 ] } },
	{ "type": "Feature", "properties": { "osm_id": "304898251", "name": "Varsity", "amenity": "pub" }, "geometry": { "type": "Point", "coordinates": [ -1.544803, 53.8012776 ] } },
	{ "type": "Feature", "properties": { "osm_id": "305027394", "name": "Walkabout", "amenity": "pub" }, "geometry": { "type": "Point", "coordinates": [ -1.5467522, 53.8026501 ] } },
	{ "type": "Feature", "properties": { "osm_id": "313099976", "name": "Wetherspoons", "amenity": "pub", "other_tags": "\"addr:city\"=>\"Leeds\",\"addr:housename\"=>\"City Station\",\"addr:postcode\"=>\"LS1 4DT\",\"addr:street\"=>\"New Station Street\",\"fhrs:id\"=>\"321009\",\"wheelchair\"=>\"yes\"" }, "geometry": { "type": "Point", "coordinates": [ -1.5486597, 53.7957046 ] } },
	{ "type": "Feature", "properties": { "osm_id": "313194447", "amenity": "pub" }, "geometry": { "type": "Point", "coordinates": [ -1.5721565, 53.7973137 ] } },
	{ "type": "Feature", "properties": { "osm_id": "316814433", "name": "Oracle", "amenity": "pub", "other_tags": "\"addr:city\"=>\"Leeds\",\"addr:housenumber\"=>\"3\",\"addr:postcode\"=>\"LS10 1NE\",\"addr:street\"=>\"Brewery Place\",\"fhrs:id\"=>\"415518\"" }, "geometry": { "type": "Point", "coordinates": [ -1.5377516, 53.7938846 ] } },
	{ "type": "Feature", "properties": { "osm_id": "317087712", "name": "AzÃºcar Tequila & Rum Bar", "amenity": "pub", "other_tags": "\"addr:city\"=>\"Leeds\",\"addr:housenumber\"=>\"5\",\"addr:postcode\"=>\"LS10 1NE\",\"addr:street\"=>\"Brewery Place\",\"contact:website\"=>\"http:\/\/www.azucarbar.co.uk\",\"fhrs:id\"=>\"706390\",\"phone\"=>\"+44 113 243 5761\",\"website\"=>\"www.azucarbar.co.uk\"" }, "geometry": { "type": "Point", "coordinates": [ -1.5372528, 53.7936848 ] } },
	{ "type": "Feature", "properties": { "osm_id": "317087718", "name": "The Waterfront", "amenity": "pub", "other_tags": "\"addr:city\"=>\"Leeds\",\"addr:street\"=>\"Brewery Place\",\"addr:housenumber\"=>\"4\"" }, "geometry": { "type": "Point", "coordinates": [ -1.5374996, 53.7938951 ] } },
	{ "type": "Feature", "properties": { "osm_id": "317430855", "name": "Editor's Draught", "amenity": "pub", "other_tags": "\"addr:city\"=>\"Leeds\",\"addr:housenumber\"=>\"88\",\"addr:postcode\"=>\"LS1 4LT\",\"addr:street\"=>\"Wellington Street\",\"fhrs:id\"=>\"1007012\",\"old_name\"=>\"The Phoenix Gastro Bar;The Central\"" }, "geometry": { "type": "Point", "coordinates": [ -1.5551927, 53.7968224 ] } },
	{ "type": "Feature", "properties": { "osm_id": "319130545", "name": "Aire Bar", "amenity": "pub", "other_tags": "\"addr:city\"=>\"Leeds\",\"addr:housenumber\"=>\"32\",\"addr:postcode\"=>\"LS2 7EW\",\"addr:street\"=>\"The Calls\",\"fhrs:id\"=>\"321207\",\"phone\"=>\"+44 113 245 5500\",\"website\"=>\"www.airebar.co.uk\"" }, "geometry": { "type": "Point", "coordinates": [ -1.5390881, 53.7948578 ] } },
	{ "type": "Feature", "properties": { "osm_id": "320951168", "name": "Superna", "amenity": "pub" }, "geometry": { "type": "Point", "coordinates": [ -1.5391479, 53.7957004 ] } },
	{ "type": "Feature", "properties": { "osm_id": "320951169", "name": "Chilli White", "amenity": "pub" }, "geometry": { "type": "Point", "coordinates": [ -1.5395913, 53.7956941 ] } },
	{ "type": "Feature", "properties": { "osm_id": "320951171", "name": "Fracqture", "amenity": "pub" }, "geometry": { "type": "Point", "coordinates": [ -1.5393285, 53.7954938 ] } },
	{ "type": "Feature", "properties": { "osm_id": "320998149", "name": "Milo", "amenity": "pub", "other_tags": "\"addr:city\"=>\"Leeds\",\"addr:housenumber\"=>\"10-12\",\"addr:postcode\"=>\"LS1 6DN\",\"addr:street\"=>\"Call Lane\",\"fhrs:id\"=>\"845718\"" }, "geometry": { "type": "Point", "coordinates": [ -1.5401096, 53.7964295 ] } },
	{ "type": "Feature", "properties": { "osm_id": "321004601", "name": "The Regent", "amenity": "pub", "other_tags": "\"addr:city\"=>\"Leeds\",\"addr:housenumber\"=>\"109\",\"addr:postcode\"=>\"LS1 6DP\",\"addr:street\"=>\"Kirkgate\",\"fhrs:id\"=>\"632697\"" }, "geometry": { "type": "Point", "coordinates": [ -1.5400366, 53.796596 ] } },
	{ "type": "Feature", "properties": { "osm_id": "323974629", "name": "The White Swan", "amenity": "pub", "other_tags": "\"fhrs:id\"=>\"321908\",\"addr:city\"=>\"Leeds\",\"addr:street\"=>\"Church Street\",\"addr:postcode\"=>\"LS26 0QL\"" }, "geometry": { "type": "Point", "coordinates": [ -1.4802697, 53.7495878 ] } },
	{ "type": "Feature", "properties": { "osm_id": "325227284", "name": "The Nags Head", "amenity": "pub", "other_tags": "\"addr:city\"=>\"Leeds\",\"addr:housenumber\"=>\"20\",\"addr:postcode\"=>\"LS7 4NB\",\"addr:street\"=>\"Town Street\",\"fhrs:id\"=>\"467134\"" }, "geometry": { "type": "Point", "coordinates": [ -1.5368441, 53.8287484 ] } },
	{ "type": "Feature", "properties": { "osm_id": "330071189", "name": "The Royal Hotel", "amenity": "pub" }, "geometry": { "type": "Point", "coordinates": [ -1.5916397, 53.7967009 ] } },
	{ "type": "Feature", "properties": { "osm_id": "330071198", "name": "The White Horse", "amenity": "pub" }, "geometry": { "type": "Point", "coordinates": [ -1.5930071, 53.7964244 ] } },
	{ "type": "Feature", "properties": { "osm_id": "330089276", "name": "Denison Hall Social Club", "amenity": "pub" }, "geometry": { "type": "Point", "coordinates": [ -1.5922674, 53.7966088 ] } },
	{ "type": "Feature", "properties": { "osm_id": "332076172", "name": "Hark To Rover", "amenity": "pub", "other_tags": "\"disused\"=>\"yes\"" }, "geometry": { "type": "Point", "coordinates": [ -1.6057487, 53.8271368 ] } },
	{ "type": "Feature", "properties": { "osm_id": "333442544", "name": "Angel Inn", "amenity": "pub", "other_tags": "\"addr:postcode\"=>\"LS1 6LN\",\"addr:street\"=>\"Angel Inn Yard\",\"fhrs:id\"=>\"320876\"" }, "geometry": { "type": "Point", "coordinates": [ -1.5429962, 53.79804 ] } },
	{ "type": "Feature", "properties": { "osm_id": "333452833", "name": "Bad Apples", "amenity": "pub", "other_tags": "\"addr:city\"=>\"Leeds\",\"addr:housenumber\"=>\"7\",\"addr:postcode\"=>\"LS1 7DH\",\"addr:street\"=>\"Call Lane\",\"fhrs:id\"=>\"537078\"" }, "geometry": { "type": "Point", "coordinates": [ -1.5398603, 53.7963581 ] } },
	{ "type": "Feature", "properties": { "osm_id": "333452843", "name": "Fibre", "amenity": "pub", "other_tags": "\"addr:city\"=>\"Leeds\",\"addr:housenumber\"=>\"168-169\",\"addr:postcode\"=>\"LS1 6LY\",\"addr:street\"=>\"Briggate\",\"fhrs:id\"=>\"319585\"" }, "geometry": { "type": "Point", "coordinates": [ -1.5423949, 53.7952201 ] } },
	{ "type": "Feature", "properties": { "osm_id": "333452844", "name": "Queens Court", "amenity": "pub", "other_tags": "\"addr:city\"=>\"Leeds\",\"addr:postcode\"=>\"LS1 6LY\",\"addr:street\"=>\"Briggate\",\"fhrs:id\"=>\"323357\",\"gay\"=>\"yes\"" }, "geometry": { "type": "Point", "coordinates": [ -1.5423789, 53.7953412 ] } },
	{ "type": "Feature", "properties": { "osm_id": "333799077", "name": "115 The Headrow", "amenity": "pub", "other_tags": "\"addr:city\"=>\"Leeds\",\"addr:housenumber\"=>\"115\",\"addr:postcode\"=>\"LS1 5JW\",\"addr:street\"=>\"The Headrow\",\"fhrs:id\"=>\"849467\"" }, "geometry": { "type": "Point", "coordinates": [ -1.5458383, 53.7993717 ] } },
	{ "type": "Feature", "properties": { "osm_id": "333800534", "name": "Revolution", "amenity": "pub", "other_tags": "\"addr:city\"=>\"Leeds\",\"addr:housenumber\"=>\"41\",\"addr:postcode\"=>\"LS2 3AW\",\"addr:street\"=>\"Cookridge Street\",\"fhrs:id\"=>\"321330\"" }, "geometry": { "type": "Point", "coordinates": [ -1.547575, 53.8011453 ] } },
	{ "type": "Feature", "properties": { "osm_id": "333800538", "name": "Carpe Diem", "amenity": "pub", "other_tags": "\"addr:city\"=>\"Leeds\",\"addr:postcode\"=>\"LS2 8BE\",\"addr:street\"=>\"Great George Street\",\"fhrs:id\"=>\"321476\",\"level\"=>\"-1\"" }, "geometry": { "type": "Point", "coordinates": [ -1.5488058, 53.8006138 ] } },
	{ "type": "Feature", "properties": { "osm_id": "339923503", "name": "The Slug & Lettuce", "amenity": "pub", "other_tags": "\"addr:city\"=>\"Leeds\",\"addr:housenumber\"=>\"14\",\"addr:postcode\"=>\"LS1 5HU\",\"addr:street\"=>\"Park Row\",\"fhrs:id\"=>\"323545\"" }, "geometry": { "type": "Point", "coordinates": [ -1.546842, 53.7984781 ] } },
	{ "type": "Feature", "properties": { "osm_id": "342601298", "name": "Sandanista!", "amenity": "pub", "other_tags": "\"addr:city\"=>\"Leeds\",\"addr:housenumber\"=>\"5-5a\",\"addr:postcode\"=>\"LS2 8JP\",\"addr:street\"=>\"Cross Belgrave Street\",\"fhrs:id\"=>\"319700\"" }, "geometry": { "type": "Point", "coordinates": [ -1.5410355, 53.8010166 ] } },
	{ "type": "Feature", "properties": { "osm_id": "343124348", "name": "Puro", "amenity": "pub" }, "geometry": { "type": "Point", "coordinates": [ -1.5413769, 53.794941 ] } },
	{ "type": "Feature", "properties": { "osm_id": "343131674", "name": "Yates's", "amenity": "pub" }, "geometry": { "type": "Point", "coordinates": [ -1.545695, 53.8017244 ] } },
	{ "type": "Feature", "properties": { "osm_id": "345024393", "name": "The White Rose", "amenity": "pub" }, "geometry": { "type": "Point", "coordinates": [ -1.5471557, 53.7949019 ] } },
	{ "type": "Feature", "properties": { "osm_id": "354925181", "name": "Bulls Head", "amenity": "pub", "other_tags": "\"addr:city\"=>\"Wakefield\",\"addr:postcode\"=>\"WF3 1LY\",\"addr:street\"=>\"Dewsbury Road\",\"fhrs:id\"=>\"322040\"" }, "geometry": { "type": "Point", "coordinates": [ -1.5851426, 53.7251641 ] } },
	{ "type": "Feature", "properties": { "osm_id": "356075691", "name": "The Butterbowl", "amenity": "pub" }, "geometry": { "type": "Point", "coordinates": [ -1.6101614, 53.785886 ] } },
	{ "type": "Feature", "properties": { "osm_id": "357708651", "name": "The Brewery Tap", "amenity": "pub", "other_tags": "\"addr:housenumber\"=>\"18-24\",\"addr:postcode\"=>\"LS1 5DL\",\"addr:street\"=>\"New Station Street\",\"beer_garden\"=>\"no\",\"fhrs:id\"=>\"322128\",\"microbrewery\"=>\"yes\",\"operator\"=>\"Leeds Brewery\",\"website\"=>\"http:\/\/www.brewerytapleeds.co.uk\/\"" }, "geometry": { "type": "Point", "coordinates": [ -1.5452228, 53.7951338 ] } },
	{ "type": "Feature", "properties": { "osm_id": "357722138", "name": "RVs", "amenity": "pub" }, "geometry": { "type": "Point", "coordinates": [ -1.5520405, 53.7969216 ] } },
	{ "type": "Feature", "properties": { "osm_id": "357751922", "name": "Veritas", "amenity": "pub", "other_tags": "\"addr:city\"=>\"Leeds\",\"addr:housenumber\"=>\"43-47\",\"addr:postcode\"=>\"LS1 3BB\",\"addr:street\"=>\"Great George Street\",\"fhrs:id\"=>\"323271\"" }, "geometry": { "type": "Point", "coordinates": [ -1.5512212, 53.800919 ] } },
	{ "type": "Feature", "properties": { "osm_id": "360448854", "name": "Halfway House", "amenity": "pub", "other_tags": "\"addr:city\"=>\"Leeds\",\"addr:postcode\"=>\"LS27 0BL\",\"addr:street\"=>\"Bruntcliffe Road\",\"fhrs:id\"=>\"639103\"" }, "geometry": { "type": "Point", "coordinates": [ -1.6132247, 53.7374601 ] } },
	{ "type": "Feature", "properties": { "osm_id": "364458774", "name": "Rothwell Labour Club", "amenity": "pub", "other_tags": "\"fhrs:id\"=>\"467341\",\"addr:city\"=>\"Leeds\",\"addr:street\"=>\"Fifth Avenue\",\"addr:postcode\"=>\"LS26 0HG\"" }, "geometry": { "type": "Point", "coordinates": [ -1.4681326, 53.7559298 ] } },
	{ "type": "Feature", "properties": { "osm_id": "365413770", "amenity": "pub" }, "geometry": { "type": "Point", "coordinates": [ -1.4842914, 53.8545857 ] } },
	{ "type": "Feature", "properties": { "osm_id": "369600143", "name": "Bruntcliffe WMC", "amenity": "pub" }, "geometry": { "type": "Point", "coordinates": [ -1.6234692, 53.7440455 ] } },
	{ "type": "Feature", "properties": { "osm_id": "370074686", "name": "The Two Pointers", "amenity": "pub", "other_tags": "\"addr:city\"=>\"Leeds\",\"addr:housenumber\"=>\"69\",\"addr:postcode\"=>\"LS26 8RE\",\"addr:street\"=>\"Church Street\",\"fhrs:id\"=>\"634346\"" }, "geometry": { "type": "Point", "coordinates": [ -1.4474209, 53.7578556 ] } },
	{ "type": "Feature", "properties": { "osm_id": "370074730", "name": "The White Hart", "amenity": "pub" }, "geometry": { "type": "Point", "coordinates": [ -1.4489052, 53.7572497 ] } },
	{ "type": "Feature", "properties": { "osm_id": "370075264", "name": "The Midland Hotel", "amenity": "pub" }, "geometry": { "type": "Point", "coordinates": [ -1.446544, 53.7528742 ] } },
	{ "type": "Feature", "properties": { "osm_id": "370075310", "name": "The Old Masons Arms", "amenity": "pub" }, "geometry": { "type": "Point", "coordinates": [ -1.4502045, 53.7505069 ] } },
	{ "type": "Feature", "properties": { "osm_id": "370075313", "name": "The New Masons Arms", "amenity": "pub", "other_tags": "\"addr:city\"=>\"Leeds\",\"addr:housenumber\"=>\"26\",\"addr:postcode\"=>\"LS26 8JR\",\"addr:street\"=>\"Aberford Road\",\"fhrs:id\"=>\"321175\"" }, "geometry": { "type": "Point", "coordinates": [ -1.452205, 53.7479622 ] } },
	{ "type": "Feature", "properties": { "osm_id": "373155074", "name": "The Morley Dasher", "amenity": "pub", "other_tags": "\"addr:city\"=>\"Leeds\",\"addr:postcode\"=>\"LS27 0BY\",\"addr:street\"=>\"High Street\",\"fhrs:id\"=>\"320710\"" }, "geometry": { "type": "Point", "coordinates": [ -1.6022424, 53.7389234 ] } },
	{ "type": "Feature", "properties": { "osm_id": "373160767", "name": "Sportsman Inn", "amenity": "pub", "other_tags": "\"addr:city\"=>\"Leeds\",\"addr:housenumber\"=>\"14\",\"addr:postcode\"=>\"LS27 9AD\",\"addr:street\"=>\"Hunger Hill\",\"fhrs:id\"=>\"785920\",\"wifi\"=>\"yes\"" }, "geometry": { "type": "Point", "coordinates": [ -1.6010061, 53.7426332 ] } },
	{ "type": "Feature", "properties": { "osm_id": "373869565", "name": "The Stump Cross", "amenity": "pub" }, "geometry": { "type": "Point", "coordinates": [ -1.6055819, 53.7367989 ] } },
	{ "type": "Feature", "properties": { "osm_id": "379721005", "name": "The Arkle", "amenity": "pub", "other_tags": "\"addr:housenumber\"=>\"105\",\"addr:postcode\"=>\"LS27 9PP\",\"addr:street\"=>\"Springfield Avenue\",\"designation\"=>\"Public House\",\"fhrs:id\"=>\"842603\"" }, "geometry": { "type": "Point", "coordinates": [ -1.6078381, 53.7535042 ] } },
	{ "type": "Feature", "properties": { "osm_id": "380787332", "name": "Nelson Arms", "amenity": "pub", "other_tags": "\"addr:postcode\"=>\"LS27 8LS\",\"addr:street\"=>\"Victoria Road\",\"fhrs:id\"=>\"320743\"" }, "geometry": { "type": "Point", "coordinates": [ -1.5998202, 53.7524414 ] } },
	{ "type": "Feature", "properties": { "osm_id": "382384726", "name": "The Gardeners Arms", "amenity": "pub", "other_tags": "\"addr:city\"=>\"Leeds\",\"addr:housenumber\"=>\"33\",\"addr:postcode\"=>\"LS10 2BG\",\"addr:street\"=>\"Beza Street\",\"beer_garden\"=>\"yes\",\"fhrs:id\"=>\"466907\",\"real_ale\"=>\"tetleys\"" }, "geometry": { "type": "Point", "coordinates": [ -1.5354772, 53.7771469 ] } },
	{ "type": "Feature", "properties": { "osm_id": "382692566", "name": "The Fleece", "amenity": "pub" }, "geometry": { "type": "Point", "coordinates": [ -1.6697476, 53.8148501 ] } },
	{ "type": "Feature", "properties": { "osm_id": "382692634", "name": "The Rock", "amenity": "pub", "other_tags": "\"addr:housenumber\"=>\"458\",\"addr:postcode\"=>\"LS13 1EP\",\"addr:street\"=>\"Leeds And Bradford Road\",\"addr:town\"=>\"Bramley\",\"fhrs:id\"=>\"467022\"" }, "geometry": { "type": "Point", "coordinates": [ -1.6368944, 53.8184977 ] } },
	{ "type": "Feature", "properties": { "osm_id": "384962210", "name": "Ackroyd Street Working Men's Club", "amenity": "pub", "other_tags": "\"addr:city\"=>\"Leeds\",\"addr:postcode\"=>\"LS27 8BW\",\"addr:street\"=>\"School Street\",\"fhrs:id\"=>\"320765\",\"wheelchair\"=>\"yes\"" }, "geometry": { "type": "Point", "coordinates": [ -1.5954259, 53.7451187 ] } },
	{ "type": "Feature", "properties": { "osm_id": "385185231", "name": "The Commercial", "amenity": "pub", "other_tags": "\"addr:city\"=>\"Leeds\",\"addr:postcode\"=>\"LS27 7QR\",\"addr:street\"=>\"Elland Road\",\"fhrs:id\"=>\"939152\"" }, "geometry": { "type": "Point", "coordinates": [ -1.5896547, 53.7611893 ] } },
	{ "type": "Feature", "properties": { "osm_id": "385185366", "name": "Churwell Working Men's Club", "amenity": "pub", "other_tags": "\"addr:city\"=>\"Leeds\",\"addr:postcode\"=>\"LS27 7RR\",\"addr:street\"=>\"Old Road\",\"fhrs:id\"=>\"320698\"" }, "geometry": { "type": "Point", "coordinates": [ -1.5875704, 53.7634912 ] } },
	{ "type": "Feature", "properties": { "osm_id": "385185536", "name": "New Inn Pub", "amenity": "pub", "other_tags": "\"addr:city\"=>\"Leeds\",\"addr:housenumber\"=>\"18\",\"addr:postcode\"=>\"LS27 7SS\",\"addr:street\"=>\"Elland Road\",\"fhrs:id\"=>\"100859\"" }, "geometry": { "type": "Point", "coordinates": [ -1.5869304, 53.7624309 ] } },
	{ "type": "Feature", "properties": { "osm_id": "388505888", "name": "The Sun Inn", "amenity": "pub" }, "geometry": { "type": "Point", "coordinates": [ -1.5330013, 53.778022 ] } },
	{ "type": "Feature", "properties": { "osm_id": "388505890", "name": "Station Hotel", "amenity": "pub", "other_tags": "\"addr:city\"=>\"Leeds\",\"addr:housenumber\"=>\"69\",\"addr:postcode\"=>\"LS10 1DQ\",\"addr:street\"=>\"Hillidge Road\",\"fhrs:id\"=>\"319844\"" }, "geometry": { "type": "Point", "coordinates": [ -1.5358386, 53.7793877 ] } },
	{ "type": "Feature", "properties": { "osm_id": "389460144", "name": "The Golden Lion", "amenity": "pub", "other_tags": "\"real_ale\"=>\"yes\"" }, "geometry": { "type": "Point", "coordinates": [ -1.5516469, 53.7836915 ] } },
	{ "type": "Feature", "properties": { "osm_id": "389906077", "name": "The Windmill Inn", "amenity": "pub" }, "geometry": { "type": "Point", "coordinates": [ -1.4072047, 53.9153472 ] } },
	{ "type": "Feature", "properties": { "osm_id": "389950589", "name": "Merlin", "amenity": "pub" }, "geometry": { "type": "Point", "coordinates": [ -1.5600357, 53.7525723 ] } },
	{ "type": "Feature", "properties": { "osm_id": "389950718", "name": "The Plantation", "amenity": "pub", "other_tags": "\"addr:city\"=>\"Leeds\",\"addr:postcode\"=>\"LS10 4NT\",\"addr:street\"=>\"Bodmin Crescent\",\"fhrs:id\"=>\"546075\"" }, "geometry": { "type": "Point", "coordinates": [ -1.5571002, 53.7479618 ] } },
	{ "type": "Feature", "properties": { "osm_id": "391301750", "name": "Rowland Road WMC", "amenity": "pub", "other_tags": "\"url\"=>\"http:\/\/www.rowlandroadwmc.co.uk\/\",\"fhrs:id\"=>\"320127\",\"addr:city\"=>\"Leeds\",\"addr:street\"=>\"Rowland Road\",\"postal_code\"=>\"LS11 6ED\",\"addr:postcode\"=>\"LS11 6ED\",\"addr:housenumber\"=>\"38\"" }, "geometry": { "type": "Point", "coordinates": [ -1.549526, 53.7763878 ] } },
	{ "type": "Feature", "properties": { "osm_id": "391625173", "name": "Middleton Conservative Club", "amenity": "pub" }, "geometry": { "type": "Point", "coordinates": [ -1.5387822, 53.7483397 ] } },
	{ "type": "Feature", "properties": { "osm_id": "393226417", "name": "The Omnibus", "amenity": "pub", "other_tags": "\"addr:city\"=>\"Leeds\",\"addr:postcode\"=>\"LS10 4AD\",\"addr:street\"=>\"Throstle Road North\",\"fhrs:id\"=>\"322342\"" }, "geometry": { "type": "Point", "coordinates": [ -1.5263429, 53.7497453 ] } },
	{ "type": "Feature", "properties": { "osm_id": "400962834", "name": "Beeston Hill Social Club", "amenity": "pub" }, "geometry": { "type": "Point", "coordinates": [ -1.5544936, 53.7779915 ] } },
	{ "type": "Feature", "properties": { "osm_id": "400962840", "name": "The Malvern", "amenity": "pub", "other_tags": "\"status\"=>\"closed\"" }, "geometry": { "type": "Point", "coordinates": [ -1.5531697, 53.7794613 ] } },
	{ "type": "Feature", "properties": { "osm_id": "401323279", "name": "The Shoulder of Mutton", "amenity": "pub", "other_tags": "\"pool\"=>\"yes\",\"free_house\"=>\"yes\"" }, "geometry": { "type": "Point", "coordinates": [ -1.6248989, 53.7437467 ] } },
	{ "type": "Feature", "properties": { "osm_id": "401349069", "name": "Gildersome Taverners", "amenity": "pub" }, "geometry": { "type": "Point", "coordinates": [ -1.635098, 53.7526287 ] } },
	{ "type": "Feature", "properties": { "osm_id": "401770206", "name": "The New Inn", "amenity": "pub" }, "geometry": { "type": "Point", "coordinates": [ -1.6344697, 53.7601467 ] } },
	{ "type": "Feature", "properties": { "osm_id": "402973216", "name": "Cottingley Arms", "amenity": "pub" }, "geometry": { "type": "Point", "coordinates": [ -1.5836652, 53.7688302 ] } },
	{ "type": "Feature", "properties": { "osm_id": "410102314", "name": "Parnaby Tavern", "amenity": "pub", "other_tags": "\"addr:city\"=>\"Leeds\",\"addr:housenumber\"=>\"1\",\"addr:postcode\"=>\"LS10 2AB\",\"addr:street\"=>\"Middleton Road\",\"fhrs:id\"=>\"467038\"" }, "geometry": { "type": "Point", "coordinates": [ -1.5231972, 53.7706428 ] } },
	{ "type": "Feature", "properties": { "osm_id": "410350922", "name": "Belle Isle Working Men's Club", "amenity": "pub", "other_tags": "\"addr:city\"=>\"Leeds\",\"addr:postcode\"=>\"LS10 3PE\",\"addr:street\"=>\"Belle Isle Road\",\"fhrs:id\"=>\"430866\"" }, "geometry": { "type": "Point", "coordinates": [ -1.5271362, 53.7549093 ] } },
	{ "type": "Feature", "properties": { "osm_id": "410920529", "name": "Old Griffin Head", "amenity": "pub", "other_tags": "\"addr:city\"=>\"Leeds\",\"addr:postcode\"=>\"LS27 7ES\",\"addr:street\"=>\"Town Street\",\"fhrs:id\"=>\"321380\"" }, "geometry": { "type": "Point", "coordinates": [ -1.6237866, 53.757843 ] } },
	{ "type": "Feature", "properties": { "osm_id": "410947719", "name": "Old Brickworks", "amenity": "pub", "other_tags": "\"food\"=>\"yes\",\"brand\"=>\"Brewers Fayre\"" }, "geometry": { "type": "Point", "coordinates": [ -1.6435713, 53.7502955 ] } },
	{ "type": "Feature", "properties": { "osm_id": "410947750", "name": "New Inn Pub & Restaurant", "amenity": "pub", "other_tags": "\"food\"=>\"yes\"" }, "geometry": { "type": "Point", "coordinates": [ -1.6495193, 53.751718 ] } },
	{ "type": "Feature", "properties": { "osm_id": "414998866", "name": "Bay Horse", "amenity": "pub", "other_tags": "\"addr:city\"=>\"Leeds\",\"addr:postcode\"=>\"LS10 2DN\",\"addr:street\"=>\"Woodhouse Hill Road\",\"brewery\"=>\"sam_smiths\",\"fhrs:id\"=>\"834296\"" }, "geometry": { "type": "Point", "coordinates": [ -1.5304319, 53.7722005 ] } },
	{ "type": "Feature", "properties": { "osm_id": "414998890", "name": "Hunslet Carr Sports & Social Club", "amenity": "pub" }, "geometry": { "type": "Point", "coordinates": [ -1.5321449, 53.7721752 ] } },
	{ "type": "Feature", "properties": { "osm_id": "415464464", "name": "The Three Horse Shoes", "amenity": "pub", "other_tags": "\"fhrs:id\"=>\"320808\",\"addr:city\"=>\"Leeds\",\"addr:street\"=>\"Leeds Road\",\"addr:postcode\"=>\"LS26 8JU\"" }, "geometry": { "type": "Point", "coordinates": [ -1.4543449, 53.7482771 ] } },
	{ "type": "Feature", "properties": { "osm_id": "429827034", "name": "The Woodcock", "amenity": "pub", "other_tags": "\"addr:city\"=>\"Leeds\",\"addr:postcode\"=>\"LS12 5HR\",\"addr:street\"=>\"Whitehall Road\",\"fhrs:id\"=>\"321115\"" }, "geometry": { "type": "Point", "coordinates": [ -1.6349934, 53.7701509 ] } },
	{ "type": "Feature", "properties": { "osm_id": "430953150", "name": "William IV", "amenity": "pub", "other_tags": "\"addr:city\"=>\"Leeds\",\"addr:housenumber\"=>\"301\",\"addr:postcode\"=>\"LS12 4QA\",\"addr:street\"=>\"Lower Wortley Road\",\"fhrs:id\"=>\"837981\"" }, "geometry": { "type": "Point", "coordinates": [ -1.6018525, 53.7836225 ] } },
	{ "type": "Feature", "properties": { "osm_id": "441335382", "name": "The Bankhouse Inn", "amenity": "pub" }, "geometry": { "type": "Point", "coordinates": [ -1.6718361, 53.7843273 ] } },
	{ "type": "Feature", "properties": { "osm_id": "441335564", "name": "The Fleece", "amenity": "pub" }, "geometry": { "type": "Point", "coordinates": [ -1.6665067, 53.7883127 ] } },
	{ "type": "Feature", "properties": { "osm_id": "441713322", "name": "Leodis", "amenity": "pub", "other_tags": "\"addr:city\"=>\"Leeds\",\"addr:postcode\"=>\"LS15 7QH\",\"addr:street\"=>\"Green Lane\",\"fhrs:id\"=>\"322758\"" }, "geometry": { "type": "Point", "coordinates": [ -1.459379, 53.8008725 ] } },
	{ "type": "Feature", "properties": { "osm_id": "441713867", "name": "The Station", "amenity": "pub" }, "geometry": { "type": "Point", "coordinates": [ -1.451688, 53.8051193 ] } },
	{ "type": "Feature", "properties": { "osm_id": "442976838", "name": "The Woodman", "amenity": "pub", "other_tags": "\"addr:city\"=>\"Leeds\",\"addr:housenumber\"=>\"281-283\",\"addr:postcode\"=>\"LS15 7JS\",\"addr:street\"=>\"Selby Road\",\"fhrs:id\"=>\"631833\"" }, "geometry": { "type": "Point", "coordinates": [ -1.467146, 53.7971164 ] } },
	{ "type": "Feature", "properties": { "osm_id": "443115954", "name": "Victoria Hotel", "amenity": "pub", "other_tags": "\"fhrs:id\"=>\"467449\",\"addr:city\"=>\"Leeds\",\"addr:street\"=>\"Main Street\",\"addr:postcode\"=>\"WF10 2BZ\",\"addr:housenumber\"=>\"63\"" }, "geometry": { "type": "Point", "coordinates": [ -1.3688391, 53.74344 ] } },
	{ "type": "Feature", "properties": { "osm_id": "443116591", "name": "Boat inn", "amenity": "pub", "other_tags": "\"addr:postcode\"=>\"WF10 2BX\",\"addr:street\"=>\"Main Street\",\"addr:town\"=>\"Castleford\",\"fhrs:id\"=>\"862107\"" }, "geometry": { "type": "Point", "coordinates": [ -1.3674005, 53.7408711 ] } },
	{ "type": "Feature", "properties": { "osm_id": "443117130", "name": "King Edward VII WMC", "amenity": "pub", "other_tags": "\"addr:housenumber\"=>\"63-65\",\"addr:postcode\"=>\"WF10 2HE\",\"addr:street\"=>\"Leeds Road\",\"addr:town\"=>\"Castleford\",\"fhrs:id\"=>\"322869\"" }, "geometry": { "type": "Point", "coordinates": [ -1.3832759, 53.7523931 ] } },
	{ "type": "Feature", "properties": { "osm_id": "444622879", "name": "The Manor Inn", "amenity": "pub", "other_tags": "\"old_name\"=>\"The Erv Inn\"" }, "geometry": { "type": "Point", "coordinates": [ -1.6621341, 53.7966606 ] } },
	{ "type": "Feature", "properties": { "osm_id": "444623035", "name": "The Ivy", "amenity": "pub" }, "geometry": { "type": "Point", "coordinates": [ -1.6556246, 53.7901346 ] } },
	{ "type": "Feature", "properties": { "osm_id": "446295579", "name": "Calverley Arms", "amenity": "pub" }, "geometry": { "type": "Point", "coordinates": [ -1.6803218, 53.8262389 ] } },
	{ "type": "Feature", "properties": { "osm_id": "446299366", "name": "Anchor", "amenity": "pub", "other_tags": "\"smoking\"=>\"outside\"" }, "geometry": { "type": "Point", "coordinates": [ -1.3676815, 53.7435555 ] } },
	{ "type": "Feature", "properties": { "osm_id": "446334550", "name": "Crown & Anchor", "amenity": "pub" }, "geometry": { "type": "Point", "coordinates": [ -1.6580592, 53.822489 ] } },
	{ "type": "Feature", "properties": { "osm_id": "455594059", "name": "The Worlds End", "amenity": "pub", "other_tags": "\"addr:housenumber\"=>\"5\",\"addr:postcode\"=>\"LS28 7AD\",\"addr:street\"=>\"Booths Yard\",\"addr:town\"=>\"Pudsey\",\"fhrs:id\"=>\"658677\"" }, "geometry": { "type": "Point", "coordinates": [ -1.6622704, 53.7971878 ] } },
	{ "type": "Feature", "properties": { "osm_id": "455619613", "name": "The Victoria", "amenity": "pub" }, "geometry": { "type": "Point", "coordinates": [ -1.6536502, 53.7978442 ] } },
	{ "type": "Feature", "properties": { "osm_id": "506820705", "name": "Billy's Bar", "amenity": "pub", "other_tags": "\"addr:postcode\"=>\"LS11 0ES\",\"fhrs:id\"=>\"949042\"" }, "geometry": { "type": "Point", "coordinates": [ -1.5717533, 53.7770283 ] } },
	{ "type": "Feature", "properties": { "osm_id": "521971760", "name": "Club Estark", "amenity": "pub" }, "geometry": { "type": "Point", "coordinates": [ -1.7003791, 53.8002746 ] } },
	{ "type": "Feature", "properties": { "osm_id": "615999262", "amenity": "pub" }, "geometry": { "type": "Point", "coordinates": [ -1.5454145, 53.7748519 ] } },
	{ "type": "Feature", "properties": { "osm_id": "616892834", "name": "The Needles", "amenity": "pub", "other_tags": "\"food\"=>\"yes\",\"real_ale\"=>\"yes\"" }, "geometry": { "type": "Point", "coordinates": [ -1.6252085, 53.7263236 ] } },
	{ "type": "Feature", "properties": { "osm_id": "761999398", "name": "The Fox and Hounds", "amenity": "pub", "other_tags": "\"operator\"=>\"Ember Inns\",\"opening_hours\"=>\"Mo-Su 11:00-00:00\"" }, "geometry": { "type": "Point", "coordinates": [ -1.6295253, 53.8478873 ] } },
	{ "type": "Feature", "properties": { "osm_id": "761999433", "name": "The Queens Arms", "amenity": "pub" }, "geometry": { "type": "Point", "coordinates": [ -1.634208, 53.8458502 ] } },
	{ "type": "Feature", "properties": { "osm_id": "804266771", "name": "The Gaping Goose", "amenity": "pub" }, "geometry": { "type": "Point", "coordinates": [ -1.3991903, 53.7870448 ] } },
	{ "type": "Feature", "properties": { "osm_id": "804754003", "name": "Gascoigne's", "amenity": "pub", "other_tags": "\"addr:city\"=>\"Leeds\",\"addr:housenumber\"=>\"6\",\"addr:postcode\"=>\"LS25 1PX\",\"addr:street\"=>\"Aberford Road\",\"cuisine\"=>\"burger;chicken;fish_and_chips\",\"fhrs:id\"=>\"320551\",\"internet_access\"=>\"wlan\"" }, "geometry": { "type": "Point", "coordinates": [ -1.3861326, 53.7965194 ] } },
	{ "type": "Feature", "properties": { "osm_id": "804754014", "name": "The Miners", "amenity": "pub", "other_tags": "\"addr:city\"=>\"Leeds\",\"addr:housenumber\"=>\"4\",\"addr:postcode\"=>\"LS25 1PX\",\"addr:street\"=>\"Aberford Road\",\"fhrs:id\"=>\"455714\"" }, "geometry": { "type": "Point", "coordinates": [ -1.387245, 53.7964871 ] } },
	{ "type": "Feature", "properties": { "osm_id": "804756068", "name": "Garforth Country Club", "amenity": "pub", "other_tags": "\"fhrs:id\"=>\"320552\",\"addr:city\"=>\"Leeds\",\"addr:street\"=>\"Aberford Road\",\"addr:postcode\"=>\"LS25 1PZ\"" }, "geometry": { "type": "Point", "coordinates": [ -1.3848632, 53.796956 ] } },
	{ "type": "Feature", "properties": { "osm_id": "804758094", "name": "Garforth Liberal Club", "amenity": "pub" }, "geometry": { "type": "Point", "coordinates": [ -1.3887421, 53.7933682 ] } },
	{ "type": "Feature", "properties": { "osm_id": "804761617", "name": "The Crusader", "amenity": "pub", "other_tags": "\"fhrs:id\"=>\"371293\",\"addr:city\"=>\"Leeds\",\"addr:street\"=>\"Selby Road\",\"addr:postcode\"=>\"LS25 2BY\"" }, "geometry": { "type": "Point", "coordinates": [ -1.3786767, 53.7835406 ] } },
	{ "type": "Feature", "properties": { "osm_id": "832960924", "name": "Morley Working Men's Club & Institute", "amenity": "pub", "other_tags": "\"addr:city\"=>\"Leeds\",\"addr:postcode\"=>\"LS27 9EH\",\"addr:street\"=>\"Fountain Street\",\"fhrs:id\"=>\"467301\"" }, "geometry": { "type": "Point", "coordinates": [ -1.6035679, 53.7429553 ] } },
	{ "type": "Feature", "properties": { "osm_id": "832960960", "name": "The Commercial Inn", "amenity": "pub", "other_tags": "\"addr:city\"=>\"Leeds\",\"addr:housenumber\"=>\"62\",\"addr:postcode\"=>\"LS27 8AG\",\"addr:street\"=>\"Commercial Street\",\"fhrs:id\"=>\"726332\"" }, "geometry": { "type": "Point", "coordinates": [ -1.596983, 53.7431092 ] } },
	{ "type": "Feature", "properties": { "osm_id": "832961068", "name": "The Slip Inn", "amenity": "pub" }, "geometry": { "type": "Point", "coordinates": [ -1.6005879, 53.745901 ] } },
	{ "type": "Feature", "properties": { "osm_id": "838396387", "name": "The Princess", "amenity": "pub" }, "geometry": { "type": "Point", "coordinates": [ -1.6929797, 53.8525434 ] } },
	{ "type": "Feature", "properties": { "osm_id": "864535357", "name": "The Terrace", "amenity": "pub", "other_tags": "\"wheelchair\"=>\"yes\",\"toilets:wheelchair\"=>\"yes\"" }, "geometry": { "type": "Point", "coordinates": [ -1.5562197, 53.8065747 ] } },
	{ "type": "Feature", "properties": { "osm_id": "864535368", "name": "The Old Bar", "amenity": "pub" }, "geometry": { "type": "Point", "coordinates": [ -1.5557498, 53.8067534 ] } },
	{ "type": "Feature", "properties": { "osm_id": "886513899", "name": "The Mustard Pot", "amenity": "pub", "other_tags": "\"opening_hours\"=>\"Su-We 11:00-23:00, Th 11:00-24:00, Fr,Sa 11:00-01:00\"" }, "geometry": { "type": "Point", "coordinates": [ -1.5401485, 53.8291756 ] } },
	{ "type": "Feature", "properties": { "osm_id": "888718596", "name": "The Three Hulats", "amenity": "pub", "other_tags": "\"addr:city\"=>\"Leeds\",\"addr:housenumber\"=>\"13\",\"addr:postcode\"=>\"LS7 3NB\",\"addr:street\"=>\"Harrogate Road\",\"fhrs:id\"=>\"319832\",\"opening_hours\"=>\"Mo-Su,PH 08:00-24:00; Fr,Sa 08:00-01:00\",\"operator\"=>\"J D Wetherspoon\",\"source:addr\"=>\"FHRS Open Data\",\"website\"=>\"http:\/\/www.jdwetherspoon.co.uk\/home\/pubs\/the-three-hulats\"" }, "geometry": { "type": "Point", "coordinates": [ -1.535496, 53.826046 ] } },
	{ "type": "Feature", "properties": { "osm_id": "983316866", "name": "The Devon", "amenity": "pub", "other_tags": "\"addr:city\"=>\"Leeds\",\"addr:postcode\"=>\"LS15 8LR\",\"addr:street\"=>\"Kingswear Crescent\",\"fhrs:id\"=>\"321293\"" }, "geometry": { "type": "Point", "coordinates": [ -1.4445133, 53.8024224 ] } },
	{ "type": "Feature", "properties": { "osm_id": "1161183331", "name": "The Leeds Bierkeller", "amenity": "pub" }, "geometry": { "type": "Point", "coordinates": [ -1.5473097, 53.7992492 ] } },
	{ "type": "Feature", "properties": { "osm_id": "1255391405", "name": "Seven", "amenity": "pub" }, "geometry": { "type": "Point", "coordinates": [ -1.532346, 53.823208 ] } },
	{ "type": "Feature", "properties": { "osm_id": "1280410898", "name": "The New Inn", "amenity": "pub", "other_tags": "\"addr:city\"=>\"Yeadon\",\"addr:street\"=>\"Cemetery Road\",\"addr:postcode\"=>\"LS19 7SU\"" }, "geometry": { "type": "Point", "coordinates": [ -1.6797754, 53.8667103 ] } },
	{ "type": "Feature", "properties": { "osm_id": "1280411151", "name": "The Crown", "amenity": "pub", "other_tags": "\"addr:city\"=>\"Yeadon\",\"addr:housenumber\"=>\"12\",\"addr:postcode\"=>\"LS19 7RE\",\"addr:street\"=>\"Ivegate\",\"fhrs:id\"=>\"734052\",\"phone\"=>\"+44 113 250 2438\"" }, "geometry": { "type": "Point", "coordinates": [ -1.6858957, 53.8654735 ] } },
	{ "type": "Feature", "properties": { "osm_id": "1325169203", "name": "Hare & Hounds", "amenity": "pub" }, "geometry": { "type": "Point", "coordinates": [ -1.3271091, 53.9244004 ] } },
	{ "type": "Feature", "properties": { "osm_id": "1369333013", "name": "East of Arcadia", "amenity": "pub", "other_tags": "\"addr:city\"=>\"Leeds\",\"addr:housenumber\"=>\"607\",\"addr:postcode\"=>\"LS6 4AY\",\"addr:street\"=>\"Meanwood Road\",\"fhrs:id\"=>\"323268\",\"real_ale\"=>\"yes\",\"wifi\"=>\"free\"" }, "geometry": { "type": "Point", "coordinates": [ -1.5668844, 53.8278172 ] } },
	{ "type": "Feature", "properties": { "osm_id": "1420363368", "name": "The Hedley Verity", "amenity": "pub", "other_tags": "\"operator\"=>\"JD Wetherspoons\",\"wheelchair\"=>\"yes\",\"toilets:wheelchair\"=>\"yes\"" }, "geometry": { "type": "Point", "coordinates": [ -1.5457943, 53.8020389 ] } },
	{ "type": "Feature", "properties": { "osm_id": "1510473255", "name": "The New Inn", "amenity": "pub" }, "geometry": { "type": "Point", "coordinates": [ -1.5626041, 53.8819251 ] } },
	{ "type": "Feature", "properties": { "osm_id": "1532906454", "name": "Old Cock", "amenity": "pub", "other_tags": "\"fhrs:id\"=>\"322618\",\"website\"=>\"theoldcockotley.co.uk\",\"addr:street\"=>\"Crossgate\",\"description\"=>\"New pub (around 2010). Formerly Curlew cafe and before that Curlew Pottery.\",\"addr:postcode\"=>\"LS21 1AA\",\"addr:housenumber\"=>\"11,13\"" }, "geometry": { "type": "Point", "coordinates": [ -1.6921382, 53.9043602 ] } },
	{ "type": "Feature", "properties": { "osm_id": "1532914385", "name": "The Junction Inn", "amenity": "pub", "other_tags": "\"website\"=>\"www.otleypubclub.co.uk\/otley-pubs-present\/the-junction\",\"addr:city\"=>\"Otley\",\"is_in:town\"=>\"Otley\",\"addr:street\"=>\"Bondgate\",\"addr:country\"=>\"GB\",\"is_in:county\"=>\"West Yorkshire\",\"addr:postcode\"=>\"LS21 1AD\",\"addr:housenumber\"=>\"44\"" }, "geometry": { "type": "Point", "coordinates": [ -1.6910653, 53.9040474 ] } },
	{ "type": "Feature", "properties": { "osm_id": "1532975470", "name": "The Summercross (CLOSED)", "amenity": "pub", "other_tags": "\"addr:city\"=>\"Otley\",\"is_in:town\"=>\"Otley\",\"addr:street\"=>\"East Busk Lane\",\"addr:country\"=>\"GB\",\"is_in:county\"=>\"West Yorkshire\",\"addr:postcode\"=>\"LS21 1HN\"" }, "geometry": { "type": "Point", "coordinates": [ -1.6825859, 53.9071738 ] } },
	{ "type": "Feature", "properties": { "osm_id": "1532975506", "name": "The Manor House", "amenity": "pub", "other_tags": "\"fhrs:id\"=>\"834299\",\"website\"=>\"www.otleypubclub.co.uk\/otley-pubs-present\/the-manor-house\",\"addr:city\"=>\"Otley\",\"is_in:town\"=>\"Otley\",\"addr:street\"=>\"Cross Green\",\"source:addr\"=>\"FHRS Open Data\",\"is_in:county\"=>\"West Yorkshire\",\"addr:postcode\"=>\"LS21 1HB\",\"addr:housenumber\"=>\"7 - 9\"" }, "geometry": { "type": "Point", "coordinates": [ -1.6896733, 53.9054506 ] } },
	{ "type": "Feature", "properties": { "osm_id": "1561889310", "name": "TJ's", "amenity": "pub", "other_tags": "\"addr:city\"=>\"Leeds\",\"addr:postcode\"=>\"LS6 2JH\",\"addr:street\"=>\"Woodhouse Street\",\"fhrs:id\"=>\"321805\"" }, "geometry": { "type": "Point", "coordinates": [ -1.5568774, 53.8145758 ] } },
	{ "type": "Feature", "properties": { "osm_id": "1581250996", "name": "Muse", "amenity": "pub", "other_tags": "\"fhrs:id\"=>\"504565\",\"website\"=>\"http:\/\/www.markettowntaverns.co.uk\/muse.asp?Tavern=Muse&Section=Main\",\"addr:street\"=>\"Bank Street\",\"source:addr\"=>\"FHRS Open Data\",\"addr:postcode\"=>\"LS22 6NQ\",\"addr:housename\"=>\"Muse Ale and Wine Bar\",\"addr:housenumber\"=>\"16\"" }, "geometry": { "type": "Point", "coordinates": [ -1.3862986, 53.9290586 ] } },
	{ "type": "Feature", "properties": { "osm_id": "1599912373", "name": "Miller & Carter, Garforth", "amenity": "pub", "other_tags": "\"addr:postcode\"=>\"LS25 1NB\",\"addr:street\"=>\"Selby Road\",\"cuisine\"=>\"steak_house\",\"fhrs:id\"=>\"320557\",\"internet_access\"=>\"wlan\",\"opening_hours\"=>\"Su-Th 12:00-23:00; Fr-Sa 12:00-23:30\",\"operator\"=>\"Miller & Carter\",\"phone\"=>\"+44 113 286 2100\",\"website\"=>\"http:\/\/www.millerandcarter.co.uk\/restaurants\/yorkshire-and-the-humber\/millerandcartergarforth\"" }, "geometry": { "type": "Point", "coordinates": [ -1.4046035, 53.7869778 ] } },
	{ "type": "Feature", "properties": { "osm_id": "1619302348", "name": "The Chequers", "amenity": "pub" }, "geometry": { "type": "Point", "coordinates": [ -1.3108065, 53.7621468 ] } },
	{ "type": "Feature", "properties": { "osm_id": "1619308903", "name": "The White Horse", "amenity": "pub", "other_tags": "\"fhrs:id\"=>\"756387\",\"website\"=>\"http:\/\/www.whitehorseledston.com\",\"addr:town\"=>\"Ledston, Castleford\",\"telephone\"=>\"+44(0)1977 553069\",\"addr:street\"=>\"Main Street\",\"addr:postcode\"=>\"WF10 2AB\",\"addr:housenumber\"=>\"30\"" }, "geometry": { "type": "Point", "coordinates": [ -1.3432885, 53.7521463 ] } },
	{ "type": "Feature", "properties": { "osm_id": "1643381961", "name": "The Dexter", "amenity": "pub", "other_tags": "\"addr:city\"=>\"Leeds\",\"addr:postcode\"=>\"LS17 8RZ\",\"addr:street\"=>\"Wigton Lane\",\"fhrs:id\"=>\"321506\",\"operator\"=>\"Mitchells & Butlers\"" }, "geometry": { "type": "Point", "coordinates": [ -1.500859, 53.857518 ] } },
	{ "type": "Feature", "properties": { "osm_id": "1654213575", "name": "The Old Tree Inn", "amenity": "pub", "other_tags": "\"wifi\"=>\"no\"" }, "geometry": { "type": "Point", "coordinates": [ -1.367762, 53.7667083 ] } },
	{ "type": "Feature", "properties": { "osm_id": "1654213577", "name": "The Commercial", "amenity": "pub", "other_tags": "\"wifi\"=>\"no\",\"fhrs:id\"=>\"845713\",\"addr:city\"=>\"Leeds\",\"addr:street\"=>\"High Street\",\"addr:postcode\"=>\"LS25 7AJ\",\"addr:housenumber\"=>\"86\"" }, "geometry": { "type": "Point", "coordinates": [ -1.3664156, 53.7660012 ] } },
	{ "type": "Feature", "properties": { "osm_id": "1692462987", "name": "The Cuthbert Brodrick", "amenity": "pub", "other_tags": "\"addr:housenumber\"=>\"99\",\"addr:postcode\"=>\"LS2 3AD\",\"addr:street\"=>\"Portland Crescent\",\"int_name\"=>\"Wetherspoons\",\"opening_hours\"=>\"Mo-We 08:00-00:00; Th-Sa 08:00-01:00; Su 08:00-23:00\",\"outdoor_seating\"=>\"yes\",\"phone\"=>\"+44 113 204 8570\",\"smoking\"=>\"outside\",\"website\"=>\"https:\/\/www.jdwetherspoon.com\/pubs\/all-pubs\/england\/west-yorkshire\/the-cuthbert-brodrick-leeds\",\"wifi\"=>\"yes\"" }, "geometry": { "type": "Point", "coordinates": [ -1.5478125, 53.8017795 ] } },
	{ "type": "Feature", "properties": { "osm_id": "1707563029", "name": "The New Inn", "amenity": "pub" }, "geometry": { "type": "Point", "coordinates": [ -1.692578, 53.8300897 ] } },
	{ "type": "Feature", "properties": { "osm_id": "1709237315", "name": "Cross Church Street Working Mens Club", "amenity": "pub", "other_tags": "\"addr:city\"=>\"Leeds\",\"addr:postcode\"=>\"LS27 9DX\",\"addr:street\"=>\"Victoria Avenue\",\"fhrs:id\"=>\"467316\"" }, "geometry": { "type": "Point", "coordinates": [ -1.6019534, 53.7510155 ] } },
	{ "type": "Feature", "properties": { "osm_id": "1710692782", "name": "The Blue Pig", "amenity": "pub" }, "geometry": { "type": "Point", "coordinates": [ -1.7071173, 53.8123668 ] } },
	{ "type": "Feature", "properties": { "osm_id": "1968809417", "name": "Stick or Twist", "amenity": "pub", "other_tags": "\"addr:city\"=>\"Leeds\",\"addr:housenumber\"=>\"2\",\"addr:postcode\"=>\"LS2 8BT\",\"addr:street\"=>\"Merrion Way\",\"fhrs:id\"=>\"320933\"" }, "geometry": { "type": "Point", "coordinates": [ -1.5427204, 53.802591 ] } },
	{ "type": "Feature", "properties": { "osm_id": "2009072714", "name": "Roundhay Fox Pub\/restuarant", "amenity": "pub" }, "geometry": { "type": "Point", "coordinates": [ -1.5039384, 53.8395325 ] } },
	{ "type": "Feature", "properties": { "osm_id": "2059560654", "name": "The Fountain Inn", "amenity": "pub", "other_tags": "\"addr:postcode\"=>\"LS27 9EB\",\"addr:street\"=>\"Queen Street\"" }, "geometry": { "type": "Point", "coordinates": [ -1.5997366, 53.7431748 ] } },
	{ "type": "Feature", "properties": { "osm_id": "2091013186", "name": "General Eliott", "amenity": "pub", "other_tags": "\"addr:city\"=>\"Leeds\",\"addr:housenumber\"=>\"31-33\",\"addr:postcode\"=>\"LS1 6DS\",\"addr:street\"=>\"Vicar Lane\",\"fhrs:id\"=>\"320280\"" }, "geometry": { "type": "Point", "coordinates": [ -1.5405389, 53.7970437 ] } },
	{ "type": "Feature", "properties": { "osm_id": "2117006482", "name": "The Penny Hill", "amenity": "pub", "other_tags": "\"addr:city\"=>\"Leeds\",\"addr:housenumber\"=>\"90\",\"addr:postcode\"=>\"LS10 2AR\",\"addr:street\"=>\"Church Street\",\"fhrs:id\"=>\"844040\"" }, "geometry": { "type": "Point", "coordinates": [ -1.5290693, 53.7782864 ] } },
	{ "type": "Feature", "properties": { "osm_id": "2124265336", "name": "Bundobust", "amenity": "pub", "other_tags": "\"addr:housenumber\"=>\"6\",\"addr:postcode\"=>\"LS1 5DQ\",\"addr:street\"=>\"Mill Hill\",\"cuisine\"=>\"curry;indian;vegan;vegetarian\",\"email\"=>\"hello@bundobust.com\",\"fhrs:id\"=>\"688934\",\"internet_access\"=>\"wlan\",\"name:en\"=>\"Bundobust\",\"opening_hours\"=>\"Mo-Th 12:00-23:00; Fr-Sa 12:00-00:00; Su 12:00-22:00\",\"phone\"=>\"+44 113 243 1248\",\"website\"=>\"http:\/\/www.bundobust.com\"" }, "geometry": { "type": "Point", "coordinates": [ -1.5455559, 53.7954782 ] } },
	{ "type": "Feature", "properties": { "osm_id": "2124265338", "name": "Waiting Rooms", "amenity": "pub" }, "geometry": { "type": "Point", "coordinates": [ -1.5454813, 53.7951292 ] } },
	{ "type": "Feature", "properties": { "osm_id": "2125610523", "name": "Lazy Lounge", "amenity": "pub", "other_tags": "\"addr:postcode\"=>\"LS1 4JY\",\"fhrs:id\"=>\"438767\"" }, "geometry": { "type": "Point", "coordinates": [ -1.5531998, 53.795845 ] } },
	{ "type": "Feature", "properties": { "osm_id": "2128107742", "name": "Smokestack", "amenity": "pub", "other_tags": "\"addr:city\"=>\"Leeds\",\"addr:housenumber\"=>\"159a\",\"addr:postcode\"=>\"LS1 6LY\",\"addr:street\"=>\"Briggate\",\"fhrs:id\"=>\"322023\"" }, "geometry": { "type": "Point", "coordinates": [ -1.5423686, 53.7955996 ] } },
	{ "type": "Feature", "properties": { "osm_id": "2134260288", "name": "The West Riding", "amenity": "pub", "other_tags": "\"addr:housenumber\"=>\"38\",\"addr:postcode\"=>\"LS1 2DJ\",\"addr:street\"=>\"Wellington Street\",\"fhrs:id\"=>\"799777\"" }, "geometry": { "type": "Point", "coordinates": [ -1.5496037, 53.7962878 ] } },
	{ "type": "Feature", "properties": { "osm_id": "2134631625", "name": "The Midnight Bell", "amenity": "pub", "other_tags": "\"addr:city\"=>\"Leeds\",\"addr:housenumber\"=>\"101\",\"addr:postcode\"=>\"LS11 5WD\",\"addr:street\"=>\"Water Lane\",\"fhrs:id\"=>\"918651\"" }, "geometry": { "type": "Point", "coordinates": [ -1.5517897, 53.7917032 ] } },
	{ "type": "Feature", "properties": { "osm_id": "2134636241", "name": "The Cross Keys", "amenity": "pub", "other_tags": "\"addr:city\"=>\"Leeds\",\"addr:postcode\"=>\"LS11 5BZ\",\"addr:street\"=>\"Water Lane\",\"fhrs:id\"=>\"323141\"" }, "geometry": { "type": "Point", "coordinates": [ -1.552573, 53.7916953 ] } },
	{ "type": "Feature", "properties": { "osm_id": "2134874653", "name": "The Hop", "amenity": "pub", "other_tags": "\"addr:postcode\"=>\"LS1 4BR\",\"fhrs:id\"=>\"322702\"" }, "geometry": { "type": "Point", "coordinates": [ -1.5491969, 53.7936862 ] } },
	{ "type": "Feature", "properties": { "osm_id": "2138696601", "name": "Santiago", "amenity": "pub", "other_tags": "\"addr:city\"=>\"Leeds\",\"addr:housenumber\"=>\"1-3\",\"addr:postcode\"=>\"LS1 6PG\",\"addr:street\"=>\"Grand Arcade\",\"fhrs:id\"=>\"550362\",\"website\"=>\"https:\/\/twitter.com\/SantiagosLeeds\"" }, "geometry": { "type": "Point", "coordinates": [ -1.5398293, 53.8001451 ] } },
	{ "type": "Feature", "properties": { "osm_id": "2138746309", "name": "Toast", "amenity": "pub", "other_tags": "\"addr:postcode\"=>\"LS1 4JY\",\"fhrs:id\"=>\"634360\"" }, "geometry": { "type": "Point", "coordinates": [ -1.5531483, 53.7960181 ] } },
	{ "type": "Feature", "properties": { "osm_id": "2141116425", "name": "The Old Red Lion", "amenity": "pub" }, "geometry": { "type": "Point", "coordinates": [ -1.5421333, 53.7929309 ] } },
	{ "type": "Feature", "properties": { "osm_id": "2142071139", "name": "Wire", "amenity": "pub", "other_tags": "\"addr:housenumber\"=>\"2-8\",\"addr:postcode\"=>\"LS1 6DN\",\"addr:street\"=>\"Call Lane\",\"email\"=>\"info@wireclub.co.uk\",\"fhrs:id\"=>\"542438\",\"phone\"=>\"+44 113 234 0980\",\"website\"=>\"http:\/\/www.wireclub.co.uk\"" }, "geometry": { "type": "Point", "coordinates": [ -1.5400641, 53.7964406 ] } },
	{ "type": "Feature", "properties": { "osm_id": "2144729436", "name": "North Bar", "amenity": "pub", "other_tags": "\"addr:city\"=>\"Leeds\",\"addr:housenumber\"=>\"24\",\"addr:postcode\"=>\"LS1 6NU\",\"addr:street\"=>\"New Briggate\",\"fhrs:id\"=>\"320906\"" }, "geometry": { "type": "Point", "coordinates": [ -1.5415842, 53.7995804 ] } },
	{ "type": "Feature", "properties": { "osm_id": "2144729457", "name": "Sela Bar", "amenity": "pub", "other_tags": "\"addr:city\"=>\"Leeds\",\"addr:housenumber\"=>\"20\",\"addr:postcode\"=>\"LS1 6NU\",\"addr:street\"=>\"New Briggate\",\"fhrs:id\"=>\"455704\"" }, "geometry": { "type": "Point", "coordinates": [ -1.5416291, 53.7994958 ] } },
	{ "type": "Feature", "properties": { "osm_id": "2157985584", "name": "Friends of Ham", "amenity": "pub", "other_tags": "\"addr:housenumber\"=>\"4\",\"addr:postcode\"=>\"LS1 5DL\",\"addr:street\"=>\"New Station Street\",\"fhrs:id\"=>\"553166\",\"phone\"=>\"+44 113 242 0275\",\"website\"=>\"http:\/\/www.friendsofham.com\/\"" }, "geometry": { "type": "Point", "coordinates": [ -1.5451092, 53.7955411 ] } },
	{ "type": "Feature", "properties": { "osm_id": "2157985587", "name": "Jake's Bar", "amenity": "pub", "other_tags": "\"addr:city\"=>\"Leeds\",\"addr:housenumber\"=>\"27-29\",\"addr:postcode\"=>\"LS1 7BT\",\"addr:street\"=>\"Call Lane\",\"fhrs:id\"=>\"639224\"" }, "geometry": { "type": "Point", "coordinates": [ -1.5408405, 53.7956628 ] } },
	{ "type": "Feature", "properties": { "osm_id": "2157985616", "name": "Queens Bar", "amenity": "pub" }, "geometry": { "type": "Point", "coordinates": [ -1.5478188, 53.7958701 ] } },
	{ "type": "Feature", "properties": { "osm_id": "2206816043", "name": "BrewDog", "amenity": "pub", "other_tags": "\"addr:city\"=>\"Leeds\",\"addr:housename\"=>\"White Cloth Hall\",\"addr:housenumber\"=>\"27-27a\",\"addr:postcode\"=>\"LS2 7DA\",\"addr:street\"=>\"Crown Street\",\"addr:unit\"=>\"2\",\"craft_key\"=>\"yes\",\"fhrs:id\"=>\"564044\",\"real_ale\"=>\"no\"" }, "geometry": { "type": "Point", "coordinates": [ -1.5398508, 53.7954815 ] } },
	{ "type": "Feature", "properties": { "osm_id": "2295331264", "name": "The Reliance", "amenity": "pub", "other_tags": "\"food\"=>\"yes\",\"fhrs:id\"=>\"320005\",\"real_ale\"=>\"yes\",\"addr:city\"=>\"Leeds\",\"addr:street\"=>\"North Street\",\"source:addr\"=>\"FHRS Open Data\",\"addr:postcode\"=>\"LS2 7PN\",\"addr:housenumber\"=>\"76 - 78\"" }, "geometry": { "type": "Point", "coordinates": [ -1.537857, 53.801735 ] } },
	{ "type": "Feature", "properties": { "osm_id": "2353398083", "name": "Otley Tap House", "amenity": "pub", "other_tags": "\"addr:city\"=>\"Otley\",\"addr:country\"=>\"GB\",\"addr:housenumber\"=>\"66\",\"addr:postcode\"=>\"LS21 1AE\",\"addr:street\"=>\"Boroughgate\",\"description\"=>\"Completely new pub, opened July 2014\",\"fhrs:id\"=>\"735586\",\"is_in:town\"=>\"Otley\",\"phone\"=>\"+44 1943 466755\",\"source:addr\"=>\"FHRS Open Data\",\"start_date\"=>\"2014-07-04\",\"website\"=>\"http:\/\/otleytaphouse.co.uk\/\"" }, "geometry": { "type": "Point", "coordinates": [ -1.6904866, 53.9059499 ] } },
	{ "type": "Feature", "properties": { "osm_id": "2353440320", "name": "Otley Conservative Club", "amenity": "pub", "other_tags": "\"fhrs:id\"=>\"320646\",\"addr:city\"=>\"Otley\",\"addr:street\"=>\"Boroughgate\",\"source:addr\"=>\"FHRS Open Data\",\"addr:postcode\"=>\"LS21 3AG\"" }, "geometry": { "type": "Point", "coordinates": [ -1.6925653, 53.9055883 ] } },
	{ "type": "Feature", "properties": { "osm_id": "3057247697", "name": "The Regent", "amenity": "pub", "other_tags": "\"smoking\"=>\"outside\",\"addr:city\"=>\"Guiseley\",\"addr:street\"=>\"Otley Road\",\"addr:housenumber\"=>\"16\"" }, "geometry": { "type": "Point", "coordinates": [ -1.709755, 53.8728507 ] } },
	{ "type": "Feature", "properties": { "osm_id": "3300696423", "name": "Tapped", "amenity": "pub", "other_tags": "\"addr:city\"=>\"Leeds\",\"addr:housenumber\"=>\"51\",\"addr:postcode\"=>\"LS1 5EL\",\"addr:street\"=>\"Boar Lane\",\"fhrs:id\"=>\"639164\"" }, "geometry": { "type": "Point", "coordinates": [ -1.5458414, 53.7959897 ] } },
	{ "type": "Feature", "properties": { "osm_id": "3352620279", "name": "The Black Swan", "amenity": "pub", "other_tags": "\"addr:city\"=>\"Leeds\",\"addr:housenumber\"=>\"37\",\"addr:postcode\"=>\"LS1 7BT\",\"addr:street\"=>\"Call Lane\",\"fhrs:id\"=>\"763951\"" }, "geometry": { "type": "Point", "coordinates": [ -1.5408866, 53.7954843 ] } },
	{ "type": "Feature", "properties": { "osm_id": "3545836881", "name": "The Rosebud", "amenity": "pub", "other_tags": "\"addr:city\"=>\"Leeds\",\"addr:housenumber\"=>\"22\",\"addr:postcode\"=>\"LS26 0SJ\",\"addr:street\"=>\"Westfield Road\",\"fhrs:id\"=>\"322565\"" }, "geometry": { "type": "Point", "coordinates": [ -1.4990347, 53.7427801 ] } },
	{ "type": "Feature", "properties": { "osm_id": "3559056772", "name": "New Inn", "amenity": "pub", "other_tags": "\"fhrs:id\"=>\"322698\",\"addr:street\"=>\"Westgate\",\"source:addr\"=>\"FHRS Open Data\",\"addr:postcode\"=>\"LS22 6LL\",\"addr:housenumber\"=>\"18\"" }, "geometry": { "type": "Point", "coordinates": [ -1.3874952, 53.929053 ] } },
	{ "type": "Feature", "properties": { "osm_id": "3613933550", "name": "The Cock Beck", "amenity": "pub" }, "geometry": { "type": "Point", "coordinates": [ -1.4384931, 53.8155357 ] } },
	{ "type": "Feature", "properties": { "osm_id": "3616415175", "name": "The Orchard", "amenity": "pub" }, "geometry": { "type": "Point", "coordinates": [ -1.4874639, 53.8220569 ] } },
	{ "type": "Feature", "properties": { "osm_id": "3718444413", "name": "The Aviator", "amenity": "pub", "other_tags": "\"addr:city\"=>\"Yeadon\",\"addr:housenumber\"=>\"16\",\"addr:postcode\"=>\"LS19 7PP\",\"addr:street\"=>\"High Street\",\"fhrs:id\"=>\"626754\",\"phone\"=>\"+44 1132 506 851\",\"source:addr\"=>\"FHRS Open Data\"" }, "geometry": { "type": "Point", "coordinates": [ -1.6838238, 53.8660399 ] } },
	{ "type": "Feature", "properties": { "osm_id": "3718451128", "name": "Yeadon Liberal Club", "amenity": "pub", "other_tags": "\"addr:city\"=>\"Yeadon\",\"addr:housenumber\"=>\"20B\",\"addr:postcode\"=>\"LS19 7PP\",\"addr:street\"=>\"High Street\",\"fhrs:id\"=>\"467215\",\"phone\"=>\"+44 113 250 2472\"" }, "geometry": { "type": "Point", "coordinates": [ -1.6833588, 53.8660198 ] } },
	{ "type": "Feature", "properties": { "osm_id": "3718484567", "name": "Yeadon Constitutional Club", "amenity": "pub", "other_tags": "\"fhrs:id\"=>\"320513\",\"addr:city\"=>\"Yeadon\",\"addr:street\"=>\"Chapel Hill\",\"source:addr\"=>\"FHRS Open Data\",\"addr:postcode\"=>\"LS19 7RG\"" }, "geometry": { "type": "Point", "coordinates": [ -1.68542, 53.8653009 ] } },
	{ "type": "Feature", "properties": { "osm_id": "3781092151", "name": "ShuffleDog Leeds", "amenity": "pub", "other_tags": "\"addr:housename\"=>\"Crispin Lofts\",\"addr:postcode\"=>\"LS2 7PF\",\"addr:street\"=>\"New York Road\",\"addr:unit\"=>\"1\",\"craft_keg\"=>\"yes\",\"fhrs:id\"=>\"847986\",\"operator\"=>\"BrewDog\"" }, "geometry": { "type": "Point", "coordinates": [ -1.5388075, 53.8010952 ] } },
	{ "type": "Feature", "properties": { "osm_id": "3801400065", "name": "The New George", "amenity": "pub", "other_tags": "\"addr:city\"=>\"Leeds\",\"addr:housenumber\"=>\"2-4\",\"addr:postcode\"=>\"LS5 3AQ\",\"addr:street\"=>\"Commercial Road\",\"fhrs:id\"=>\"871567\"" }, "geometry": { "type": "Point", "coordinates": [ -1.6024823, 53.8156516 ] } },
	{ "type": "Feature", "properties": { "osm_id": "3822771146", "name": "Blands Arms", "amenity": "pub", "other_tags": "\"addr:city\"=>\"Leeds\",\"addr:postcode\"=>\"LS25 4AQ\",\"addr:street\"=>\"Great North Road\",\"fhrs:id\"=>\"467253\"" }, "geometry": { "type": "Point", "coordinates": [ -1.3272055, 53.7941335 ] } },
	{ "type": "Feature", "properties": { "osm_id": "3902978495", "name": "The Forge", "amenity": "pub", "other_tags": "\"addr:city\"=>\"Horsforth\",\"addr:housenumber\"=>\"145\",\"addr:postcode\"=>\"LS18 4QD\",\"addr:street\"=>\"New Road Side\",\"phone\"=>\"+44 113 258 6030\"" }, "geometry": { "type": "Point", "coordinates": [ -1.6440797, 53.8321013 ] } },
	{ "type": "Feature", "properties": { "osm_id": "4165876222", "name": "The Brunswick", "amenity": "pub", "other_tags": "\"food\"=>\"yes\",\"fhrs:id\"=>\"818457\",\"real_ale\"=>\"yes\",\"addr:city\"=>\"Leeds\",\"craft_ale\"=>\"yes\",\"addr:street\"=>\"North Street\",\"source:addr\"=>\"FHRS Open Data\",\"addr:postcode\"=>\"LS2 7PN\",\"addr:housenumber\"=>\"82\"" }, "geometry": { "type": "Point", "coordinates": [ -1.537433, 53.8020209 ] } },
	{ "type": "Feature", "properties": { "osm_id": "4351446098", "name": "The Lamb & Flag", "amenity": "pub", "other_tags": "\"addr:city\"=>\"Leeds\",\"addr:housenumber\"=>\"1\",\"addr:postcode\"=>\"LS2 7HD\",\"addr:street\"=>\"Church Row\",\"fhrs:id\"=>\"785907\",\"toilets:wheelchair\"=>\"no\",\"website\"=>\"http:\/\/www.lambandflagleeds.co.uk\/\",\"wheelchair\"=>\"yes\",\"wheelchair:description\"=>\"Rampe Ã¼ber den Biergarten\"" }, "geometry": { "type": "Point", "coordinates": [ -1.5369433, 53.795209 ] } },
	{ "type": "Feature", "properties": { "osm_id": "4373234377", "name": "Farsley Working Mens Club", "amenity": "pub", "other_tags": "\"addr:city\"=>\"Farsley\",\"addr:postcode\"=>\"LS28 5EU\",\"addr:street\"=>\"Back Lane\",\"fhrs:id\"=>\"467184\",\"opening_hours\"=>\"17:00+\"" }, "geometry": { "type": "Point", "coordinates": [ -1.6700215, 53.8123972 ] } },
	{ "type": "Feature", "properties": { "osm_id": "4373238777", "name": "Farsley Conservative Club", "amenity": "pub", "other_tags": "\"addr:city\"=>\"Farsley\",\"addr:housenumber\"=>\"51\",\"addr:postcode\"=>\"LS28 5HX\",\"addr:street\"=>\"Town Street\",\"fhrs:id\"=>\"467187\"" }, "geometry": { "type": "Point", "coordinates": [ -1.6712178, 53.8130125 ] } },
	{ "type": "Feature", "properties": { "osm_id": "4484723958", "name": "The Refectory", "amenity": "pub", "other_tags": "\"addr:city\"=>\"Leeds\",\"addr:housename\"=>\"The Old Flax Store\",\"addr:postcode\"=>\"LS11 9YJ\",\"addr:street\"=>\"Marshall Street\",\"fhrs:id\"=>\"730910\",\"website\"=>\"http:\/\/www.northernmonkbrewco.com\/old-flax-store\/the-refectory\"" }, "geometry": { "type": "Point", "coordinates": [ -1.5541907, 53.790713 ] } },
	{ "type": "Feature", "properties": { "osm_id": "4802646581", "name": "The New Highwood", "amenity": "pub", "other_tags": "\"addr:city\"=>\"Leeds\",\"addr:postcode\"=>\"LS8\",\"addr:street\"=>\"Brackenwood Drive\",\"outdoor_seating\"=>\"yes\"" }, "geometry": { "type": "Point", "coordinates": [ -1.5245091, 53.8380507 ] } },
	{ "type": "Feature", "properties": { "osm_id": "4817377421", "name": "White House", "amenity": "pub", "other_tags": "\"addr:housenumber\"=>\"55\",\"addr:street\"=>\"Wetherby Road\",\"name:en\"=>\"White House\"" }, "geometry": { "type": "Point", "coordinates": [ -1.4965069, 53.8304323 ] } },
	{ "type": "Feature", "properties": { "osm_id": "4830906636", "name": "The Boundary House", "amenity": "pub", "other_tags": "\"addr:city\"=>\"Methley\",\"addr:housenumber\"=>\"24\",\"addr:postcode\"=>\"LS26 9EE\",\"addr:street\"=>\"Church Side\",\"contact:phone\"=>\"+44 1977 551101\",\"fhrs:id\"=>\"801112\",\"website\"=>\"http:\/\/www.theboundaryhousemethley.co.uk\/\"" }, "geometry": { "type": "Point", "coordinates": [ -1.4097637, 53.7348615 ] } },
	{ "type": "Feature", "properties": { "osm_id": "4935984922", "name": "Bingley Arms", "amenity": "pub", "other_tags": "\"addr:postcode\"=>\"LS17 9DN\",\"addr:street\"=>\"Church Lane\",\"fhrs:id\"=>\"323492\",\"phone\"=>\"+44 1937 572462\",\"website\"=>\"http:\/\/www.bingleyarms.com\"" }, "geometry": { "type": "Point", "coordinates": [ -1.4482891, 53.8815587 ] } },
	{ "type": "Feature", "properties": { "osm_id": "5360967653", "name": "Stew And Oyster", "amenity": "pub", "other_tags": "\"addr:city\"=>\"Leeds\",\"addr:housenumber\"=>\"36-38\",\"addr:postcode\"=>\"LS2 7EW\",\"addr:street\"=>\"The Calls\",\"fhrs:id\"=>\"974967\"" }, "geometry": { "type": "Point", "coordinates": [ -1.5384012, 53.7947467 ] } },
	{ "type": "Feature", "properties": { "osm_id": "5371229624", "name": "Golden Lion", "amenity": "pub" }, "geometry": { "type": "Point", "coordinates": [ -1.6702106, 53.7922799 ] } },
	{ "type": "Feature", "properties": { "osm_id": null, "centroid": { "latitude": 53.754287, "longitude": -1.669875 }, "osm_way_id": "35225503", "name": "The Malt Shovel", "amenity": "pub", "other_tags": "\"addr:city\"=>\"Bradford\",\"addr:housenumber\"=>\"290\",\"addr:postcode\"=>\"BD11 1BB\",\"addr:street\"=>\"Whitehall Road\",\"fhrs:id\"=>\"371287\"" }, "geometry": { "type": "Polygon", "coordinates": [ [ [ -1.6700179, 53.7540927 ], [ -1.670232, 53.7543363 ], [ -1.6696867, 53.7544809 ], [ -1.669519, 53.7542537 ], [ -1.669774, 53.7541613 ], [ -1.6698779, 53.7541328 ], [ -1.6700179, 53.7540927 ] ] ] } },
	{ "type": "Feature", "properties": { "osm_id": null, "centroid": { "latitude": 53.757649, "longitude": -1.662978 }, "osm_way_id": "35225530", "name": "Drighlington Tempest Constitutional Club", "amenity": "pub" }, "geometry": { "type": "Polygon", "coordinates": [ [ [ -1.6624035, 53.7579 ], [ -1.6629321, 53.7574574 ], [ -1.6631715, 53.7572577 ], [ -1.6635524, 53.7574389 ], [ -1.6631845, 53.7576703 ], [ -1.6631344, 53.7576645 ], [ -1.6626531, 53.7580409 ], [ -1.6624035, 53.7579 ] ] ] } },
	{ "type": "Feature", "properties": { "osm_id": null, "centroid": { "latitude": 53.757405, "longitude": -1.661091 }, "osm_way_id": "35225534", "name": "The Spotted Cow", "amenity": "pub", "other_tags": "\"addr:city\"=>\"Bradford\",\"addr:housenumber\"=>\"122\",\"addr:postcode\"=>\"BD11 1LJ\",\"addr:street\"=>\"Whitehall Road\",\"fhrs:id\"=>\"323118\",\"real_ale\"=>\"yes\"" }, "geometry": { "type": "Polygon", "coordinates": [ [ [ -1.6609956, 53.7571276 ], [ -1.6615151, 53.7574538 ], [ -1.6614137, 53.7575452 ], [ -1.6611806, 53.757683 ], [ -1.6609733, 53.7575301 ], [ -1.6608505, 53.7574355 ], [ -1.6606675, 53.7573402 ], [ -1.6609735, 53.7571424 ], [ -1.6609956, 53.7571276 ] ] ] } },
	{ "type": "Feature", "properties": { "osm_id": null, "centroid": { "latitude": 53.763702, "longitude": -1.648683 }, "osm_way_id": "35225550", "name": "Valley Inn", "amenity": "pub", "other_tags": "\"addr:city\"=>\"Leeds\",\"addr:housenumber\"=>\"68\",\"addr:postcode\"=>\"BD11 1NE\",\"addr:street\"=>\"Whitehall Road\",\"fhrs:id\"=>\"467307\"" }, "geometry": { "type": "Polygon", "coordinates": [ [ [ -1.6486146, 53.7634363 ], [ -1.6490358, 53.7637738 ], [ -1.6486446, 53.763968 ], [ -1.6483303, 53.763608 ], [ -1.6484524, 53.7635404 ], [ -1.6486146, 53.7634363 ] ] ] } },
	{ "type": "Feature", "properties": { "osm_id": null, "centroid": { "latitude": 53.755306, "longitude": -1.658298 }, "osm_way_id": "35267932", "name": "The Black Bull", "amenity": "pub", "other_tags": "\"real_ale\"=>\"yes\",\"beer_garden\"=>\"yes\"" }, "geometry": { "type": "Polygon", "coordinates": [ [ [ -1.6579604, 53.7554715 ], [ -1.6582865, 53.7550233 ], [ -1.6583898, 53.7550782 ], [ -1.6586358, 53.755213 ], [ -1.6580266, 53.7555881 ], [ -1.6579604, 53.7554715 ] ] ] } },
	{ "type": "Feature", "properties": { "osm_id": null, "centroid": { "latitude": 53.754206, "longitude": -1.654129 }, "osm_way_id": "35267935", "name": "Drighlington A.R.L.F.C.", "amenity": "pub" }, "geometry": { "type": "Polygon", "coordinates": [ [ [ -1.6546731, 53.7540228 ], [ -1.6546104, 53.7542053 ], [ -1.6542033, 53.7543788 ], [ -1.6537677, 53.7545203 ], [ -1.6536489, 53.7544055 ], [ -1.6535847, 53.7541428 ], [ -1.6538713, 53.7538913 ], [ -1.6539688, 53.7539272 ], [ -1.6542006, 53.7539804 ], [ -1.654298, 53.7540001 ], [ -1.6544763, 53.7540239 ], [ -1.6546731, 53.7540228 ] ] ] } },
	{ "type": "Feature", "properties": { "osm_id": null, "centroid": { "latitude": 53.906367, "longitude": -1.694460 }, "osm_way_id": "42793299", "name": "The Stew and Oyster", "amenity": "pub", "building": "commercial", "historic": "school", "other_tags": "\"accommodation\"=>\"no\",\"addr:city\"=>\"Otley\",\"addr:postcode\"=>\"LS21 3AY\",\"addr:street\"=>\"Manor Square\",\"alt_name\"=>\"Old Otley Grammar School\",\"description\"=>\"modern pub in former school building\",\"food\"=>\"yes\",\"is_in:county\"=>\"West Yorkshire\",\"is_in:town\"=>\"Otley\",\"website\"=>\"stewandoyster.com\"" },