{
"type": "FeatureCollection",
"crs": { "type": "name", "properties": { "name": "urn:ogc:def:crs:OGC:1.3:CRS84" } },
"features": [
	{ "type": "Feature", "properties": { "osm_id": "21029699", "name": "The Black Horse Hotel", "amenity": "pub", "other_tags": "\"fhrs:id\"=>\"1157882\",\"tourism\"=>\"guest_house\",\"website\"=>\"theblackhorsehotel.org.uk\",\"addr:town\"=>\"Otley\",\"is_in:town\"=>\"Otley\",\"addr:street\"=>\"Westgate\",\"is_in:county\"=>\"West Yorkshire\",\"accommodation\"=>\"yes\",\"addr:postcode\"=>\"LS21 3AS\"" }, "geometry": { "type": "Point", "coordinates": [ -1.6946046, 53.9057132 ] } },
	{ "type": "Feature", "properties": { "osm_id": "26124686", "name": "The Waggon and Horses", "amenity": "pub" }, "geometry": { "type": "Point", "coordinates": [ -1.4955957, 53.7255091 ] } },
	{ "type": "Feature", "properties": { "osm_id": "26124687", "name": "The Castle", "amenity": "pub" }, "geometry": { "type": "Point", "coordinates": [ -1.4956129, 53.7257265 ] } },
	{ "type": "Feature", "properties": { "osm_id": "27297278", "name": "Cross Pipes", "amenity": "pub", "other_tags": "\"fhrs:id\"=>\"831733\",\"website\"=>\"www.otleypubclub.co.uk\/otley-pubs-present\/the-cross-pipes\",\"alt_name\"=>\"The Cross Pipes\",\"addr:city\"=>\"Otley\",\"is_in:town\"=>\"Otley\",\"addr:street\"=>\"Westgate\",\"addr:country\"=>\"GB\",\"is_in:county\"=>\"West Yorkshire\",\"addr:postcode\"=>\"LS21 3AS\",\"opening_hours\"=>\"Mo-Su 12:00-24:00\",\"addr:housenumber\"=>\"36\"" }, "geometry": { "type": "Point", "coordinates": [ -1.696442, 53.9048065 ] } },
	{ "type": "Feature", "properties": { "osm_id": "27305438", "name": "Bay Horse", "amenity": "pub", "other_tags": "\"fhrs:id\"=>\"1255708\",\"website\"=>\"www.otleypubclub.co.uk\/otley-pubs-present\/the-bay-horse-inn\",\"operator\"=>\"Tetleys\",\"wikidata\"=>\"Q26496222\",\"addr:city\"=>\"Otley\",\"is_in:town\"=>\"Otley\",\"addr:street\"=>\"market Place\",\"source:addr\"=>\"FHRS Open Data\",\"addr:country\"=>\"GB\",\"is_in:county\"=>\"West Yorkshire\",\"addr:postcode\"=>\"LS21 3AQ\",\"addr:housenumber\"=>\"20\"" }, "geometry": { "type": "Point", "coordinates": [ -1.6936299, 53.9058268 ] } },
	{ "type": "Feature", "properties": { "osm_id": "27305443", "name": "Black Bull", "amenity": "pub", "other_tags": "\"fhrs:id\"=>\"1091951\",\"website\"=>\"www.otleypubclub.co.uk\/otley-pubs-present\/the-black-bull\",\"historic\"=>\"pub\",\"wikidata\"=>\"Q26428641\",\"addr:city\"=>\"Otley\",\"is_in:town\"=>\"Otley\",\"addr:street\"=>\"Market Place\",\"description\"=>\"Otley's oldest pub, reputedly drunk dry by King's men in Civil War\",\"is_in:county\"=>\"West Yorkshire\",\"addr:postcode\"=>\"LS21 3AQ\"" }, "geometry": { "type": "Point", "coordinates": [ -1.6934391, 53.9053843 ] } },
	{ "type": "Feature", "properties": { "osm_id": "27338381", "name": "Half Moon Inn", "amenity": "pub" }, "geometry": { "type": "Point", "coordinates": [ -1.6290348, 53.9024793 ] } },
	{ "type": "Feature", "properties": { "osm_id": "27441181", "name": "White Swan", "amenity": "pub", "other_tags": "\"fhrs:id\"=>\"831734\",\"website\"=>\"www.otleypubclub.co.uk\/otley-pubs-present\/the-white-swan\",\"wikidata\"=>\"Q26599819\",\"is_in:town\"=>\"Otley\",\"addr:street\"=>\"Boroughgate\",\"fixme:addr1\"=>\"68 Boroughgate\",\"is_in:county\"=>\"West Yorkshire\",\"addr:postcode\"=>\"LS21 1AE\",\"addr:housenumber\"=>\"68\"" }, "geometry": { "type": "Point", "coordinates": [ -1.6902951, 53.9059547 ] } },
	{ "type": "Feature", "properties": { "osm_id": "27457036", "name": "Harewood Arms Hotel", "amenity": "pub", "other_tags": "\"food\"=>\"yes\",\"fhrs:id\"=>\"319760\",\"tourism\"=>\"hostel\",\"real_ale\"=>\"no (usual Sam Smiths Keg products)\",\"addr:street\"=>\"Harrogate Road\",\"source:addr\"=>\"FHRS Open Data\",\"addr:postcode\"=>\"LS17 9LH\",\"diet:gluten_free\"=>\"yes\"" }, "geometry": { "type": "Point", "coordinates": [ -1.5116311, 53.9013658 ] } },
	{ "type": "Feature", "properties": { "osm_id": "27465047", "name": "Swan & Talbot", "amenity": "pub", "other_tags": "\"fhrs:id\"=>\"687629\",\"tourism\"=>\"guest_house\",\"addr:town\"=>\"Wetherby\",\"addr:street\"=>\"North Street\",\"addr:postcode\"=>\"LS22 6NN\",\"addr:housenumber\"=>\"34\"" }, "geometry": { "type": "Point", "coordinates": [ -1.3851593, 53.9294773 ] } },
	{ "type": "Feature", "properties": { "osm_id": "27475931", "name": "The Royal Oak", "amenity": "pub", "other_tags": "\"fhrs:id\"=>\"702414\",\"tourism\"=>\"guest_house\",\"website\"=>\"www.theroyaloakwetherby.co.uk\",\"addr:city\"=>\"Wetherby\",\"addr:street\"=>\"North Street\",\"guest_house\"=>\"bed_and_breakfast\",\"source:addr\"=>\"FHRS Open Data\",\"addr:postcode\"=>\"LS22 6NR\",\"addr:housenumber\"=>\"60\"" }, "geometry": { "type": "Point", "coordinates": [ -1.3843302, 53.9308259 ] } },
	{ "type": "Feature", "properties": { "osm_id": "27475947", "name": "Black Bull", "amenity": "pub", "other_tags": "\"fhrs:id\"=>\"803041\",\"addr:street\"=>\"Market Place\",\"source:addr\"=>\"FHRS Open Data\",\"addr:postcode\"=>\"LS22 6LN\",\"addr:housenumber\"=>\"53\"" }, "geometry": { "type": "Point", "coordinates": [ -1.3863967, 53.9285555 ] } },
	{ "type": "Feature", "properties": { "osm_id": "27476334", "name": "Crown Inn", "amenity": "pub", "other_tags": "\"fhrs:id\"=>\"320624\",\"addr:street\"=>\"High Street\",\"source:addr\"=>\"FHRS Open Data\",\"addr:postcode\"=>\"LS22 6LR\",\"addr:housenumber\"=>\"25\"" }, "geometry": { "type": "Point", "coordinates": [ -1.3858331, 53.9277289 ] } },
	{ "type": "Feature", "properties": { "osm_id": "27476336", "name": "The Red Lion", "amenity": "pub", "other_tags": "\"fhrs:id\"=>\"495540\",\"addr:town\"=>\"Wetherby\",\"addr:street\"=>\"High Street\",\"addr:postcode\"=>\"LS22 6LR\",\"addr:housenumber\"=>\"19\"" }, "geometry": { "type": "Point", "coordinates": [ -1.3858437, 53.927539 ] } },
	{ "type": "Feature", "properties": { "osm_id": "27492466", "name": "The Whitakers", "amenity": "pub", "other_tags": "\"fhrs:id\"=>\"776236\",\"website\"=>\"www.otleypubclub.co.uk\/otley-pubs-present\/whitakers-arms\",\"alt_name\"=>\"Whitakers Arns\",\"addr:city\"=>\"Otley\",\"date_start\"=>\"c1811\",\"is_in:town\"=>\"Otley\",\"addr:street\"=>\"Kirkgate\",\"addr:country\"=>\"GB\",\"is_in:county\"=>\"West Yorkshire\",\"addr:postcode\"=>\"LS21 3HN\",\"addr:housenumber\"=>\"49\"" }, "geometry": { "type": "Point", "coordinates": [ -1.6943761, 53.9047765 ] } },
	{ "type": "Feature", "properties": { "osm_id": "27492467", "name": "Red Lion", "amenity": "pub", "other_tags": "\"fhrs:id\"=>\"944868\",\"website\"=>\"www.otleypubclub.co.uk\/otley-pubs-present\/the-red-lion\",\"addr:city\"=>\"Otley\",\"is_in:town\"=>\"Otley\",\"addr:street\"=>\"Kirkgate\",\"addr:country\"=>\"GB\",\"is_in:county\"=>\"West Yorkshire\",\"addr:postcode\"=>\"LS21 3HN\",\"addr:housenumber\"=>\"47\"" }, "geometry": { "type": "Point", "coordinates": [ -1.6943827, 53.9048674 ] } },
	{ "type": "Feature", "properties": { "osm_id": "27492469", "name": "Otley Tavern", "amenity": "pub", "other_tags": "\"fhrs:id\"=>\"735591\",\"website\"=>\"www.otleypubclub.co.uk\/otley-pubs-present\/the-ring-o-bells\",\"old_name\"=>\"Ring O'Bells\",\"wikidata\"=>\"Q26496285\",\"addr:city\"=>\"Otley\",\"is_in:town\"=>\"Otley\",\"local_name\"=>\"Ringers\",\"addr:street\"=>\"New Market\",\"addr:country\"=>\"GB\",\"is_in:county\"=>\"West Yorkshire\",\"addr:postcode\"=>\"LS21 3AE\"" }, "geometry": { "type": "Point", "coordinates": [ -1.693182, 53.9043477 ] } },
	{ "type": "Feature", "properties": { "osm_id": "27557236", "name": "Rose & Crown", "amenity": "pub", "other_tags": "\"website\"=>\"www.roseandcrownotley.co.uk\",\"wikidata\"=>\"Q26599794\",\"addr:city\"=>\"Otley\",\"is_in:town\"=>\"Otley\",\"addr:street\"=>\"Bondgate\",\"addr:country\"=>\"GB\",\"is_in:county\"=>\"West Yorkshire\",\"addr:postcode\"=>\"LS21 1AD\",\"addr:housenumber\"=>\"20\"" }, "geometry": { "type": "Point", "coordinates": [ -1.6920894, 53.9041078 ] } },
	{ "type": "Feature", "properties": { "osm_id": "29047760", "name": "White Cross", "amenity": "pub", "other_tags": "\"wifi\"=>\"free\",\"fhrs:id\"=>\"320485\",\"website\"=>\"https:\/\/www.emberinns.co.uk\/the-white-cross-hotel-guiseley\",\"alt_name\"=>\"The White Cross Hotel\",\"operator\"=>\"Ember Inns\",\"addr:city\"=>\"Leeds\",\"addr:street\"=>\"Otley Road\",\"addr:postcode\"=>\"LS20 8LY\"" }, "geometry": { "type": "Point", "coordinates": [ -1.725318, 53.8780413 ] } },
	{ "type": "Feature", "properties": { "osm_id": "29048409", "name": "The Station", "amenity": "pub", "other_tags": "\"fhrs:id\"=>\"818443\",\"addr:city\"=>\"Guiseley\",\"addr:street\"=>\"Otley Road\",\"source:addr\"=>\"FHRS Open Data\",\"addr:postcode\"=>\"LS20 8BH\",\"addr:housenumber\"=>\"70\"" }, "geometry": { "type": "Point", "coordinates": [ -1.7132486, 53.8742006 ] } },
	{ "type": "Feature", "properties": { "osm_id": "29057124", "name": "The New Inn", "amenity": "pub", "other_tags": "\"fhrs:id\"=>\"1210263\",\"addr:town\"=>\"Guiseley\",\"addr:street\"=>\"Town Gate\",\"addr:postcode\"=>\"LS20 9JA\",\"addr:housenumber\"=>\"2-4\"" }, "geometry": { "type": "Point", "coordinates": [ -1.7067611, 53.87536 ] } },
	{ "type": "Feature", "properties": { "osm_id": "29057189", "name": "The Yorkshire Rose", "amenity": "pub", "other_tags": "\"fhrs:id\"=>\"1251094\",\"addr:city\"=>\"Guiseley\",\"addr:street\"=>\"Leeds Road\",\"source:addr\"=>\"FHRS Open Data\",\"addr:postcode\"=>\"LS20 9NA\"" }, "geometry": { "type": "Point", "coordinates": [ -1.7072452, 53.8712384 ] } },
	{ "type": "Feature", "properties": { "osm_id": "29064424", "name": "Bridge Inn", "amenity": "pub", "other_tags": "\"fhrs:id\"=>\"639106\",\"website\"=>\"http:\/\/www.kirkstallbridge.co.uk\/\",\"operator\"=>\"Kirkstall Brewery\",\"addr:city\"=>\"Leeds\",\"addr:street\"=>\"Bridge Road\",\"addr:suburb\"=>\"Kirkstall\",\"addr:postcode\"=>\"LS5 3BW\",\"opening_hours\"=>\"Mo-Th 12:00-23:30; Fr,Sa 12:00-00:30; Su 12:00-23:30\",\"addr:housenumber\"=>\"12\"" }, "geometry": { "type": "Point", "coordinates": [ -1.60668, 53.815986 ] } },
	{ "type": "Feature", "properties": { "osm_id": "30810941", "name": "The New Inn", "amenity": "pub", "other_tags": "\"fhrs:id\"=>\"320595\",\"addr:city\"=>\"Leeds\",\"addr:street\"=>\"Berry Lane\",\"addr:postcode\"=>\"LS26 8AX\"" }, "geometry": { "type": "Point", "coordinates": [ -1.3912291, 53.7607963 ] } },
	{ "type": "Feature", "properties": { "osm_id": "30810948", "name": "The White Swan", "amenity": "pub", "other_tags": "\"fhrs:id\"=>\"1155503\",\"addr:city\"=>\"Leeds\",\"addr:street\"=>\"Cross Hills\",\"addr:suburb\"=>\"Kippax\",\"addr:postcode\"=>\"LS25 7JP\"" }, "geometry": { "type": "Point", "coordinates": [ -1.3708847, 53.7669966 ] } },
	{ "type": "Feature", "properties": { "osm_id": "30810950", "name": "The Moorgate", "amenity": "pub", "other_tags": "\"fhrs:id\"=>\"320589\",\"addr:city\"=>\"Leeds\",\"addr:street\"=>\"Leeds Road\",\"addr:postcode\"=>\"LS25 7EP\"" }, "geometry": { "type": "Point", "coordinates": [ -1.3740205, 53.7738165 ] } },
	{ "type": "Feature", "properties": { "osm_id": "30810963", "name": "The Newmarket Inn", "amenity": "pub", "other_tags": "\"fhrs:id\"=>\"322538\",\"addr:city\"=>\"Leeds\",\"addr:street\"=>\"Main Street\",\"addr:postcode\"=>\"LS25 1AF\",\"addr:housenumber\"=>\"71\"" }, "geometry": { "type": "Point", "coordinates": [ -1.3885275, 53.7945534 ] } },
	{ "type": "Feature", "properties": { "osm_id": "30822584", "name": "The Templar", "amenity": "pub", "other_tags": "\"fhrs:id\"=>\"486646\",\"old_name\"=>\"The Templars' Inn\",\"addr:city\"=>\"Leeds\",\"addr:street\"=>\"Templar Street\",\"addr:postcode\"=>\"LS2 7NU\",\"source:old_name\"=>\"OS Leeds Sheet 11 Godfrey Edition, 1847\",\"addr:housenumber\"=>\"2\"" }, "geometry": { "type": "Point", "coordinates": [ -1.5392725, 53.8000742 ] } },
	{ "type": "Feature", "properties": { "osm_id": "30822839", "name": "Scarborough Hotel", "amenity": "pub", "other_tags": "\"food\"=>\"yes\",\"fhrs:id\"=>\"321498\",\"real_ale\"=>\"yes\",\"addr:city\"=>\"Leeds\",\"addr:street\"=>\"Bishopgate Street\",\"addr:postcode\"=>\"LS1 5DY\",\"addr:housenumber\"=>\"3\"" }, "geometry": { "type": "Point", "coordinates": [ -1.5463654, 53.7954088 ] } },
	{ "type": "Feature", "properties": { "osm_id": "30822840", "name": "The Head of Steam", "amenity": "pub", "other_tags": "\"fhrs:id\"=>\"765498\",\"addr:city\"=>\"Leeds\",\"addr:street\"=>\"Mill Hill\",\"addr:postcode\"=>\"LS1 5DQ\"" }, "geometry": { "type": "Point", "coordinates": [ -1.5458167, 53.7953226 ] } },
	{ "type": "Feature", "properties": { "osm_id": "48978333", "name": "The Three Legs", "amenity": "pub", "other_tags": "\"fhrs:id\"=>\"841410\",\"wikidata\"=>\"Q26547455\",\"addr:city\"=>\"Leeds\",\"addr:street\"=>\"The Headrow\",\"addr:postcode\"=>\"LS1 6PU\",\"addr:housenumber\"=>\"11\"" }, "geometry": { "type": "Point", "coordinates": [ -1.5405265, 53.7988116 ] } },
	{ "type": "Feature", "properties": { "osm_id": "48978335", "name": "The Horse And Trumpet", "amenity": "pub", "other_tags": "\"fhrs:id\"=>\"323293\",\"addr:city\"=>\"Leeds\",\"addr:street\"=>\"The Headrow\",\"addr:postcode\"=>\"LS1 6LR\",\"addr:housenumber\"=>\"51-53\"" }, "geometry": { "type": "Point", "coordinates": [ -1.5425625, 53.7990338 ] } },
	{ "type": "Feature", "properties": { "osm_id": "51342173", "name": "The Hyde Park", "amenity": "pub", "other_tags": "\"fhrs:id\"=>\"323335\",\"addr:city\"=>\"Leeds\",\"addr:street\"=>\"Headingley Lane\",\"addr:postcode\"=>\"LS6 2AS\",\"addr:housenumber\"=>\"2\"" }, "geometry": { "type": "Point", "coordinates": [ -1.5615601, 53.8149337 ] } },
	{ "type": "Feature", "properties": { "osm_id": "52056944", "name": "The Red Lion", "amenity": "pub" }, "geometry": { "type": "Point", "coordinates": [ -1.5424824, 53.7945085 ] } },
	{ "type": "Feature", "properties": { "osm_id": "52745037", "name": "The Adelphi", "amenity": "pub", "other_tags": "\"fhrs:id\"=>\"321212\",\"wikidata\"=>\"Q26547152\",\"addr:city\"=>\"Leeds\",\"addr:street\"=>\"Hunslet Road\",\"addr:postcode\"=>\"LS10 1JQ\"" }, "geometry": { "type": "Point", "coordinates": [ -1.5409774, 53.7933039 ] } },
	{ "type": "Feature", "properties": { "osm_id": "53358766", "name": "The Highland Inn", "amenity": "pub", "other_tags": "\"fhrs:id\"=>\"744024\",\"addr:city\"=>\"Leeds\",\"addr:street\"=>\"Cavendish Street\",\"addr:postcode\"=>\"LS3 1LY\",\"addr:housenumber\"=>\"36-38\"" }, "geometry": { "type": "Point", "coordinates": [ -1.5617992, 53.7999462 ] } },
	{ "type": "Feature", "properties": { "osm_id": "59989936", "name": "Halfway House", "amenity": "pub", "other_tags": "\"fhrs:id\"=>\"937223\",\"addr:city\"=>\"Leeds\",\"addr:street\"=>\"Leeds And Bradford Road\",\"addr:postcode\"=>\"LS28 6PE\",\"addr:housenumber\"=>\"727\"" }, "geometry": { "type": "Point", "coordinates": [ -1.6515102, 53.8098355 ] } },
	{ "type": "Feature", "properties": { "osm_id": "84445335", "name": "The Leeds Rifleman", "amenity": "pub", "other_tags": "\"fhrs:id\"=>\"466929\",\"addr:city\"=>\"Leeds\",\"addr:street\"=>\"Carlton Parade\",\"addr:postcode\"=>\"LS7 1HA\",\"addr:housenumber\"=>\"1-3\"" }, "geometry": { "type": "Point", "coordinates": [ -1.5421716, 53.80676 ] } },
	{ "type": "Feature", "properties": { "osm_id": "84455596", "name": "The George", "amenity": "pub", "other_tags": "\"fhrs:id\"=>\"1099905\",\"addr:city\"=>\"Leeds\",\"addr:street\"=>\"Great George Street\",\"addr:postcode\"=>\"LS1 3BB\",\"addr:housenumber\"=>\"69\"" }, "geometry": { "type": "Point", "coordinates": [ -1.5525134, 53.8010402 ] } },
	{ "type": "Feature", "properties": { "osm_id": "84455603", "name": "Town Hall Tavern", "amenity": "pub", "other_tags": "\"food\"=>\"yes\",\"phone\"=>\"+44 113 244 0765\",\"fhrs:id\"=>\"1110107\",\"website\"=>\"http:\/\/www.townhalltavernleeds.co.uk\/\",\"operator\"=>\"Timothy Taylors\",\"real_ale\"=>\"yes\",\"beer_garden\"=>\"no\",\"addr:postcode\"=>\"LS1 2RA\"" }, "geometry": { "type": "Point", "coordinates": [ -1.5513647, 53.7995127 ] } },
	{ "type": "Feature", "properties": { "osm_id": "84455613", "name": "Whitelocks", "amenity": "pub", "other_tags": "\"food\"=>\"yes\",\"phone\"=>\"+44 113 245 3950\",\"fhrs:id\"=>\"428959\",\"old_name\"=>\"The Turk's Head Inn\",\"real_ale\"=>\"yes\",\"wikidata\"=>\"Q26547384\",\"addr:city\"=>\"Leeds\",\"addr:street\"=>\"Turks Head Yard\",\"beer_garden\"=>\"yes\",\"addr:postcode\"=>\"LS1 6HB\",\"source:old_name\"=>\"OS Leeds Sheet 11 Godfrey Edition, 1847\",\"addr:housenumber\"=>\"6-8\"" }, "geometry": { "type": "Point", "coordinates": [ -1.5428815, 53.7971655 ] } },
	{ "type": "Feature", "properties": { "osm_id": "127960333", "name": "The Chemic Tavern", "amenity": "pub", "other_tags": "\"fhrs:id\"=>\"741911\",\"addr:city\"=>\"Leeds\",\"addr:street\"=>\"Johnston Street\",\"source:addr\"=>\"FHRS Open Data\",\"addr:postcode\"=>\"LS6 2NG\",\"addr:housenumber\"=>\"9 - 11\"" }, "geometry": { "type": "Point", "coordinates": [ -1.552881, 53.8145142 ] } },
	{ "type": "Feature", "properties": { "osm_id": "151406549", "name": "The Fox and Newt", "amenity": "pub", "other_tags": "\"food\"=>\"yes\",\"fhrs:id\"=>\"1078609\",\"real_ale\"=>\"yes\",\"addr:city\"=>\"Leeds\",\"addr:street\"=>\"Burley Street\",\"microbrewery\"=>\"yes\",\"addr:postcode\"=>\"LS3 1LD\",\"addr:housenumber\"=>\"7-9\"" }, "geometry": { "type": "Point", "coordinates": [ -1.5594992, 53.8000146 ] } },
	{ "type": "Feature", "properties": { "osm_id": "153767795", "name": "Arcadia", "amenity": "pub", "other_tags": "\"addr:housename\"=>\"34 ARNDALE CENTRE\",\"addr:postcode\"=>\"LS6 2UE\",\"addr:street\"=>\"Otley Road\",\"fhrs:id\"=>\"321216\",\"internet_access\"=>\"wlan\",\"real_ale\"=>\"yes\",\"website\"=>\"http:\/\/www.markettowntaverns.co.uk\/arcadia.asp?Tavern=Arcadia&Section=Main\",\"wheelchair\"=>\"yes\"" }, "geometry": { "type": "Point", "coordinates": [ -1.5789641, 53.8228025 ] } },
	{ "type": "Feature", "properties": { "osm_id": "245070064", "name": "The Head of Steam", "amenity": "pub", "other_tags": "\"fhrs:id\"=>\"899504\",\"old_name\"=>\"Citrus\",\"real_ale\"=>\"yes\",\"addr:city\"=>\"Leeds\",\"addr:street\"=>\"North Lane\",\"addr:postcode\"=>\"LS6 3HG\",\"addr:housenumber\"=>\"11-13\"" }, "geometry": { "type": "Point", "coordinates": [ -1.5788089, 53.8209584 ] } },
	{ "type": "Feature", "properties": { "osm_id": "249310902", "name": "Becketts Bank", "amenity": "pub", "other_tags": "\"food\"=>\"yes\",\"phone\"=>\"+44 113 394 5900\",\"fhrs:id\"=>\"320050\",\"smoking\"=>\"no\",\"website\"=>\"https:\/\/www.jdwetherspoon.com\/pubs\/all-pubs\/england\/west-yorkshire\/becketts-bank-leeds\",\"operator\"=>\"Wetherspoons\",\"real_ale\"=>\"yes\",\"addr:city\"=>\"Leeds\",\"addr:street\"=>\"Park Row\",\"addr:postcode\"=>\"LS1 5JD\",\"opening_hours\"=>\"08:00-24:00; Th,Fr 08:00-01:00\",\"addr:housenumber\"=>\"28\"" }, "geometry": { "type": "Point", "coordinates": [ -1.5472688, 53.7985791 ] } },
	{ "type": "Feature", "properties": { "osm_id": "250142929", "name": "The Miner's Arms", "amenity": "pub", "other_tags": "\"fhrs:id\"=>\"877761\",\"addr:city\"=>\"Leeds\",\"wheelchair\"=>\"limited\",\"addr:street\"=>\"Albert Road\",\"addr:suburb\"=>\"Morley\",\"addr:postcode\"=>\"LS27 8LG\",\"addr:housenumber\"=>\"107\"" }, "geometry": { "type": "Point", "coordinates": [ -1.5932336, 53.7480041 ] } },
	{ "type": "Feature", "properties": { "osm_id": "250220081", "name": "Nation Of Shopkeepers", "amenity": "pub", "other_tags": "\"fhrs:id\"=>\"323060\",\"addr:city\"=>\"Leeds\",\"addr:street\"=>\"Great George Street\",\"addr:postcode\"=>\"LS2 3AG\",\"internet_access\"=>\"wlan\",\"addr:housenumber\"=>\"29-35\",\"internet_access:fee\"=>\"no\"" }, "geometry": { "type": "Point", "coordinates": [ -1.547584, 53.800711 ] } },
	{ "type": "Feature", "properties": { "osm_id": "250225357", "name": "Viaduct Showbar", "amenity": "pub", "other_tags": "\"gay\"=>\"yes\",\"lgbtq\"=>\"primary\",\"phone\"=>\"+44 113 344 9552\",\"fhrs:id\"=>\"321510\",\"website\"=>\"http:\/\/www.viaductleeds.com\/\",\"addr:city\"=>\"Leeds\",\"addr:street\"=>\"Briggate\",\"addr:postcode\"=>\"LS1 6EP\",\"contact:twitter\"=>\"https:\/\/twitter.com\/ViaductShowBar\",\"addr:housenumber\"=>\"11\",\"contact:facebook\"=>\"https:\/\/www.facebook.com\/viaductshowbar\/\"" }, "geometry": { "type": "Point", "coordinates": [ -1.5426851, 53.7950322 ] } },
	{ "type": "Feature", "properties": { "osm_id": "250250973", "name": "The Malt Shovel", "amenity": "pub", "other_tags": "\"fhrs:id\"=>\"321272\",\"wikidata\"=>\"Q26656050\",\"addr:city\"=>\"Leeds\",\"addr:street\"=>\"Crab Lane\",\"addr:postcode\"=>\"LS12 3AG\",\"addr:housenumber\"=>\"21\"" }, "geometry": { "type": "Point", "coordinates": [ -1.58825, 53.7974398 ] } },
	{ "type": "Feature", "properties": { "osm_id": "250291549", "name": "Mr Foley's", "amenity": "pub", "other_tags": "\"food\"=>\"yes\",\"phone\"=>\"+44 113 242 9674\",\"fhrs:id\"=>\"471174\",\"old_name\"=>\"Baroque\",\"operator\"=>\"York Brewery\",\"real_ale\"=>\"yes\",\"beer_garden\"=>\"no\",\"addr:postcode\"=>\"LS1 5RG\",\"addr:housenumber\"=>\"159\"" }, "geometry": { "type": "Point", "coordinates": [ -1.5489426, 53.799432 ] } },
	{ "type": "Feature", "properties": { "osm_id": "250557408", "name": "Pack Horse Inn", "amenity": "pub", "other_tags": "\"fhrs:id\"=>\"959758\",\"real_ale\"=>\"yes\",\"wikidata\"=>\"Q26656184\",\"addr:city\"=>\"Leeds\",\"addr:street\"=>\"Pack Horse Yard\",\"beer_garden\"=>\"yes\",\"addr:postcode\"=>\"LS1 6AT\"" }, "geometry": { "type": "Point", "coordinates": [ -1.5430331, 53.7975608 ] } },
	{ "type": "Feature", "properties": { "osm_id": "250557410", "name": "Ship Inn", "amenity": "pub", "other_tags": "\"fhrs:id\"=>\"322513\",\"website\"=>\"http:\/\/www.theshipleeds.co.uk\/\",\"real_ale\"=>\"yes\",\"addr:street\"=>\"Briggate\",\"addr:postcode\"=>\"LS1 6LH\",\"addr:housenumber\"=>\"71a\"" }, "geometry": { "type": "Point", "coordinates": [ -1.5428131, 53.7982704 ] } },
	{ "type": "Feature", "properties": { "osm_id": "270337149", "name": "The Albert", "amenity": "pub", "other_tags": "\"phone\"=>\"+44 7525 749925\",\"fhrs:id\"=>\"320503\",\"addr:city\"=>\"Yeadon\",\"addr:town\"=>\"Yeadon\",\"addr:street\"=>\"High Street\",\"addr:postcode\"=>\"LS19 7TA\",\"addr:housenumber\"=>\"81\"" }, "geometry": { "type": "Point", "coordinates": [ -1.6802001, 53.8663586 ] } },
	{ "type": "Feature", "properties": { "osm_id": "272096936", "name": "The Hope Inn", "amenity": "pub", "other_tags": "\"fhrs:id\"=>\"320353\",\"addr:city\"=>\"Leeds\",\"addr:street\"=>\"York Road\",\"addr:postcode\"=>\"LS9 8ES\",\"addr:housename\"=>\"74\"" }, "geometry": { "type": "Point", "coordinates": [ -1.523563, 53.7975923 ] } },
	{ "type": "Feature", "properties": { "osm_id": "288338336", "name": "The Bridge", "amenity": "pub", "other_tags": "\"gay\"=>\"yes\",\"lgbtq\"=>\"primary\",\"phone\"=>\"+44 113 244 4734\",\"fhrs:id\"=>\"319575\",\"website\"=>\"www.bridgeinnleeds.com\/\",\"addr:city\"=>\"Leeds\",\"addr:street\"=>\"Bridge End\",\"addr:postcode\"=>\"LS1 7HG\",\"contact:twitter\"=>\"https:\/\/twitter.com\/BridgeInnLeeds\",\"contact:facebook\"=>\"https:\/\/www.facebook.com\/pg\/BridgeInnLeeds\/\"" }, "geometry": { "type": "Point", "coordinates": [ -1.5420643, 53.7944327 ] } },
	{ "type": "Feature", "properties": { "osm_id": "288347975", "name": "The Old White Hart", "amenity": "pub", "other_tags": "\"fhrs:id\"=>\"322845\",\"addr:city\"=>\"Leeds\",\"addr:street\"=>\"Town Street\",\"addr:postcode\"=>\"LS11 8BZ\",\"addr:housenumber\"=>\"45\"" }, "geometry": { "type": "Point", "coordinates": [ -1.5677832, 53.772267 ] } },
	{ "type": "Feature", "properties": { "osm_id": "288347977", "name": "The Whistlestop", "amenity": "pub", "other_tags": "\"fhrs:id\"=>\"1127349\",\"addr:city\"=>\"Leeds\",\"addr:street\"=>\"Town Street\",\"addr:postcode\"=>\"LS11 8DG\"" }, "geometry": { "type": "Point", "coordinates": [ -1.5727599, 53.7714829 ] } },
	{ "type": "Feature", "properties": { "osm_id": "292050105", "name": "Moorhouse Inn", "amenity": "pub", "other_tags": "\"food\"=>\"no\",\"brewery\"=>\"samuel_smith\",\"fhrs:id\"=>\"467042\",\"real_ale\"=>\"yes\",\"addr:city\"=>\"Leeds\",\"addr:street\"=>\"Moor Crescent\",\"beer_garden\"=>\"yes\",\"addr:postcode\"=>\"LS11 5NQ\"" }, "geometry": { "type": "Point", "coordinates": [ -1.5435347, 53.7814308 ] } },
	{ "type": "Feature", "properties": { "osm_id": "292050107", "name": "Spinning Wheel", "amenity": "pub", "other_tags": "\"fhrs:id\"=>\"319509\",\"addr:city\"=>\"Leeds\",\"addr:street\"=>\"Admiral Street\",\"addr:postcode\"=>\"LS11 5NG\"" }, "geometry": { "type": "Point", "coordinates": [ -1.5438832, 53.7819363 ] } },
	{ "type": "Feature", "properties": { "osm_id": "292070347", "name": "The Regent", "amenity": "pub", "other_tags": "\"fhrs:id\"=>\"931773\",\"operator\"=>\"Original Pub Company\",\"real_ale\"=>\"yes\",\"addr:street\"=>\"Regent Street\",\"fixme:addr3\"=>\"Leeds\",\"source:addr\"=>\"FHRS Open Data\",\"addr:postcode\"=>\"LS7 4PE\",\"addr:housenumber\"=>\"15 - 17\"" }, "geometry": { "type": "Point", "coordinates": [ -1.536785, 53.830343 ] } },
	{ "type": "Feature", "properties": { "osm_id": "294182573", "name": "East & West Ardsley Social Club", "amenity": "pub", "other_tags": "\"fhrs:id\"=>\"736976\",\"addr:city\"=>\"Wakefield\",\"addr:street\"=>\"Common Lane\",\"addr:postcode\"=>\"WF3 2EP\"" }, "geometry": { "type": "Point", "coordinates": [ -1.5522962, 53.7276898 ] } },
	{ "type": "Feature", "properties": { "osm_id": "295769462", "name": "The Hare and Hounds", "amenity": "pub", "other_tags": "\"fhrs:id\"=>\"997539\",\"addr:city\"=>\"Wakefield\",\"addr:street\"=>\"Batley Road\",\"addr:suburb\"=>\"Tingley\",\"addr:postcode\"=>\"WF3 1DU\",\"addr:housenumber\"=>\"7\"" }, "geometry": { "type": "Point", "coordinates": [ -1.5802897, 53.7162911 ] } },
	{ "type": "Feature", "properties": { "osm_id": "297118291", "name": "Masons Arms", "amenity": "pub", "other_tags": "\"fhrs:id\"=>\"1018385\",\"addr:city\"=>\"Leeds\",\"addr:street\"=>\"Lowtown\",\"addr:suburb\"=>\"Pudsey\",\"addr:postcode\"=>\"LS28 7AA\",\"addr:housenumber\"=>\"64\"" }, "geometry": { "type": "Point", "coordinates": [ -1.6599803, 53.7975624 ] } },
	{ "type": "Feature", "properties": { "osm_id": "297118295", "name": "Bojangles", "amenity": "pub", "other_tags": "\"fhrs:id\"=>\"321201\",\"addr:town\"=>\"Pudsey\",\"addr:street\"=>\"Lowtown\",\"addr:postcode\"=>\"LS28 7AA\",\"addr:housenumber\"=>\"28-30\"" }, "geometry": { "type": "Point", "coordinates": [ -1.6616107, 53.7971922 ] } },
	{ "type": "Feature", "properties": { "osm_id": "297118300", "name": "Crossed Shuttle", "amenity": "pub", "other_tags": "\"fhrs:id\"=>\"323206\",\"addr:town\"=>\"Pudsey\",\"addr:street\"=>\"Manor House Street\",\"addr:postcode\"=>\"LS28 7BJ\"" }, "geometry": { "type": "Point", "coordinates": [ -1.6619569, 53.7965409 ] } },
	{ "type": "Feature", "properties": { "osm_id": "297118475", "name": "Butchers Arms", "amenity": "pub", "other_tags": "\"fhrs:id\"=>\"320429\",\"addr:town\"=>\"Pudsey\",\"addr:street\"=>\"Church Lane\",\"addr:postcode\"=>\"LS28 7RF\",\"addr:housenumber\"=>\"30\"" }, "geometry": { "type": "Point", "coordinates": [ -1.6642417, 53.7954852 ] } },
	{ "type": "Feature", "properties": { "osm_id": "298127842", "name": "West Hunslet Conservative Club", "amenity": "pub" }, "geometry": { "type": "Point", "coordinates": [ -1.5455096, 53.7782221 ] } },
	{ "type": "Feature", "properties": { "osm_id": "299171005", "name": "Viva Cuba", "amenity": "pub" }, "geometry": { "type": "Point", "coordinates": [ -1.5456161, 53.8031653 ] } },
	{ "type": "Feature", "properties": { "osm_id": "301022530", "name": "The Cardigan Arms", "amenity": "pub", "other_tags": "\"fhrs:id\"=>\"1216433\",\"wikidata\"=>\"Q26655881\",\"addr:city\"=>\"Leeds\",\"wheelchair\"=>\"no\",\"addr:street\"=>\"Kirkstall Road\",\"addr:country\"=>\"GB\",\"addr:postcode\"=>\"LS4 2HQ\",\"addr:housenumber\"=>\"364\"" }, "geometry": { "type": "Point", "coordinates": [ -1.5826388, 53.8064929 ] } },
	{ "type": "Feature", "properties": { "osm_id": "301285315", "name": "Around The World In 80 Beers", "amenity": "pub", "other_tags": "\"addr:city\"=>\"Leeds\",\"addr:street\"=>\"The Headrow\",\"addr:postcode\"=>\"LS1 5RD\",\"addr:housenumber\"=>\"123\"" }, "geometry": { "type": "Point", "coordinates": [ -1.5472872, 53.7994228 ] } },
	{ "type": "Feature", "properties": { "osm_id": "301687715", "name": "The Picturehouse", "amenity": "pub", "other_tags": "\"fhrs:id\"=>\"319960\",\"old_name\"=>\"Edwards\",\"operator\"=>\"Crown Carveries\",\"addr:city\"=>\"Leeds\",\"addr:street\"=>\"Merrion Street\",\"addr:postcode\"=>\"LS2 8LW\",\"addr:housenumber\"=>\"82-90\"" }, "geometry": { "type": "Point", "coordinates": [ -1.5443427, 53.8009494 ] } },
	{ "type": "Feature", "properties": { "osm_id": "302323964", "name": "The New Scarborough", "amenity": "pub", "other_tags": "\"fhrs:id\"=>\"559042\",\"addr:city\"=>\"Wakefield\",\"addr:street\"=>\"Dewsbury Road\",\"addr:postcode\"=>\"WF3 1LH\"" }, "geometry": { "type": "Point", "coordinates": [ -1.5799041, 53.729646 ] } },
	{ "type": "Feature", "properties": { "osm_id": "303791393", "name": "The Unicorn Inn", "amenity": "pub", "other_tags": "\"fhrs:id\"=>\"1172879\",\"addr:city\"=>\"Leeds\",\"addr:street\"=>\"Main Street\",\"addr:postcode\"=>\"WF3 3RW\"" }, "geometry": { "type": "Point", "coordinates": [ -1.4888807, 53.7410242 ] } },
	{ "type": "Feature", "properties": { "osm_id": "304898251", "name": "The Merchant", "amenity": "pub", "other_tags": "\"fhrs:id\"=>\"639174\",\"old_name\"=>\"Varsity\",\"addr:city\"=>\"Leeds\",\"addr:street\"=>\"Woodhouse Lane\",\"addr:postcode\"=>\"LS2 8LX\",\"addr:housenumber\"=>\"20-24\"" }, "geometry": { "type": "Point", "coordinates": [ -1.5447869, 53.8011889 ] } },
	{ "type": "Feature", "properties": { "osm_id": "313099976", "name": "Wetherspoons", "amenity": "pub", "other_tags": "\"brewery\"=>\"various\",\"fhrs:id\"=>\"321009\",\"smoking\"=>\"outside\",\"addr:city\"=>\"Leeds\",\"wheelchair\"=>\"yes\",\"addr:street\"=>\"New Station Street\",\"addr:postcode\"=>\"LS1 4DT\",\"addr:housename\"=>\"City Station\",\"internet_access\"=>\"wlan\",\"outdoor_seating\"=>\"yes\",\"internet_access:fee\"=>\"no\",\"internet_access:ssid\"=>\"_The Cloud\"" }, "geometry": { "type": "Point", "coordinates": [ -1.5486597, 53.7957046 ] } },
	{ "type": "Feature", "properties": { "osm_id": "313194447", "amenity": "pub" }, "geometry": { "type": "Point", "coordinates": [ -1.5721565, 53.7973137 ] } },
	{ "type": "Feature", "properties": { "osm_id": "316814433", "name": "Oracle", "amenity": "pub", "other_tags": "\"fhrs:id\"=>\"415518\",\"addr:city\"=>\"Leeds\",\"addr:street\"=>\"Brewery Place\",\"addr:postcode\"=>\"LS10 1NE\",\"addr:housenumber\"=>\"3\"" }, "geometry": { "type": "Point", "coordinates": [ -1.5377543, 53.7938862 ] } },
	{ "type": "Feature", "properties": { "osm_id": "317087712", "name": "AzÃºcar Tequila & Rum Bar", "amenity": "pub", "other_tags": "\"phone\"=>\"+44 113 243 5761\",\"website\"=>\"www.azucarbar.co.uk\",\"addr:city\"=>\"Leeds\",\"addr:street\"=>\"Brewery Place\",\"addr:postcode\"=>\"LS10 1NE\",\"contact:website\"=>\"http:\/\/www.azucarbar.co.uk\",\"addr:housenumber\"=>\"5\"" }, "geometry": { "type": "Point", "coordinates": [ -1.5372528, 53.7936848 ] } },
	{ "type": "Feature", "properties": { "osm_id": "317087718", "name": "The Waterfront", "amenity": "pub", "other_tags": "\"addr:city\"=>\"Leeds\",\"addr:street\"=>\"Brewery Place\",\"addr:housenumber\"=>\"4\"" }, "geometry": { "type": "Point", "coordinates": [ -1.5374996, 53.7938951 ] } },
	{ "type": "Feature", "properties": { "osm_id": "317430855", "name": "Editor's Draught", "amenity": "pub", "other_tags": "\"fhrs:id\"=>\"1007012\",\"old_name\"=>\"The Phoenix Gastro Bar;The Central\",\"addr:city\"=>\"Leeds\",\"addr:street\"=>\"Wellington Street\",\"addr:postcode\"=>\"LS1 4LT\",\"addr:housenumber\"=>\"88\"" }, "geometry": { "type": "Point", "coordinates": [ -1.5551927, 53.7968224 ] } },
	{ "type": "Feature", "properties": { "osm_id": "319130545", "name": "Aire Bar", "amenity": "pub", "other_tags": "\"phone\"=>\"+44 113 245 5500\",\"fhrs:id\"=>\"321207\",\"website\"=>\"www.airebar.co.uk\",\"addr:city\"=>\"Leeds\",\"addr:street\"=>\"The Calls\",\"addr:postcode\"=>\"LS2 7EW\",\"addr:housenumber\"=>\"32\"" }, "geometry": { "type": "Point", "coordinates": [ -1.5390881, 53.7948578 ] } },
	{ "type": "Feature", "properties": { "osm_id": "320951171", "name": "Fracqture", "amenity": "pub" }, "geometry": { "type": "Point", "coordinates": [ -1.5393285, 53.7954938 ] } },
	{ "type": "Feature", "properties": { "osm_id": "320998149", "name": "Slocken", "amenity": "pub", "other_tags": "\"addr:city\"=>\"Leeds\",\"addr:street\"=>\"Call Lane\",\"addr:postcode\"=>\"LS1 6DN\",\"addr:housenumber\"=>\"10-12\"" }, "geometry": { "type": "Point", "coordinates": [ -1.5401096, 53.7964295 ] } },
	{ "type": "Feature", "properties": { "osm_id": "321004601", "name": "The Regent", "amenity": "pub", "other_tags": "\"fhrs:id\"=>\"632697\",\"addr:city\"=>\"Leeds\",\"addr:street\"=>\"Kirkgate\",\"addr:postcode\"=>\"LS1 6DP\",\"addr:housenumber\"=>\"109\"" }, "geometry": { "type": "Point", "coordinates": [ -1.5400366, 53.796596 ] } },
	{ "type": "Feature", "properties": { "osm_id": "325227284", "name": "The Nags Head", "amenity": "pub", "other_tags": "\"fhrs:id\"=>\"467134\",\"addr:city\"=>\"Leeds\",\"addr:street\"=>\"Town Street\",\"addr:postcode\"=>\"LS7 4NB\",\"addr:housenumber\"=>\"20\"" }, "geometry": { "type": "Point", "coordinates": [ -1.5368441, 53.8287484 ] } },
	{ "type": "Feature", "properties": { "osm_id": "330071189", "name": "The Royal Hotel", "amenity": "pub", "other_tags": "\"fhrs:id\"=>\"1017969\",\"addr:city\"=>\"Leeds\",\"addr:street\"=>\"Town Street\",\"addr:suburb\"=>\"Armley\",\"addr:postcode\"=>\"LS12 3AA\",\"addr:housenumber\"=>\"60\"" }, "geometry": { "type": "Point", "coordinates": [ -1.5916397, 53.7967009 ] } },
	{ "type": "Feature", "properties": { "osm_id": "330071198", "name": "The White Horse", "amenity": "pub", "other_tags": "\"fhrs:id\"=>\"1018048\",\"addr:city\"=>\"Leeds\",\"addr:street\"=>\"Town Street\",\"addr:suburb\"=>\"Armley\",\"addr:postcode\"=>\"LS12 3HD\",\"addr:housenumber\"=>\"87\"" }, "geometry": { "type": "Point", "coordinates": [ -1.5930071, 53.7964244 ] } },
	{ "type": "Feature", "properties": { "osm_id": "333442544", "name": "Angel Inn", "amenity": "pub", "other_tags": "\"fhrs:id\"=>\"320876\",\"addr:street\"=>\"Angel Inn Yard\",\"addr:postcode\"=>\"LS1 6LN\"" }, "geometry": { "type": "Point", "coordinates": [ -1.5429962, 53.79804 ] } },
	{ "type": "Feature", "properties": { "osm_id": "333452833", "name": "Bad Apples", "amenity": "pub", "other_tags": "\"addr:city\"=>\"Leeds\",\"addr:street\"=>\"Call Lane\",\"addr:postcode\"=>\"LS1 7DH\",\"addr:housenumber\"=>\"7\"" }, "geometry": { "type": "Point", "coordinates": [ -1.5398603, 53.7963581 ] } },
	{ "type": "Feature", "properties": { "osm_id": "333452843", "name": "Fibre", "amenity": "pub", "other_tags": "\"fhrs:id\"=>\"319585\",\"addr:city\"=>\"Leeds\",\"addr:street\"=>\"Briggate\",\"addr:postcode\"=>\"LS1 6LY\",\"addr:housenumber\"=>\"168-169\"" }, "geometry": { "type": "Point", "coordinates": [ -1.5423158, 53.7950442 ] } },
	{ "type": "Feature", "properties": { "osm_id": "333452844", "name": "Queens Court", "amenity": "pub", "other_tags": "\"gay\"=>\"yes\",\"lgbtq\"=>\"primary\",\"fhrs:id\"=>\"323357\",\"website\"=>\"https:\/\/www.queenscourtleeds.com\",\"addr:city\"=>\"Leeds\",\"addr:street\"=>\"Briggate\",\"addr:postcode\"=>\"LS1 6LY\",\"contact:twitter\"=>\"https:\/\/twitter.com\/queenscrtlds\",\"contact:facebook\"=>\"https:\/\/www.facebook.com\/QueensCourt\"" }, "geometry": { "type": "Point", "coordinates": [ -1.5423306, 53.7951416 ] } },
	{ "type": "Feature", "properties": { "osm_id": "333799077", "name": "The Guildford Hotel", "amenity": "pub", "other_tags": "\"fhrs:id\"=>\"1065688\",\"old_name\"=>\"115 The Headrow\",\"addr:city\"=>\"Leeds\",\"addr:street\"=>\"The Headrow\",\"addr:postcode\"=>\"LS1 5JW\",\"addr:housenumber\"=>\"115\"" }, "geometry": { "type": "Point", "coordinates": [ -1.5458383, 53.7993717 ] } },
	{ "type": "Feature", "properties": { "osm_id": "333800534", "name": "Revolution", "amenity": "pub", "other_tags": "\"fhrs:id\"=>\"321330\",\"addr:city\"=>\"Leeds\",\"wheelchair\"=>\"limited\",\"addr:street\"=>\"Cookridge Street\",\"addr:postcode\"=>\"LS2 3AW\",\"addr:housenumber\"=>\"41\"" }, "geometry": { "type": "Point", "coordinates": [ -1.547575, 53.8011453 ] } },
	{ "type": "Feature", "properties": { "osm_id": "339923503", "name": "The Slug & Lettuce", "amenity": "pub", "other_tags": "\"fhrs:id\"=>\"323545\",\"addr:city\"=>\"Leeds\",\"addr:street\"=>\"Park Row\",\"addr:postcode\"=>\"LS1 5HU\",\"addr:housenumber\"=>\"14\"" }, "geometry": { "type": "Point", "coordinates": [ -1.546842, 53.7984781 ] } },
	{ "type": "Feature", "properties": { "osm_id": "345024393", "name": "The Beer House", "amenity": "pub", "other_tags": "\"layer\"=>\"1\",\"fhrs:id\"=>\"1073642\",\"addr:city\"=>\"Leeds\",\"addr:unit\"=>\"15 South Concourse\",\"addr:street\"=>\"New Station Street\",\"addr:postcode\"=>\"LS1 4DT\",\"addr:housename\"=>\"City Station\"" }, "geometry": { "type": "Point", "coordinates": [ -1.5471557, 53.7949019 ] } },
	{ "type": "Feature", "properties": { "osm_id": "354925181", "name": "Bulls Head", "amenity": "pub", "other_tags": "\"fhrs:id\"=>\"322040\",\"addr:city\"=>\"Wakefield\",\"addr:street\"=>\"Dewsbury Road\",\"addr:postcode\"=>\"WF3 1LY\"" }, "geometry": { "type": "Point", "coordinates": [ -1.5853464, 53.7251466 ] } },
	{ "type": "Feature", "properties": { "osm_id": "357708651", "name": "The Brewery Tap", "amenity": "pub", "other_tags": "\"fhrs:id\"=>\"1058739\",\"website\"=>\"http:\/\/www.brewerytapleeds.co.uk\/\",\"operator\"=>\"Leeds Brewery\",\"addr:street\"=>\"New Station Street\",\"beer_garden\"=>\"no\",\"microbrewery\"=>\"yes\",\"addr:postcode\"=>\"LS1 5DL\",\"addr:housenumber\"=>\"18-24\"" }, "geometry": { "type": "Point", "coordinates": [ -1.5452228, 53.7951338 ] } },
	{ "type": "Feature", "properties": { "osm_id": "357751922", "name": "Veritas", "amenity": "pub", "other_tags": "\"fhrs:id\"=>\"323271\",\"addr:city\"=>\"Leeds\",\"addr:street\"=>\"Great George Street\",\"addr:postcode\"=>\"LS1 3BB\",\"addr:housenumber\"=>\"43-47\"" }, "geometry": { "type": "Point", "coordinates": [ -1.5512212, 53.800919 ] } },
	{ "type": "Feature", "properties": { "osm_id": "360448854", "name": "Halfway House", "amenity": "pub", "other_tags": "\"fhrs:id\"=>\"639103\",\"addr:city\"=>\"Leeds\",\"addr:street\"=>\"Bruntcliffe Road\",\"addr:postcode\"=>\"LS27 0BL\"" }, "geometry": { "type": "Point", "coordinates": [ -1.6132247, 53.7374601 ] } },
	{ "type": "Feature", "properties": { "osm_id": "365413770", "name": "Red Lion Inn", "amenity": "pub", "other_tags": "\"fhrs:id\"=>\"323486\",\"addr:city\"=>\"Leeds\",\"addr:street\"=>\"Main Street\",\"addr:suburb\"=>\"Shadwell\",\"addr:postcode\"=>\"LS17 8HH\",\"addr:housenumber\"=>\"60\"" }, "geometry": { "type": "Point", "coordinates": [ -1.4842914, 53.8545857 ] } },
	{ "type": "Feature", "properties": { "osm_id": "369600143", "name": "Bruntcliffe WMC", "amenity": "pub", "other_tags": "\"fhrs:id\"=>\"320705\",\"addr:city\"=>\"Leeds\",\"addr:street\"=>\"Bruntcliffe Road\",\"addr:suburb\"=>\"Morley\",\"addr:postcode\"=>\"LS27 0LY\"" }, "geometry": { "type": "Point", "coordinates": [ -1.6234692, 53.7440455 ] } },
	{ "type": "Feature", "properties": { "osm_id": "370074730", "name": "The White Hart", "amenity": "pub" }, "geometry": { "type": "Point", "coordinates": [ -1.4489052, 53.7572497 ] } },
	{ "type": "Feature", "properties": { "osm_id": "370075264", "name": "The Midland Hotel", "amenity": "pub", "other_tags": "\"fhrs:id\"=>\"1019728\",\"addr:city\"=>\"Leeds\",\"addr:street\"=>\"Aberford Road\",\"addr:suburb\"=>\"Woodlesford\",\"addr:postcode\"=>\"LS26 8LQ\",\"addr:housenumber\"=>\"97\"" }, "geometry": { "type": "Point", "coordinates": [ -1.446544, 53.7528742 ] } },
	{ "type": "Feature", "properties": { "osm_id": "370075313", "name": "The New Masons Arms", "amenity": "pub", "other_tags": "\"fhrs:id\"=>\"1207208\",\"addr:city\"=>\"Leeds\",\"addr:street\"=>\"Aberford Road\",\"addr:postcode\"=>\"LS26 8JR\",\"addr:housenumber\"=>\"26\"" }, "geometry": { "type": "Point", "coordinates": [ -1.452205, 53.7479622 ] } },
	{ "type": "Feature", "properties": { "osm_id": "373160767", "name": "Sportsman Inn", "amenity": "pub", "other_tags": "\"wifi\"=>\"yes\",\"fhrs:id\"=>\"1149124\",\"addr:city\"=>\"Leeds\",\"addr:street\"=>\"Hunger Hill\",\"addr:postcode\"=>\"LS27 9AD\",\"addr:housenumber\"=>\"14\"" }, "geometry": { "type": "Point", "coordinates": [ -1.6010061, 53.7426332 ] } },
	{ "type": "Feature", "properties": { "osm_id": "379721005", "name": "The Arkle", "amenity": "pub", "other_tags": "\"fhrs:id\"=>\"842603\",\"addr:street\"=>\"Springfield Avenue\",\"designation\"=>\"Public House\",\"addr:postcode\"=>\"LS27 9PP\",\"addr:housenumber\"=>\"105\"" }, "geometry": { "type": "Point", "coordinates": [ -1.6078381, 53.7535042 ] } },
	{ "type": "Feature", "properties": { "osm_id": "380787332", "name": "Nelson Arms", "amenity": "pub", "other_tags": "\"fhrs:id\"=>\"320743\",\"addr:street\"=>\"Victoria Road\",\"addr:postcode\"=>\"LS27 8LS\"" }, "geometry": { "type": "Point", "coordinates": [ -1.5998202, 53.7524414 ] } },
	{ "type": "Feature", "properties": { "osm_id": "382692634", "name": "The Rock", "amenity": "pub", "other_tags": "\"fhrs:id\"=>\"467022\",\"addr:town\"=>\"Bramley\",\"addr:street\"=>\"Leeds And Bradford Road\",\"addr:postcode\"=>\"LS13 1EP\",\"addr:housenumber\"=>\"458\"" }, "geometry": { "type": "Point", "coordinates": [ -1.6368944, 53.8184977 ] } },
	{ "type": "Feature", "properties": { "osm_id": "384962210", "name": "Ackroyd Street Working Men's Club", "amenity": "pub", "other_tags": "\"addr:city\"=>\"Leeds\",\"wheelchair\"=>\"yes\",\"addr:street\"=>\"School Street\",\"addr:postcode\"=>\"LS27 8BW\"" }, "geometry": { "type": "Point", "coordinates": [ -1.5954259, 53.7451187 ] } },
	{ "type": "Feature", "properties": { "osm_id": "385185366", "name": "Churwell Working Men's Club", "amenity": "pub", "other_tags": "\"fhrs:id\"=>\"320698\",\"addr:city\"=>\"Leeds\",\"addr:street\"=>\"Old Road\",\"addr:postcode\"=>\"LS27 7RR\"" }, "geometry": { "type": "Point", "coordinates": [ -1.5875704, 53.7634912 ] } },
	{ "type": "Feature", "properties": { "osm_id": "385185536", "name": "New Inn Pub", "amenity": "pub", "other_tags": "\"fhrs:id\"=>\"1194700\",\"addr:city\"=>\"Leeds\",\"addr:street\"=>\"Elland Road\",\"addr:postcode\"=>\"LS27 7SS\",\"addr:housenumber\"=>\"18\"" }, "geometry": { "type": "Point", "coordinates": [ -1.5869304, 53.7624309 ] } },
	{ "type": "Feature", "properties": { "osm_id": "388505888", "name": "The Sun Inn", "amenity": "pub" }, "geometry": { "type": "Point", "coordinates": [ -1.5330013, 53.778022 ] } },
	{ "type": "Feature", "properties": { "osm_id": "388505890", "name": "Station Hotel", "amenity": "pub", "other_tags": "\"fhrs:id\"=>\"319844\",\"addr:city\"=>\"Leeds\",\"addr:street\"=>\"Hillidge Road\",\"addr:postcode\"=>\"LS10 1DQ\",\"addr:housenumber\"=>\"69\"" }, "geometry": { "type": "Point", "coordinates": [ -1.5358386, 53.7793877 ] } },
	{ "type": "Feature", "properties": { "osm_id": "389460144", "name": "The Golden Lion", "amenity": "pub", "other_tags": "\"fhrs:id\"=>\"321728\",\"real_ale\"=>\"yes\",\"addr:city\"=>\"Leeds\",\"addr:street\"=>\"Beeston Road\",\"addr:suburb\"=>\"Beeston\",\"addr:postcode\"=>\"LS11 8RP\",\"addr:housenumber\"=>\"42\"" }, "geometry": { "type": "Point", "coordinates": [ -1.5516684, 53.783724 ] } },
	{ "type": "Feature", "properties": { "osm_id": "391301750", "name": "Rowland Road WMC", "amenity": "pub", "other_tags": "\"url\"=>\"http:\/\/www.rowlandroadwmc.co.uk\/\",\"fhrs:id\"=>\"320127\",\"addr:city\"=>\"Leeds\",\"addr:street\"=>\"Rowland Road\",\"postal_code\"=>\"LS11 6ED\",\"addr:postcode\"=>\"LS11 6ED\",\"addr:housenumber\"=>\"38\"" }, "geometry": { "type": "Point", "coordinates": [ -1.549526, 53.7763878 ] } },
	{ "type": "Feature", "properties": { "osm_id": "391625173", "name": "Middleton Conservative Club", "amenity": "pub" }, "geometry": { "type": "Point", "coordinates": [ -1.5387822, 53.7483397 ] } },
	{ "type": "Feature", "properties": { "osm_id": "400962840", "name": "The Malvern", "amenity": "pub", "other_tags": "\"status\"=>\"closed\"" }, "geometry": { "type": "Point", "coordinates": [ -1.5531697, 53.7794613 ] } },
	{ "type": "Feature", "properties": { "osm_id": "401349069", "name": "Gildersome Taverners", "amenity": "pub", "other_tags": "\"fhrs:id\"=>\"320727\",\"addr:city\"=>\"Leeds\",\"addr:street\"=>\"Street Lane\",\"addr:suburb\"=>\"Gildersome\",\"addr:postcode\"=>\"LS27 7HP\"" }, "geometry": { "type": "Point", "coordinates": [ -1.635098, 53.7526287 ] } },
	{ "type": "Feature", "properties": { "osm_id": "410102314", "name": "Parnaby Tavern", "amenity": "pub", "other_tags": "\"fhrs:id\"=>\"467038\",\"addr:city\"=>\"Leeds\",\"addr:street\"=>\"Middleton Road\",\"addr:postcode\"=>\"LS10 2AB\",\"addr:housenumber\"=>\"1\"" }, "geometry": { "type": "Point", "coordinates": [ -1.5232379, 53.7707005 ] } },
	{ "type": "Feature", "properties": { "osm_id": "410947719", "name": "Old Brickworks", "amenity": "pub", "other_tags": "\"food\"=>\"yes\",\"brand\"=>\"Brewers Fayre\",\"fhrs:id\"=>\"1207201\",\"addr:city\"=>\"Bradford\",\"addr:street\"=>\"Wakefield Road\",\"addr:suburb\"=>\"Drighlington\",\"addr:postcode\"=>\"BD11 1EA\"" }, "geometry": { "type": "Point", "coordinates": [ -1.6435713, 53.7502955 ] } },
	{ "type": "Feature", "properties": { "osm_id": "410947750", "name": "New Inn Pub & Restaurant", "amenity": "pub", "other_tags": "\"food\"=>\"yes\",\"fhrs:id\"=>\"1024477\",\"addr:city\"=>\"Bradford\",\"addr:street\"=>\"Wakefield Road\",\"addr:suburb\"=>\"Drighlington\",\"addr:postcode\"=>\"BD11 1EA\",\"addr:housenumber\"=>\"144\"" }, "geometry": { "type": "Point", "coordinates": [ -1.6495193, 53.751718 ] } },
	{ "type": "Feature", "properties": { "osm_id": "429827034", "name": "The Woodcock", "amenity": "pub", "other_tags": "\"fhrs:id\"=>\"321115\",\"addr:city\"=>\"Leeds\",\"addr:street\"=>\"Whitehall Road\",\"addr:postcode\"=>\"LS12 5HR\"" }, "geometry": { "type": "Point", "coordinates": [ -1.6349934, 53.7701509 ] } },
	{ "type": "Feature", "properties": { "osm_id": "430953150", "name": "William IV", "amenity": "pub", "other_tags": "\"fhrs:id\"=>\"837981\",\"addr:city\"=>\"Leeds\",\"addr:street\"=>\"Lower Wortley Road\",\"addr:postcode\"=>\"LS12 4QA\",\"addr:housenumber\"=>\"301\"" }, "geometry": { "type": "Point", "coordinates": [ -1.6018525, 53.7836225 ] } },
	{ "type": "Feature", "properties": { "osm_id": "441335382", "name": "The Bankhouse Inn", "amenity": "pub", "other_tags": "\"fhrs:id\"=>\"322439\",\"addr:town\"=>\"Pudsey\",\"addr:street\"=>\"Bankhouse Lane\",\"addr:postcode\"=>\"LS28 8EB\",\"addr:housenumber\"=>\"40\"" }, "geometry": { "type": "Point", "coordinates": [ -1.6718361, 53.7843273 ] } },
	{ "type": "Feature", "properties": { "osm_id": "441335564", "name": "The Fleece", "amenity": "pub" }, "geometry": { "type": "Point", "coordinates": [ -1.6665067, 53.7883127 ] } },
	{ "type": "Feature", "properties": { "osm_id": "441713867", "name": "The Station", "amenity": "pub" }, "geometry": { "type": "Point", "coordinates": [ -1.451688, 53.8051193 ] } },
	{ "type": "Feature", "properties": { "osm_id": "442976838", "name": "The Woodman", "amenity": "pub", "other_tags": "\"fhrs:id\"=>\"1070565\",\"addr:city\"=>\"Leeds\",\"addr:street\"=>\"Selby Road\",\"addr:postcode\"=>\"LS15 7JS\",\"addr:housenumber\"=>\"281-283\"" }, "geometry": { "type": "Point", "coordinates": [ -1.467146, 53.7971164 ] } },
	{ "type": "Feature", "properties": { "osm_id": "443115954", "name": "Victoria Hotel", "amenity": "pub", "other_tags": "\"fhrs:id\"=>\"467449\",\"addr:city\"=>\"Leeds\",\"addr:street\"=>\"Main Street\",\"addr:postcode\"=>\"WF10 2BZ\",\"addr:housenumber\"=>\"63\"" }, "geometry": { "type": "Point", "coordinates": [ -1.3688391, 53.74344 ] } },
	{ "type": "Feature", "properties": { "osm_id": "443116591", "name": "Boat inn", "amenity": "pub", "other_tags": "\"fhrs:id\"=>\"862107\",\"addr:town\"=>\"Castleford\",\"addr:street\"=>\"Main Street\",\"addr:postcode\"=>\"WF10 2BX\"" }, "geometry": { "type": "Point", "coordinates": [ -1.3674005, 53.7408711 ] } },
	{ "type": "Feature", "properties": { "osm_id": "444622879", "name": "The Manor Inn", "amenity": "pub", "other_tags": "\"old_name\"=>\"The Erv Inn\"" }, "geometry": { "type": "Point", "coordinates": [ -1.6621341, 53.7966606 ] } },
	{ "type": "Feature", "properties": { "osm_id": "444623035", "name": "The Ivy", "amenity": "pub", "other_tags": "\"addr:city\"=>\"Leeds\",\"addr:street\"=>\"Valley Road\",\"addr:suburb\"=>\"Pudsey\",\"addr:postcode\"=>\"LS28 9EU\",\"addr:housenumber\"=>\"100\"" }, "geometry": { "type": "Point", "coordinates": [ -1.6556246, 53.7901346 ] } },
	{ "type": "Feature", "properties": { "osm_id": "446299366", "name": "Anchor", "amenity": "pub", "other_tags": "\"smoking\"=>\"outside\"" }, "geometry": { "type": "Point", "coordinates": [ -1.3676815, 53.7435555 ] } },
	{ "type": "Feature", "properties": { "osm_id": "455594059", "name": "The Worlds End", "amenity": "pub", "other_tags": "\"addr:town\"=>\"Pudsey\",\"addr:street\"=>\"Booths Yard\",\"addr:postcode\"=>\"LS28 7AD\",\"addr:housenumber\"=>\"5\"" }, "geometry": { "type": "Point", "coordinates": [ -1.6622704, 53.7971878 ] } },
	{ "type": "Feature", "properties": { "osm_id": "506820705", "name": "Billy's Bar", "amenity": "pub", "other_tags": "\"addr:postcode\"=>\"LS11 0ES\"" }, "geometry": { "type": "Point", "coordinates": [ -1.5717533, 53.7770283 ] } },
	{ "type": "Feature", "properties": { "osm_id": "761999398", "name": "The Fox and Hounds", "amenity": "pub", "other_tags": "\"fhrs:id\"=>\"320238\",\"operator\"=>\"Ember Inns\",\"wikidata\"=>\"Q26547396\",\"addr:city\"=>\"Leeds\",\"addr:street\"=>\"Tinshill Road\",\"addr:suburb\"=>\"Cookridge\",\"addr:postcode\"=>\"LS16 7BT\",\"opening_hours\"=>\"Mo-Su 11:00-00:00\"" }, "geometry": { "type": "Point", "coordinates": [ -1.6295253, 53.8478873 ] } },
	{ "type": "Feature", "properties": { "osm_id": "761999433", "name": "The Queens Arms", "amenity": "pub", "other_tags": "\"fhrs:id\"=>\"322146\",\"addr:city\"=>\"Leeds\",\"addr:street\"=>\"Long Row\",\"addr:suburb\"=>\"Horsforth\",\"addr:postcode\"=>\"LS18 5AT\",\"addr:housenumber\"=>\"99\"" }, "geometry": { "type": "Point", "coordinates": [ -1.6341409, 53.8458621 ] } },
	{ "type": "Feature", "properties": { "osm_id": "804266771", "name": "The Gaping Goose", "amenity": "pub", "other_tags": "\"fhrs:id\"=>\"1227664\",\"addr:city\"=>\"Leeds\",\"addr:street\"=>\"Selby Road\",\"addr:suburb\"=>\"Garforth\",\"addr:postcode\"=>\"LS25 1LR\",\"addr:housenumber\"=>\"41\"" }, "geometry": { "type": "Point", "coordinates": [ -1.3991903, 53.7870448 ] } },
	{ "type": "Feature", "properties": { "osm_id": "804754014", "name": "The Miners", "amenity": "pub", "other_tags": "\"fhrs:id\"=>\"455714\",\"addr:city\"=>\"Leeds\",\"addr:street\"=>\"Aberford Road\",\"addr:postcode\"=>\"LS25 1PX\",\"addr:housenumber\"=>\"4\"" }, "geometry": { "type": "Point", "coordinates": [ -1.387245, 53.7964871 ] } },
	{ "type": "Feature", "properties": { "osm_id": "804756068", "name": "Garforth Country Club", "amenity": "pub", "other_tags": "\"fhrs:id\"=>\"320552\",\"addr:city\"=>\"Leeds\",\"addr:street\"=>\"Aberford Road\",\"addr:postcode\"=>\"LS25 1PZ\"" }, "geometry": { "type": "Point", "coordinates": [ -1.3848632, 53.796956 ] } },
	{ "type": "Feature", "properties": { "osm_id": "832960924", "name": "Morley Working Men's Club & Institute", "amenity": "pub", "other_tags": "\"addr:city\"=>\"Leeds\",\"addr:street\"=>\"Fountain Street\",\"addr:postcode\"=>\"LS27 9EH\"" }, "geometry": { "type": "Point", "coordinates": [ -1.6035679, 53.7429553 ] } },
	{ "type": "Feature", "properties": { "osm_id": "832960960", "name": "The Commercial Inn", "amenity": "pub", "other_tags": "\"fhrs:id\"=>\"726332\",\"addr:city\"=>\"Leeds\",\"addr:street\"=>\"Commercial Street\",\"addr:postcode\"=>\"LS27 8AG\",\"addr:housenumber\"=>\"62\"" }, "geometry": { "type": "Point", "coordinates": [ -1.596983, 53.7431092 ] } },
	{ "type": "Feature", "properties": { "osm_id": "832961068", "name": "The Slip Inn", "amenity": "pub", "other_tags": "\"fhrs:id\"=>\"1205290\",\"addr:city\"=>\"Leeds\",\"addr:street\"=>\"Albion Street\",\"addr:suburb\"=>\"Morley\",\"addr:postcode\"=>\"LS27 8DT\"" }, "geometry": { "type": "Point", "coordinates": [ -1.6005879, 53.745901 ] } },
	{ "type": "Feature", "properties": { "osm_id": "838396387", "name": "The Princess", "amenity": "pub", "other_tags": "\"fhrs:id\"=>\"1062702\",\"addr:city\"=>\"Leeds\",\"addr:street\"=>\"Apperley Lane\",\"addr:postcode\"=>\"LS19 6BJ\"" }, "geometry": { "type": "Point", "coordinates": [ -1.6929797, 53.8525434 ] } },
	{ "type": "Feature", "properties": { "osm_id": "864535357", "name": "The Terrace", "amenity": "pub", "other_tags": "\"wheelchair\"=>\"yes\",\"toilets:wheelchair\"=>\"yes\"" }, "geometry": { "type": "Point", "coordinates": [ -1.5562197, 53.8065747 ] } },
	{ "type": "Feature", "properties": { "osm_id": "864535368", "name": "The Old Bar", "amenity": "pub", "other_tags": "\"fhrs:id\"=>\"320326\",\"wikidata\"=>\"Q26262665\",\"addr:city\"=>\"Leeds\",\"addr:street\"=>\"Lifton Place\",\"addr:suburb\"=>\"Woodhouse\",\"addr:postcode\"=>\"LS2 9JZ\"" }, "geometry": { "type": "Point", "coordinates": [ -1.5557498, 53.8067534 ] } },
	{ "type": "Feature", "properties": { "osm_id": "888718596", "name": "The Three Hulats", "amenity": "pub", "other_tags": "\"fhrs:id\"=>\"319832\",\"website\"=>\"http:\/\/www.jdwetherspoon.co.uk\/home\/pubs\/the-three-hulats\",\"operator\"=>\"J D Wetherspoon\",\"addr:city\"=>\"Leeds\",\"addr:street\"=>\"Harrogate Road\",\"source:addr\"=>\"FHRS Open Data\",\"addr:postcode\"=>\"LS7 3NB\",\"opening_hours\"=>\"Mo-Su,PH 08:00-24:00; Fr,Sa 08:00-01:00\",\"addr:housenumber\"=>\"13\"" }, "geometry": { "type": "Point", "coordinates": [ -1.535496, 53.826046 ] } },
	{ "type": "Feature", "properties": { "osm_id": "1161183331", "name": "The Leeds Bierkeller", "amenity": "pub" }, "geometry": { "type": "Point", "coordinates": [ -1.5473097, 53.7992492 ] } },
	{ "type": "Feature", "properties": { "osm_id": "1255391405", "name": "Seven", "amenity": "pub" }, "geometry": { "type": "Point", "coordinates": [ -1.532346, 53.823208 ] } },
	{ "type": "Feature", "properties": { "osm_id": "1280410898", "name": "The New Inn", "amenity": "pub", "other_tags": "\"fhrs:id\"=>\"323516\",\"addr:city\"=>\"Yeadon\",\"addr:street\"=>\"Cemetery Road\",\"addr:postcode\"=>\"LS19 7SU\"" }, "geometry": { "type": "Point", "coordinates": [ -1.6797754, 53.8667103 ] } },
	{ "type": "Feature", "properties": { "osm_id": "1280411151", "name": "The Crown", "amenity": "pub", "other_tags": "\"phone\"=>\"+44 113 250 2438\",\"fhrs:id\"=>\"1111076\",\"addr:city\"=>\"Yeadon\",\"addr:street\"=>\"Ivegate\",\"addr:postcode\"=>\"LS19 7RE\",\"addr:housenumber\"=>\"12\"" }, "geometry": { "type": "Point", "coordinates": [ -1.6858957, 53.8654735 ] } },
	{ "type": "Feature", "properties": { "osm_id": "1325169203", "name": "Fox & Hounds", "amenity": "pub", "other_tags": "\"fhrs:id\"=>\"322011\",\"addr:city\"=>\"Leeds\",\"addr:street\"=>\"Hall Park Road\",\"addr:suburb\"=>\"Walton\",\"addr:postcode\"=>\"LS23 7DQ\"" }, "geometry": { "type": "Point", "coordinates": [ -1.3263286, 53.9241824 ] } },
	{ "type": "Feature", "properties": { "osm_id": "1369333013", "name": "East of Arcadia", "amenity": "pub", "other_tags": "\"wifi\"=>\"free\",\"fhrs:id\"=>\"323268\",\"real_ale\"=>\"yes\",\"addr:city\"=>\"Leeds\",\"addr:street\"=>\"Meanwood Road\",\"addr:postcode\"=>\"LS6 4AY\",\"addr:housenumber\"=>\"607\"" }, "geometry": { "type": "Point", "coordinates": [ -1.5668844, 53.8278172 ] } },
	{ "type": "Feature", "properties": { "osm_id": "1420363368", "name": "The Hedley Verity", "amenity": "pub", "other_tags": "\"fhrs:id\"=>\"322974\",\"operator\"=>\"JD Wetherspoons\",\"addr:city\"=>\"Leeds\",\"wheelchair\"=>\"yes\",\"addr:street\"=>\"Woodhouse Lane\",\"addr:postcode\"=>\"LS1 3HQ\",\"addr:housenumber\"=>\"43a-47\",\"toilets:wheelchair\"=>\"yes\"" }, "geometry": { "type": "Point", "coordinates": [ -1.5457943, 53.8020389 ] } },
	{ "type": "Feature", "properties": { "osm_id": "1510473255", "name": "The New Inn", "amenity": "pub", "other_tags": "\"fhrs:id\"=>\"1194687\",\"addr:city\"=>\"Leeds\",\"addr:street\"=>\"Eccup Lane\",\"addr:suburb\"=>\"Eccup\",\"addr:postcode\"=>\"LS16 8AU\"" }, "geometry": { "type": "Point", "coordinates": [ -1.5626041, 53.8819251 ] } },
	{ "type": "Feature", "properties": { "osm_id": "1532906454", "name": "Old Cock", "amenity": "pub", "other_tags": "\"fhrs:id\"=>\"322618\",\"website\"=>\"theoldcockotley.co.uk\",\"addr:street\"=>\"Crossgate\",\"description\"=>\"New pub (around 2010). Formerly Curlew cafe and before that Curlew Pottery.\",\"addr:postcode\"=>\"LS21 1AA\",\"addr:housenumber\"=>\"11,13\"" }, "geometry": { "type": "Point", "coordinates": [ -1.6921382, 53.9043602 ] } },
	{ "type": "Feature", "properties": { "osm_id": "1532914385", "name": "The Junction Inn", "amenity": "pub", "other_tags": "\"fhrs:id\"=>\"504546\",\"website\"=>\"www.otleypubclub.co.uk\/otley-pubs-present\/the-junction\",\"addr:city\"=>\"Otley\",\"is_in:town\"=>\"Otley\",\"addr:street\"=>\"Bondgate\",\"addr:country\"=>\"GB\",\"is_in:county\"=>\"West Yorkshire\",\"addr:postcode\"=>\"LS21 1AD\",\"addr:housenumber\"=>\"44\"" }, "geometry": { "type": "Point", "coordinates": [ -1.6910653, 53.9040474 ] } },
	{ "type": "Feature", "properties": { "osm_id": "1532975470", "name": "The Summercross (CLOSED)", "amenity": "pub", "other_tags": "\"addr:city\"=>\"Otley\",\"is_in:town\"=>\"Otley\",\"addr:street\"=>\"East Busk Lane\",\"addr:country\"=>\"GB\",\"is_in:county\"=>\"West Yorkshire\",\"addr:postcode\"=>\"LS21 1HN\"" }, "geometry": { "type": "Point", "coordinates": [ -1.6825859, 53.9071738 ] } },
	{ "type": "Feature", "properties": { "osm_id": "1532975506", "name": "The Manor House", "amenity": "pub", "other_tags": "\"fhrs:id\"=>\"834299\",\"website\"=>\"www.otleypubclub.co.uk\/otley-pubs-present\/the-manor-house\",\"addr:city\"=>\"Otley\",\"is_in:town\"=>\"Otley\",\"addr:street\"=>\"Cross Green\",\"source:addr\"=>\"FHRS Open Data\",\"is_in:county\"=>\"West Yorkshire\",\"addr:postcode\"=>\"LS21 1HB\",\"addr:housenumber\"=>\"7 - 9\"" }, "geometry": { "type": "Point", "coordinates": [ -1.6896733, 53.9054506 ] } },
	{ "type": "Feature", "properties": { "osm_id": "1561889310", "name": "TJ's", "amenity": "pub", "other_tags": "\"fhrs:id\"=>\"321805\",\"addr:city\"=>\"Leeds\",\"addr:street\"=>\"Woodhouse Street\",\"addr:postcode\"=>\"LS6 2JH\"" }, "geometry": { "type": "Point", "coordinates": [ -1.5568774, 53.8145758 ] } },
	{ "type": "Feature", "properties": { "osm_id": "1581250996", "name": "Muse", "amenity": "pub", "other_tags": "\"fhrs:id\"=>\"504565\",\"website\"=>\"http:\/\/www.markettowntaverns.co.uk\/muse.asp?Tavern=Muse&Section=Main\",\"addr:street\"=>\"Bank Street\",\"source:addr\"=>\"FHRS Open Data\",\"addr:postcode\"=>\"LS22 6NQ\",\"addr:housename\"=>\"Muse Ale and Wine Bar\",\"addr:housenumber\"=>\"16\"" }, "geometry": { "type": "Point", "coordinates": [ -1.3862986, 53.9290586 ] } },
	{ "type": "Feature", "properties": { "osm_id": "1599912373", "name": "Miller & Carter, Garforth", "amenity": "pub", "other_tags": "\"phone\"=>\"+44 113 286 2100\",\"cuisine\"=>\"steak_house\",\"fhrs:id\"=>\"320557\",\"website\"=>\"https:\/\/www.millerandcarter.co.uk\/restaurants\/yorkshire-and-the-humber\/millerandcartergarforth\",\"operator\"=>\"Miller & Carter\",\"addr:street\"=>\"Selby Road\",\"addr:postcode\"=>\"LS25 1NB\",\"opening_hours\"=>\"Su-Th 12:00-23:00; Fr-Sa 12:00-23:30\",\"internet_access\"=>\"wlan\"" }, "geometry": { "type": "Point", "coordinates": [ -1.4046035, 53.7869778 ] } },
	{ "type": "Feature", "properties": { "osm_id": "1619302348", "name": "The Chequers", "amenity": "pub", "other_tags": "\"fhrs:id\"=>\"320843\",\"addr:city\"=>\"Leeds\",\"addr:street\"=>\"Claypit Lane\",\"addr:suburb\"=>\"Ledsham\",\"addr:postcode\"=>\"LS25 5LP\"" }, "geometry": { "type": "Point", "coordinates": [ -1.3108065, 53.7621468 ] } },
	{ "type": "Feature", "properties": { "osm_id": "1619308903", "name": "The White Horse", "amenity": "pub", "other_tags": "\"fhrs:id\"=>\"1034319\",\"website\"=>\"http:\/\/www.whitehorseledston.com\",\"addr:town\"=>\"Ledston, Castleford\",\"telephone\"=>\"+44(0)1977 553069\",\"addr:street\"=>\"Main Street\",\"addr:postcode\"=>\"WF10 2AB\",\"addr:housenumber\"=>\"30\"" }, "geometry": { "type": "Point", "coordinates": [ -1.3432885, 53.7521463 ] } },
	{ "type": "Feature", "properties": { "osm_id": "1643381961", "name": "The Dexter", "amenity": "pub", "other_tags": "\"fhrs:id\"=>\"321506\",\"operator\"=>\"Mitchells & Butlers\",\"addr:city\"=>\"Leeds\",\"addr:street\"=>\"Wigton Lane\",\"addr:postcode\"=>\"LS17 8RZ\"" }, "geometry": { "type": "Point", "coordinates": [ -1.500859, 53.857518 ] } },
	{ "type": "Feature", "properties": { "osm_id": "1654213575", "name": "The Old Tree Inn", "amenity": "pub", "other_tags": "\"wifi\"=>\"no\",\"fhrs:id\"=>\"712539\",\"addr:city\"=>\"Leeds\",\"addr:street\"=>\"High Street\",\"addr:postcode\"=>\"LS25 7AH\",\"addr:housenumber\"=>\"53\"" }, "geometry": { "type": "Point", "coordinates": [ -1.367762, 53.7667083 ] } },
	{ "type": "Feature", "properties": { "osm_id": "1654213577", "name": "The Commercial", "amenity": "pub", "other_tags": "\"wifi\"=>\"no\",\"fhrs:id\"=>\"845713\",\"addr:city\"=>\"Leeds\",\"addr:street\"=>\"High Street\",\"addr:postcode\"=>\"LS25 7AJ\",\"addr:housenumber\"=>\"86\"" }, "geometry": { "type": "Point", "coordinates": [ -1.366319, 53.7660178 ] } },
	{ "type": "Feature", "properties": { "osm_id": "1692462987", "name": "The Cuthbert Brodrick", "amenity": "pub", "other_tags": "\"phone\"=>\"+44 113 204 8570\",\"fhrs:id\"=>\"321927\",\"smoking\"=>\"outside\",\"website\"=>\"https:\/\/www.jdwetherspoon.com\/pubs\/all-pubs\/england\/west-yorkshire\/the-cuthbert-brodrick-leeds\",\"int_name\"=>\"Wetherspoons\",\"addr:street\"=>\"Portland Crescent\",\"addr:postcode\"=>\"LS1 3HJ\",\"opening_hours\"=>\"Mo-We 08:00-00:00; Th-Sa 08:00-01:00; Su 08:00-23:00\",\"internet_access\"=>\"wlan\",\"outdoor_seating\"=>\"yes\",\"addr:housenumber\"=>\"99\"" }, "geometry": { "type": "Point", "coordinates": [ -1.5478125, 53.8017795 ] } },
	{ "type": "Feature", "properties": { "osm_id": "1707563029", "name": "The New Inn", "amenity": "pub", "other_tags": "\"fhrs:id\"=>\"814955\",\"addr:town\"=>\"Pudsey\",\"addr:street\"=>\"Carr Road\",\"addr:suburb\"=>\"Calverley\",\"addr:postcode\"=>\"LS28 5RH\",\"addr:housenumber\"=>\"60\"" }, "geometry": { "type": "Point", "coordinates": [ -1.692578, 53.8300897 ] } },
	{ "type": "Feature", "properties": { "osm_id": "1709237315", "name": "Cross Church Street Working Mens Club", "amenity": "pub", "other_tags": "\"fhrs:id\"=>\"467316\",\"addr:city\"=>\"Leeds\",\"addr:street\"=>\"Victoria Avenue\",\"addr:postcode\"=>\"LS27 9DX\"" }, "geometry": { "type": "Point", "coordinates": [ -1.6019534, 53.7510155 ] } },
	{ "type": "Feature", "properties": { "osm_id": "1710692782", "name": "The Blue Pig", "amenity": "pub" }, "geometry": { "type": "Point", "coordinates": [ -1.7071173, 53.8123668 ] } },
	{ "type": "Feature", "properties": { "osm_id": "2009072714", "name": "Roundhay Fox Pub\/restuarant", "amenity": "pub" }, "geometry": { "type": "Point", "coordinates": [ -1.5039384, 53.8395325 ] } },
	{ "type": "Feature", "properties": { "osm_id": "2059560654", "name": "The Fountain Inn", "amenity": "pub", "other_tags": "\"fhrs:id\"=>\"320709\",\"addr:city\"=>\"Leeds\",\"addr:street\"=>\"Queen Street\",\"addr:suburb\"=>\"Morley\",\"addr:postcode\"=>\"LS27 9EB\"" }, "geometry": { "type": "Point", "coordinates": [ -1.5997366, 53.7431748 ] } },
	{ "type": "Feature", "properties": { "osm_id": "2091013186", "name": "General Eliott", "amenity": "pub", "other_tags": "\"fhrs:id\"=>\"320280\",\"wikidata\"=>\"Q26547353\",\"addr:city\"=>\"Leeds\",\"addr:street\"=>\"Vicar Lane\",\"addr:postcode\"=>\"LS1 6DS\",\"addr:housenumber\"=>\"31-33\"" }, "geometry": { "type": "Point", "coordinates": [ -1.5405389, 53.7970437 ] } },
	{ "type": "Feature", "properties": { "osm_id": "2124265336", "name": "Bundobust", "amenity": "pub", "other_tags": "\"email\"=>\"hello@bundobust.com\",\"phone\"=>\"+44 113 243 1248\",\"cuisine\"=>\"indian\",\"fhrs:id\"=>\"688934\",\"name:en\"=>\"Bundobust\",\"website\"=>\"http:\/\/bundobust.com\/Leeds\/\",\"diet:vegan\"=>\"yes\",\"addr:street\"=>\"Mill Hill\",\"addr:postcode\"=>\"LS1 5DQ\",\"opening_hours\"=>\"Mo-Th 12:00-23:00; Fr-Sa 12:00-00:00; Su 12:00-22:00\",\"diet:vegetarian\"=>\"only\",\"internet_access\"=>\"wlan\",\"addr:housenumber\"=>\"6\"" }, "geometry": { "type": "Point", "coordinates": [ -1.5455559, 53.7954782 ] } },
	{ "type": "Feature", "properties": { "osm_id": "2124265338", "name": "Moot Hall Arms", "amenity": "pub", "other_tags": "\"fhrs:id\"=>\"1070569\",\"addr:city\"=>\"Leeds\",\"addr:street\"=>\"Mill Hill\",\"addr:postcode\"=>\"LS1 5DQ\",\"addr:housenumber\"=>\"11\"" }, "geometry": { "type": "Point", "coordinates": [ -1.5454813, 53.7951292 ] } },
	{ "type": "Feature", "properties": { "osm_id": "2125610523", "name": "Lazy Lounge", "amenity": "pub", "other_tags": "\"fhrs:id\"=>\"438767\",\"addr:postcode\"=>\"LS1 4JY\"" }, "geometry": { "type": "Point", "coordinates": [ -1.5531998, 53.795845 ] } },
	{ "type": "Feature", "properties": { "osm_id": "2128107742", "name": "Smokestack", "amenity": "pub", "other_tags": "\"level\"=>\"1;2;3\",\"fhrs:id\"=>\"322023\",\"addr:city\"=>\"Leeds\",\"addr:street\"=>\"Briggate\",\"addr:postcode\"=>\"LS1 6LY\",\"addr:housenumber\"=>\"159a\"" }, "geometry": { "type": "Point", "coordinates": [ -1.542388, 53.7955525 ] } },
	{ "type": "Feature", "properties": { "osm_id": "2134260288", "name": "The West Riding", "amenity": "pub", "other_tags": "\"fhrs:id\"=>\"1110106\",\"wikidata\"=>\"Q26547300\",\"addr:street\"=>\"Wellington Street\",\"addr:postcode\"=>\"LS1 2DJ\",\"addr:housenumber\"=>\"38\"" }, "geometry": { "type": "Point", "coordinates": [ -1.5496037, 53.7962878 ] } },
	{ "type": "Feature", "properties": { "osm_id": "2134631625", "name": "The Midnight Bell", "amenity": "pub", "other_tags": "\"fhrs:id\"=>\"918651\",\"addr:city\"=>\"Leeds\",\"addr:street\"=>\"Water Lane\",\"addr:postcode\"=>\"LS11 5WD\",\"addr:housenumber\"=>\"101\"" }, "geometry": { "type": "Point", "coordinates": [ -1.5517897, 53.7917032 ] } },
	{ "type": "Feature", "properties": { "osm_id": "2134636241", "name": "The Cross Keys", "amenity": "pub", "other_tags": "\"fhrs:id\"=>\"323141\",\"addr:city\"=>\"Leeds\",\"addr:street\"=>\"Water Lane\",\"addr:postcode\"=>\"LS11 5BZ\"" }, "geometry": { "type": "Point", "coordinates": [ -1.552573, 53.7916953 ] } },
	{ "type": "Feature", "properties": { "osm_id": "2134874653", "name": "The Hop", "amenity": "pub", "other_tags": "\"fhrs:id\"=>\"322702\",\"addr:postcode\"=>\"LS1 4BR\"" }, "geometry": { "type": "Point", "coordinates": [ -1.5491969, 53.7936862 ] } },
	{ "type": "Feature", "properties": { "osm_id": "2138696601", "name": "Santiago", "amenity": "pub", "other_tags": "\"fhrs:id\"=>\"550362\",\"twitter\"=>\"https:\/\/twitter.com\/SantiagosLeeds\",\"addr:city\"=>\"Leeds\",\"addr:street\"=>\"Grand Arcade\",\"addr:postcode\"=>\"LS1 6PG\",\"addr:housenumber\"=>\"1-3\"" }, "geometry": { "type": "Point", "coordinates": [ -1.5398445, 53.8001352 ] } },
	{ "type": "Feature", "properties": { "osm_id": "2138746309", "name": "Toast", "amenity": "pub", "other_tags": "\"fhrs:id\"=>\"634360\",\"addr:postcode\"=>\"LS1 4JY\"" }, "geometry": { "type": "Point", "coordinates": [ -1.5531483, 53.7960181 ] } },
	{ "type": "Feature", "properties": { "osm_id": "2141116425", "name": "The Old Red Lion", "amenity": "pub", "other_tags": "\"wikidata\"=>\"Q26655979\"" }, "geometry": { "type": "Point", "coordinates": [ -1.5421333, 53.7929309 ] } },
	{ "type": "Feature", "properties": { "osm_id": "2142071139", "name": "Wire", "amenity": "pub", "other_tags": "\"email\"=>\"info@wireclub.co.uk\",\"phone\"=>\"+44 113 234 0980\",\"fhrs:id\"=>\"542438\",\"website\"=>\"https:\/\/www.wireclub.co.uk\/\",\"addr:street\"=>\"Call Lane\",\"addr:postcode\"=>\"LS1 6DN\",\"addr:housenumber\"=>\"2-8\"" }, "geometry": { "type": "Point", "coordinates": [ -1.5400641, 53.7964406 ] } },
	{ "type": "Feature", "properties": { "osm_id": "2144729436", "name": "North Bar", "amenity": "pub", "other_tags": "\"fhrs:id\"=>\"320906\",\"addr:city\"=>\"Leeds\",\"addr:street\"=>\"New Briggate\",\"addr:postcode\"=>\"LS1 6NU\",\"addr:housenumber\"=>\"24\"" }, "geometry": { "type": "Point", "coordinates": [ -1.5415842, 53.7995804 ] } },
	{ "type": "Feature", "properties": { "osm_id": "2144729457", "name": "Sela Bar", "amenity": "pub", "other_tags": "\"fhrs:id\"=>\"455704\",\"addr:city\"=>\"Leeds\",\"addr:street\"=>\"New Briggate\",\"addr:postcode\"=>\"LS1 6NU\",\"addr:housenumber\"=>\"20\"" }, "geometry": { "type": "Point", "coordinates": [ -1.5416291, 53.7994958 ] } },
	{ "type": "Feature", "properties": { "osm_id": "2144729719", "name": "Feed", "amenity": "pub", "other_tags": "\"old_name\"=>\"Dough\",\"addr:street\"=>\"New Briggate\",\"addr:postcode\"=>\"LS1 6NU\",\"addr:housenumber\"=>\"68-72\"" }, "geometry": { "type": "Point", "coordinates": [ -1.5401632, 53.8006828 ] } },
	{ "type": "Feature", "properties": { "osm_id": "2157985584", "name": "Friends of Ham", "amenity": "pub", "other_tags": "\"phone\"=>\"+44 113 242 0275\",\"fhrs:id\"=>\"1070612\",\"website\"=>\"http:\/\/www.friendsofham.com\/\",\"addr:street\"=>\"New Station Street\",\"addr:postcode\"=>\"LS1 5DL\",\"addr:housenumber\"=>\"4-8\"" }, "geometry": { "type": "Point", "coordinates": [ -1.5451092, 53.7955411 ] } },
	{ "type": "Feature", "properties": { "osm_id": "2157985616", "name": "Queens Bar", "amenity": "pub" }, "geometry": { "type": "Point", "coordinates": [ -1.5479288, 53.7958749 ] } },
	{ "type": "Feature", "properties": { "osm_id": "2206816043", "name": "BrewDog", "amenity": "pub", "other_tags": "\"fhrs:id\"=>\"564044\",\"real_ale\"=>\"no\",\"addr:city\"=>\"Leeds\",\"addr:unit\"=>\"2\",\"craft_key\"=>\"yes\",\"addr:street\"=>\"Crown Street\",\"addr:postcode\"=>\"LS2 7DA\",\"addr:housename\"=>\"White Cloth Hall\",\"addr:housenumber\"=>\"27-27a\"" }, "geometry": { "type": "Point", "coordinates": [ -1.5398508, 53.7954815 ] } },
	{ "type": "Feature", "properties": { "osm_id": "2295331264", "name": "The Reliance", "amenity": "pub", "other_tags": "\"food\"=>\"yes\",\"fhrs:id\"=>\"320005\",\"real_ale\"=>\"yes\",\"addr:city\"=>\"Leeds\",\"wheelchair\"=>\"limited\",\"addr:street\"=>\"North Street\",\"source:addr\"=>\"FHRS Open Data\",\"addr:postcode\"=>\"LS2 7PN\",\"addr:housenumber\"=>\"76 - 78\",\"toilets:wheelchair\"=>\"no\"" }, "geometry": { "type": "Point", "coordinates": [ -1.537857, 53.801735 ] } },
	{ "type": "Feature", "properties": { "osm_id": "2353398083", "name": "Otley Tap House", "amenity": "pub", "other_tags": "\"phone\"=>\"+44 1943 466755\",\"fhrs:id\"=>\"735586\",\"website\"=>\"http:\/\/otleytaphouse.co.uk\/\",\"addr:city\"=>\"Otley\",\"is_in:town\"=>\"Otley\",\"start_date\"=>\"2014-07-04\",\"addr:street\"=>\"Boroughgate\",\"description\"=>\"Completely new pub, opened July 2014\",\"source:addr\"=>\"FHRS Open Data\",\"addr:country\"=>\"GB\",\"addr:postcode\"=>\"LS21 1AE\",\"addr:housenumber\"=>\"66\"" }, "geometry": { "type": "Point", "coordinates": [ -1.6904866, 53.9059499 ] } },
	{ "type": "Feature", "properties": { "osm_id": "2353440320", "name": "Otley Conservative Club", "amenity": "pub", "other_tags": "\"fhrs:id\"=>\"320646\",\"addr:city\"=>\"Otley\",\"addr:street\"=>\"Boroughgate\",\"source:addr\"=>\"FHRS Open Data\",\"addr:postcode\"=>\"LS21 3AG\"" }, "geometry": { "type": "Point", "coordinates": [ -1.6925653, 53.9055883 ] } },
	{ "type": "Feature", "properties": { "osm_id": "2736109161", "name": "Victoria Commercial & Family Hotel", "amenity": "pub", "other_tags": "\"addr:city\"=>\"Leeds\",\"wheelchair\"=>\"limited\",\"addr:street\"=>\"Great George Street\",\"addr:postcode\"=>\"LS1\"" }, "geometry": { "type": "Point", "coordinates": [ -1.549712, 53.8008391 ] } },
	{ "type": "Feature", "properties": { "osm_id": "3300696423", "name": "Tapped", "amenity": "pub", "other_tags": "\"fhrs:id\"=>\"639164\",\"addr:city\"=>\"Leeds\",\"addr:street\"=>\"Boar Lane\",\"addr:postcode\"=>\"LS1 5EL\",\"addr:housenumber\"=>\"51\"" }, "geometry": { "type": "Point", "coordinates": [ -1.5458414, 53.7959897 ] } },
	{ "type": "Feature", "properties": { "osm_id": "3545836881", "name": "The Rosebud", "amenity": "pub", "other_tags": "\"fhrs:id\"=>\"322565\",\"addr:city\"=>\"Leeds\",\"addr:street\"=>\"Westfield Road\",\"addr:postcode\"=>\"LS26 0SJ\",\"addr:housenumber\"=>\"22\"" }, "geometry": { "type": "Point", "coordinates": [ -1.4990347, 53.7427801 ] } },
	{ "type": "Feature", "properties": { "osm_id": "3559056772", "name": "New Inn", "amenity": "pub", "other_tags": "\"fhrs:id\"=>\"1154027\",\"addr:street\"=>\"Westgate\",\"source:addr\"=>\"FHRS Open Data\",\"addr:postcode\"=>\"LS22 6LL\",\"addr:housenumber\"=>\"18\"" }, "geometry": { "type": "Point", "coordinates": [ -1.3874952, 53.929053 ] } },
	{ "type": "Feature", "properties": { "osm_id": "3616415175", "name": "The Orchard", "amenity": "pub", "other_tags": "\"fhrs:id\"=>\"1061259\",\"addr:city\"=>\"Leeds\",\"addr:street\"=>\"Dib Lane\",\"addr:suburb\"=>\"Roundhay\",\"addr:postcode\"=>\"LS8 3HL\"" }, "geometry": { "type": "Point", "coordinates": [ -1.4874639, 53.8220569 ] } },
	{ "type": "Feature", "properties": { "osm_id": "3718444413", "name": "The Yard", "amenity": "pub", "other_tags": "\"addr:city\"=>\"Yeadon\",\"addr:street\"=>\"High Street\",\"source:addr\"=>\"FHRS Open Data\",\"addr:postcode\"=>\"LS19 7SP\",\"addr:housenumber\"=>\"16\"" }, "geometry": { "type": "Point", "coordinates": [ -1.6838238, 53.8660399 ] } },
	{ "type": "Feature", "properties": { "osm_id": "3718451128", "name": "Yeadon Liberal Club", "amenity": "pub", "other_tags": "\"phone\"=>\"+44 113 250 2472\",\"fhrs:id\"=>\"467215\",\"addr:city\"=>\"Yeadon\",\"addr:street\"=>\"High Street\",\"addr:postcode\"=>\"LS19 7PP\",\"addr:housenumber\"=>\"20B\"" }, "geometry": { "type": "Point", "coordinates": [ -1.6833588, 53.8660198 ] } },
	{ "type": "Feature", "properties": { "osm_id": "3718484567", "name": "Yeadon Constitutional Club", "amenity": "pub", "other_tags": "\"fhrs:id\"=>\"320513\",\"addr:city\"=>\"Yeadon\",\"addr:street\"=>\"Chapel Hill\",\"source:addr\"=>\"FHRS Open Data\",\"addr:postcode\"=>\"LS19 7RG\"" }, "geometry": { "type": "Point", "coordinates": [ -1.68542, 53.8653009 ] } },
	{ "type": "Feature", "properties": { "osm_id": "3781092151", "name": "ShuffleDog Leeds", "amenity": "pub", "other_tags": "\"fhrs:id\"=>\"847986\",\"operator\"=>\"BrewDog\",\"addr:unit\"=>\"1\",\"craft_keg\"=>\"yes\",\"addr:street\"=>\"New York Road\",\"addr:postcode\"=>\"LS2 7PF\",\"addr:housename\"=>\"Crispin Lofts\"" }, "geometry": { "type": "Point", "coordinates": [ -1.5388075, 53.8010952 ] } },
	{ "type": "Feature", "properties": { "osm_id": "3801400065", "name": "The New George", "amenity": "pub", "other_tags": "\"fhrs:id\"=>\"871567\",\"addr:city\"=>\"Leeds\",\"addr:street\"=>\"Commercial Road\",\"addr:postcode\"=>\"LS5 3AQ\",\"addr:housenumber\"=>\"2-4\"" }, "geometry": { "type": "Point", "coordinates": [ -1.6024823, 53.8156516 ] } },
	{ "type": "Feature", "properties": { "osm_id": "3822771146", "name": "Blands Arms", "amenity": "pub", "other_tags": "\"fhrs:id\"=>\"467253\",\"addr:city\"=>\"Leeds\",\"addr:street\"=>\"Great North Road\",\"addr:postcode\"=>\"LS25 4AQ\"" }, "geometry": { "type": "Point", "coordinates": [ -1.3272055, 53.7941335 ] } },
	{ "type": "Feature", "properties": { "osm_id": "3902978495", "name": "The Forge", "amenity": "pub", "other_tags": "\"phone\"=>\"+44 113 258 6030\",\"addr:city\"=>\"Horsforth\",\"addr:street\"=>\"New Road Side\",\"addr:postcode\"=>\"LS18 4QD\",\"addr:housenumber\"=>\"145\"" }, "geometry": { "type": "Point", "coordinates": [ -1.6440797, 53.8321014 ] } },
	{ "type": "Feature", "properties": { "osm_id": "4165876222", "name": "The Brunswick", "amenity": "pub", "other_tags": "\"food\"=>\"yes\",\"fhrs:id\"=>\"818457\",\"real_ale\"=>\"yes\",\"addr:city\"=>\"Leeds\",\"craft_ale\"=>\"yes\",\"addr:street\"=>\"North Street\",\"source:addr\"=>\"FHRS Open Data\",\"addr:postcode\"=>\"LS2 7PN\",\"addr:housenumber\"=>\"82\"" }, "geometry": { "type": "Point", "coordinates": [ -1.537433, 53.8020209 ] } },
	{ "type": "Feature", "properties": { "osm_id": "4351446098", "name": "The Lamb & Flag", "amenity": "pub", "other_tags": "\"fhrs:id\"=>\"785907\",\"website\"=>\"http:\/\/www.lambandflagleeds.co.uk\/\",\"addr:city\"=>\"Leeds\",\"wheelchair\"=>\"yes\",\"addr:street\"=>\"Church Row\",\"addr:postcode\"=>\"LS2 7HD\",\"addr:housenumber\"=>\"1\",\"toilets:wheelchair\"=>\"no\",\"wheelchair:description\"=>\"Rampe Ã¼ber den Biergarten\"" }, "geometry": { "type": "Point", "coordinates": [ -1.5369433, 53.795209 ] } },
	{ "type": "Feature", "properties": { "osm_id": "4373234377", "name": "Farsley Working Mens Club", "amenity": "pub", "other_tags": "\"fhrs:id\"=>\"467184\",\"addr:city\"=>\"Farsley\",\"addr:street\"=>\"Back Lane\",\"addr:postcode\"=>\"LS28 5EU\",\"opening_hours\"=>\"17:00+\"" }, "geometry": { "type": "Point", "coordinates": [ -1.6700215, 53.8123972 ] } },
	{ "type": "Feature", "properties": { "osm_id": "4373238777", "name": "Farsley Conservative Club", "amenity": "pub", "other_tags": "\"fhrs:id\"=>\"467187\",\"addr:city\"=>\"Farsley\",\"addr:street\"=>\"Town Street\",\"addr:postcode\"=>\"LS28 5HX\",\"addr:housenumber\"=>\"51\"" }, "geometry": { "type": "Point", "coordinates": [ -1.6712178, 53.8130125 ] } },
	{ "type": "Feature", "properties": { "osm_id": "4484723958", "name": "The Refectory", "amenity": "pub", "other_tags": "\"fhrs:id\"=>\"730910\",\"website\"=>\"http:\/\/www.northernmonkbrewco.com\/old-flax-store\/the-refectory\",\"addr:city\"=>\"Leeds\",\"addr:street\"=>\"Marshall Street\",\"addr:postcode\"=>\"LS11 9YJ\",\"addr:housename\"=>\"The Old Flax Store\"" }, "geometry": { "type": "Point", "coordinates": [ -1.554192, 53.7907043 ] } },
	{ "type": "Feature", "properties": { "osm_id": "4817377421", "name": "White House", "amenity": "pub", "other_tags": "\"fhrs:id\"=>\"928940\",\"name:en\"=>\"White House\",\"addr:city\"=>\"Leeds\",\"addr:street\"=>\"Wetherby Road\",\"addr:suburb\"=>\"Roundhay\",\"addr:postcode\"=>\"LS8 2JU\",\"addr:housenumber\"=>\"55\"" }, "geometry": { "type": "Point", "coordinates": [ -1.4969092, 53.8305985 ] } },
	{ "type": "Feature", "properties": { "osm_id": "4830906636", "name": "The Boundary House", "amenity": "pub", "other_tags": "\"fhrs:id\"=>\"801112\",\"website\"=>\"http:\/\/www.theboundaryhousemethley.co.uk\/\",\"addr:city\"=>\"Methley\",\"addr:street\"=>\"Church Side\",\"addr:postcode\"=>\"LS26 9EE\",\"contact:phone\"=>\"+44 1977 551101\",\"addr:housenumber\"=>\"24\"" }, "geometry": { "type": "Point", "coordinates": [ -1.4097637, 53.7348615 ] } },
	{ "type": "Feature", "properties": { "osm_id": "4935984922", "name": "Bingley Arms", "amenity": "pub", "other_tags": "\"phone\"=>\"+44 1937 572462\",\"fhrs:id\"=>\"323492\",\"website\"=>\"http:\/\/www.bingleyarms.com\",\"wikidata\"=>\"Q7718023\",\"addr:street\"=>\"Church Lane\",\"addr:postcode\"=>\"LS17 9DR\",\"addr:housenumber\"=>\"37\"" }, "geometry": { "type": "Point", "coordinates": [ -1.4482891, 53.8815587 ] } },
	{ "type": "Feature", "properties": { "osm_id": "5360967653", "name": "Stew And Oyster", "amenity": "pub", "other_tags": "\"fhrs:id\"=>\"974967\",\"addr:city\"=>\"Leeds\",\"addr:street\"=>\"The Calls\",\"addr:postcode\"=>\"LS2 7EW\",\"addr:housenumber\"=>\"36-38\"" }, "geometry": { "type": "Point", "coordinates": [ -1.5384012, 53.7947467 ] } },
	{ "type": "Feature", "properties": { "osm_id": "5371229624", "name": "Golden Lion", "amenity": "pub" }, "geometry": { "type": "Point", "coordinates": [ -1.6702106, 53.7922799 ] } },
	{ "type": "Feature", "properties": { "osm_id": "5457251548", "name": "East End Park Working Mens Club", "amenity": "pub", "other_tags": "\"fhrs:id\"=>\"467142\",\"addr:city\"=>\"Leeds\",\"addr:street\"=>\"Vinery View\",\"addr:suburb\"=>\"Richmond Hill\",\"addr:postcode\"=>\"LS9 9NA\"" }, "geometry": { "type": "Point", "coordinates": [ -1.5107757, 53.7961327 ] } },
	{ "type": "Feature", "properties": { "osm_id": "5457251566", "name": "The Brown Hare", "amenity": "pub", "other_tags": "\"fhrs:id\"=>\"319816\",\"addr:city\"=>\"Leeds\",\"addr:street\"=>\"Harehills Lane\",\"addr:suburb\"=>\"Harehills\",\"addr:postcode\"=>\"LS9 6JF\",\"addr:housenumber\"=>\"388\"" }, "geometry": { "type": "Point", "coordinates": [ -1.5053388, 53.805905 ] } },
	{ "type": "Feature", "properties": { "osm_id": "5459455578", "name": "Kippax Central WMC", "amenity": "pub", "other_tags": "\"fhrs:id\"=>\"467260\",\"addr:city\"=>\"Leeds\",\"addr:street\"=>\"Back Lane\",\"addr:suburb\"=>\"Kippax\",\"addr:postcode\"=>\"LS25 7QB\"" }, "geometry": { "type": "Point", "coordinates": [ -1.3657433, 53.7664202 ] } },
	{ "type": "Feature", "properties": { "osm_id": "5462715929", "name": "Harehills Liberal Club", "amenity": "pub", "other_tags": "\"fhrs:id\"=>\"320900\",\"addr:city\"=>\"Leeds\",\"addr:street\"=>\"Seaforth Road\",\"addr:suburb\"=>\"Harehills\",\"addr:postcode\"=>\"LS9 6BJ\"" }, "geometry": { "type": "Point", "coordinates": [ -1.505933, 53.8098337 ] } },
	{ "type": "Feature", "properties": { "osm_id": "5467127567", "name": "East Leeds Community Sports And Social Club", "amenity": "pub", "other_tags": "\"fhrs:id\"=>\"564079\",\"addr:city\"=>\"Leeds\",\"addr:street\"=>\"Easy Road\",\"addr:suburb\"=>\"Cross Green\",\"addr:postcode\"=>\"LS9 8QS\",\"addr:housenumber\"=>\"81\"" }, "geometry": { "type": "Point", "coordinates": [ -1.5183248, 53.7913986 ] } },
	{ "type": "Feature", "properties": { "osm_id": "5467785881", "name": "Stew And Oyster", "amenity": "pub", "other_tags": "\"fhrs:id\"=>\"716422\",\"addr:city\"=>\"Leeds\",\"addr:street\"=>\"Roundhay Road\",\"addr:postcode\"=>\"LS8 2HU\",\"addr:housenumber\"=>\"488-490\"" }, "geometry": { "type": "Point", "coordinates": [ -1.5052195, 53.8269917 ] } },
	{ "type": "Feature", "properties": { "osm_id": "5476149010", "name": "Woodside Micro Pub", "amenity": "pub", "other_tags": "\"fhrs:id\"=>\"1202679\",\"old_name\"=>\"Pinna Store\",\"addr:city\"=>\"Leeds\",\"addr:street\"=>\"Low Lane\",\"addr:suburb\"=>\"Horsforth\",\"addr:postcode\"=>\"LS18 5DN\",\"addr:housenumber\"=>\"258\"" }, "geometry": { "type": "Point", "coordinates": [ -1.6220793, 53.839392 ] } },
	{ "type": "Feature", "properties": { "osm_id": "5478423475", "name": "Denison Hall WMC", "amenity": "pub", "other_tags": "\"fhrs:id\"=>\"320060\",\"addr:city\"=>\"Leeds\",\"addr:street\"=>\"Pinfold Lane\",\"addr:suburb\"=>\"Armley\",\"addr:postcode\"=>\"LS12 3LL\",\"addr:housenumber\"=>\"2\"" }, "geometry": { "type": "Point", "coordinates": [ -1.5921901, 53.7966532 ] } },
	{ "type": "Feature", "properties": { "osm_id": "5478423482", "name": "The Great Northern", "amenity": "pub", "other_tags": "\"fhrs:id\"=>\"504542\",\"addr:city\"=>\"Leeds\",\"addr:street\"=>\"Richardshaw Lane\",\"addr:suburb\"=>\"Stanningley\",\"addr:postcode\"=>\"LS28 6AA\",\"addr:housenumber\"=>\"213\"" }, "geometry": { "type": "Point", "coordinates": [ -1.6669996, 53.8045974 ] } },
	{ "type": "Feature", "properties": { "osm_id": "5480784042", "name": "East Leeds Cricket And Social Club", "amenity": "pub", "other_tags": "\"fhrs:id\"=>\"320066\",\"addr:city\"=>\"Leeds\",\"addr:street\"=>\"Pontefract Lane\",\"addr:suburb\"=>\"Richmond Hill\",\"addr:postcode\"=>\"LS9 0PT\",\"not:addr:postcode\"=>\"LS9 0PY\"" }, "geometry": { "type": "Point", "coordinates": [ -1.5117131, 53.7902661 ] } },
	{ "type": "Feature", "properties": { "osm_id": "5491637319", "name": "Morley United Services Club", "amenity": "pub", "other_tags": "\"fhrs:id\"=>\"467302\",\"addr:city\"=>\"Leeds\",\"addr:street\"=>\"High Street\",\"addr:suburb\"=>\"Morley\",\"addr:postcode\"=>\"LS27 9AL\"" }, "geometry": { "type": "Point", "coordinates": [ -1.5977557, 53.7418561 ] } },
	{ "type": "Feature", "properties": { "osm_id": "5494060412", "name": "The Podger", "amenity": "pub", "other_tags": "\"fhrs:id\"=>\"837972\",\"addr:city\"=>\"Leeds\",\"addr:street\"=>\"Ninelands Lane\",\"addr:suburb\"=>\"Garforth\",\"addr:postcode\"=>\"LS25 1NT\"" }, "geometry": { "type": "Point", "coordinates": [ -1.3768745, 53.7927708 ] } },
	{ "type": "Feature", "properties": { "osm_id": "5498612372", "name": "The Monkswood", "amenity": "pub", "other_tags": "\"addr:city\"=>\"Leeds\",\"addr:street\"=>\"Monkswood Drive\",\"addr:suburb\"=>\"Seacroft\",\"addr:postcode\"=>\"LS14 1DW\",\"addr:housenumber\"=>\"55-57\"" }, "geometry": { "type": "Point", "coordinates": [ -1.4704111, 53.8342212 ] } },
	{ "type": "Feature", "properties": { "osm_id": "5499252152", "name": "Adrian Club and Institute", "amenity": "pub", "other_tags": "\"fhrs:id\"=>\"466906\",\"addr:city\"=>\"Leeds\",\"addr:street\"=>\"Belle Vue Avenue\",\"addr:suburb\"=>\"Roundhay\",\"addr:postcode\"=>\"LS8 2NN\"" }, "geometry": { "type": "Point", "coordinates": [ -1.4883511, 53.8245062 ] } },
	{ "type": "Feature", "properties": { "osm_id": "5525548669", "name": "Pudsey Liberal Club", "amenity": "pub", "other_tags": "\"fhrs:id\"=>\"467203\",\"addr:city\"=>\"Leeds\",\"addr:street\"=>\"Lowtown\",\"addr:suburb\"=>\"Pudsey\",\"addr:postcode\"=>\"LS28 7BQ\",\"addr:housenumber\"=>\"15\"" }, "geometry": { "type": "Point", "coordinates": [ -1.6611658, 53.7971086 ] } },
	{ "type": "Feature", "properties": { "osm_id": "5543102073", "name": "Kippax Ex Service And Social Club", "amenity": "pub", "other_tags": "\"fhrs:id\"=>\"320581\",\"addr:city\"=>\"Leeds\",\"addr:street\"=>\"Church Lane\",\"addr:suburb\"=>\"Kippax\",\"addr:postcode\"=>\"LS25 7HF\"" }, "geometry": { "type": "Point", "coordinates": [ -1.3703111, 53.767354 ] } },
	{ "type": "Feature", "properties": { "osm_id": "5543102111", "name": "The Arabian Horse", "amenity": "pub", "other_tags": "\"fhrs:id\"=>\"799778\",\"addr:city\"=>\"Leeds\",\"addr:street\"=>\"Main Street\",\"addr:suburb\"=>\"Aberford\",\"addr:postcode\"=>\"LS25 3AA\"" }, "geometry": { "type": "Point", "coordinates": [ -1.34262, 53.8313348 ] } },
	{ "type": "Feature", "properties": { "osm_id": "5545788862", "name": "Roxy Ballroom", "amenity": "pub", "other_tags": "\"level\"=>\"1\",\"fhrs:id\"=>\"699345\",\"addr:city\"=>\"Leeds\",\"addr:street\"=>\"Boar Lane\",\"addr:postcode\"=>\"LS1 6HW\",\"addr:housenumber\"=>\"63\"" }, "geometry": { "type": "Point", "coordinates": [ -1.5447338, 53.7959125 ] } },
	{ "type": "Feature", "properties": { "osm_id": "5545788874", "name": "Cross Flatts Recreational Club", "amenity": "pub", "other_tags": "\"fhrs:id\"=>\"467119\",\"addr:city\"=>\"Leeds\",\"addr:street\"=>\"Theodore Street\",\"addr:suburb\"=>\"Beeston\",\"addr:postcode\"=>\"LS11 7HE\"" }, "geometry": { "type": "Point", "coordinates": [ -1.5593505, 53.7700728 ] } },
	{ "type": "Feature", "properties": { "osm_id": "5545788880", "name": "Morley Conservative Club", "amenity": "pub", "other_tags": "\"fhrs:id\"=>\"467311\",\"addr:city\"=>\"Leeds\",\"addr:street\"=>\"Chapel Hill\",\"addr:suburb\"=>\"Morley\",\"addr:postcode\"=>\"LS27 9JH\"" }, "geometry": { "type": "Point", "coordinates": [ -1.6016449, 53.749342 ] } },
	{ "type": "Feature", "properties": { "osm_id": "5545788899", "name": "Morley Sports Lounge", "amenity": "pub", "other_tags": "\"level\"=>\"2\",\"fhrs:id\"=>\"859241\",\"addr:city\"=>\"Leeds\",\"addr:street\"=>\"Queen Street\",\"addr:suburb\"=>\"Morley\",\"addr:postcode\"=>\"LS27 9EB\",\"addr:housename\"=>\"High Point House\"" }, "geometry": { "type": "Point", "coordinates": [ -1.6006672, 53.7443743 ] } },
	{ "type": "Feature", "properties": { "osm_id": "5548447016", "name": "The Grub and Grog Shop", "amenity": "pub", "other_tags": "\"addr:city\"=>\"Leeds\",\"addr:street\"=>\"Marshall Street\",\"addr:postcode\"=>\"LS11 9YJ\",\"addr:housename\"=>\"The Old Flax Store\"" }, "geometry": { "type": "Point", "coordinates": [ -1.5541765, 53.7907229 ] } },
	{ "type": "Feature", "properties": { "osm_id": "5604873861", "name": "The White Swan", "amenity": "pub", "other_tags": "\"fhrs:id\"=>\"481464\",\"addr:city\"=>\"Leeds\",\"addr:street\"=>\"Swan Street\",\"addr:postcode\"=>\"LS1 6LG\"" }, "geometry": { "type": "Point", "coordinates": [ -1.5428911, 53.798921 ] } },
	{ "type": "Feature", "properties": { "osm_id": "5622557378", "name": "The Rose And Crown", "amenity": "pub", "other_tags": "\"fhrs:id\"=>\"321224\",\"addr:city\"=>\"Leeds\",\"addr:street\"=>\"Rigton Drive\",\"addr:suburb\"=>\"Burmantofts\",\"addr:postcode\"=>\"LS9 7PZ\"" }, "geometry": { "type": "Point", "coordinates": [ -1.5238863, 53.8001471 ] } },
	{ "type": "Feature", "properties": { "osm_id": "5622558739", "name": "The Dahlak", "amenity": "pub", "other_tags": "\"fhrs:id\"=>\"894774\",\"old_name\"=>\"The Sportsman\",\"addr:city\"=>\"Leeds\",\"addr:street\"=>\"Stoney Rock Lane\",\"addr:suburb\"=>\"Burmantofts\",\"addr:postcode\"=>\"LS9 7TZ\"" }, "geometry": { "type": "Point", "coordinates": [ -1.5178084, 53.8046331 ] } },
	{ "type": "Feature", "properties": { "osm_id": "5622558777", "name": "Harehills Working Mens Club", "amenity": "pub", "other_tags": "\"fhrs:id\"=>\"466948\",\"addr:city\"=>\"Leeds\",\"addr:street\"=>\"Cowper Road\",\"addr:suburb\"=>\"Harehills\",\"addr:postcode\"=>\"LS9 7AP\"" }, "geometry": { "type": "Point", "coordinates": [ -1.5123689, 53.8091772 ] } },
	{ "type": "Feature", "properties": { "osm_id": "5626994512", "name": "New Middleton Club", "amenity": "pub", "other_tags": "\"addr:city\"=>\"Leeds\",\"addr:street\"=>\"Thorpe Street\",\"addr:suburb\"=>\"Middleton\",\"addr:postcode\"=>\"LS10 4HD\",\"addr:housenumber\"=>\"8\"" }, "geometry": { "type": "Point", "coordinates": [ -1.5438661, 53.7433131 ] } },
	{ "type": "Feature", "properties": { "osm_id": "5966307926", "name": "Calverley St Wilfreds Cricket Club", "amenity": "pub", "other_tags": "\"fhrs:id\"=>\"320400\",\"addr:town\"=>\"Pudsey\",\"addr:street\"=>\"Salisbury Street\",\"addr:suburb\"=>\"Calverley\",\"addr:postcode\"=>\"LS28 5PY\",\"addr:housename\"=>\"The Pavillion, Victoria Park\"" }, "geometry": { "type": "Point", "coordinates": [ -1.6914949, 53.8291028 ] } },
	{ "type": "Feature", "properties": { "osm_id": "6012990811", "name": "Stanningley ARLFC And Social Club", "amenity": "pub", "other_tags": "\"fhrs:id\"=>\"320960\",\"addr:city\"=>\"Leeds\",\"addr:street\"=>\"Coal Hill Drive\",\"addr:suburb\"=>\"Rodley\",\"addr:postcode\"=>\"LS13 1PA\"" }, "geometry": { "type": "Point", "coordinates": [ -1.6577835, 53.8176725 ] } },
	{ "type": "Feature", "properties": { "osm_id": "6015702876", "name": "Whitkirk Cricket Club", "amenity": "pub", "other_tags": "\"fhrs:id\"=>\"319772\",\"addr:city\"=>\"Leeds\",\"addr:street\"=>\"Selby Road\",\"addr:suburb\"=>\"Osmondthorpe\",\"addr:postcode\"=>\"LS15 0AA\"" }, "geometry": { "type": "Point", "coordinates": [ -1.4539786, 53.7958816 ] } },
	{ "type": "Feature", "properties": { "osm_id": "6025306252", "name": "John Charles Centre For Sport", "amenity": "pub", "other_tags": "\"fhrs:id\"=>\"692019\",\"addr:city\"=>\"Leeds\",\"addr:street\"=>\"Middleton Grove\",\"addr:suburb\"=>\"Beeston\",\"addr:postcode\"=>\"LS11 5DJ\"" }, "geometry": { "type": "Point", "coordinates": [ -1.5419805, 53.7642989 ] } },
	{ "type": "Feature", "properties": { "osm_id": "6058165830", "name": "Adel War Memorial Association", "amenity": "pub", "other_tags": "\"fhrs:id\"=>\"319648\",\"addr:city\"=>\"Leeds\",\"addr:street\"=>\"Church Lane\",\"addr:suburb\"=>\"Adel\",\"addr:postcode\"=>\"LS16 8DE\"" }, "geometry": { "type": "Point", "coordinates": [ -1.587275, 53.8558917 ] } },
	{ "type": "Feature", "properties": { "osm_id": "6131099126", "name": "Craft Asylum #2", "amenity": "pub", "other_tags": "\"fhrs:id\"=>\"1210253\",\"addr:city\"=>\"Leeds\",\"addr:street\"=>\"East Parade\",\"addr:postcode\"=>\"LS1 5BW\",\"addr:housenumber\"=>\"26\"" }, "geometry": { "type": "Point", "coordinates": [ -1.5489945, 53.798921 ] } },
	{ "type": "Feature", "properties": { "osm_id": "6337615684", "name": "Assembly Underground", "amenity": "pub", "other_tags": "\"level\"=>\"-1\",\"fhrs:id\"=>\"1089467\",\"website\"=>\"https:\/\/www.assemblyunderground.com\/\",\"addr:city\"=>\"Leeds\",\"addr:street\"=>\"Great George Street\",\"description\"=>\"Underground street food and craft ale\",\"addr:postcode\"=>\"LS2 8BE\",\"addr:housename\"=>\"Civic Court\"" }, "geometry": { "type": "Point", "coordinates": [ -1.5487956, 53.8006493 ] } },
	{ "type": "Feature", "properties": { "osm_id": "6572573228", "name": "Queen Hotel", "amenity": "pub", "other_tags": "\"fhrs:id\"=>\"1018049\",\"addr:city\"=>\"Leeds\",\"addr:street\"=>\"Queen Hotel\",\"addr:suburb\"=>\"Morley\",\"addr:postcode\"=>\"LS27 8DW\"" }, "geometry": { "type": "Point", "coordinates": [ -1.6005908, 53.7450103 ] } },
	{ "type": "Feature", "properties": { "osm_id": "6814615911", "name": "The Brunswick", "amenity": "pub" }, "geometry": { "type": "Point", "coordinates": [ -1.3854937, 53.927946 ] } },
	{ "type": "Feature", "properties": { "osm_id": "6969798966", "name": "The Owl", "amenity": "pub", "other_tags": "\"fhrs:id\"=>\"1202685\",\"addr:city\"=>\"Leeds\",\"addr:street\"=>\"Kirkgate\",\"addr:postcode\"=>\"LS2 7HL\",\"addr:housename\"=>\"Kirkgate Market\"" }, "geometry": { "type": "Point", "coordinates": [ -1.5388478, 53.7967297 ] } },
	{ "type": "Feature", "properties": { "osm_id": "7043928520", "name": "Head Of Steam", "amenity": "pub", "other_tags": "\"fhrs:id\"=>\"1210262\",\"addr:city\"=>\"Leeds\",\"addr:street\"=>\"Park Row\",\"addr:postcode\"=>\"LS1 5HD\",\"addr:housenumber\"=>\"7\"" }, "geometry": { "type": "Point", "coordinates": [ -1.5467119, 53.7975158 ] } },
	{ "type": "Feature", "properties": { "osm_id": "7699775087", "name": "The Head of Steam", "amenity": "pub", "other_tags": "\"survey:date\"=>\"2020-07-09\"" }, "geometry": { "type": "Point", "coordinates": [ -1.5787191, 53.8209654 ] } },
	{ "type": "Feature", "properties": { "osm_id": "7699775185", "name": "Headingley Taps", "amenity": "pub", "other_tags": "\"survey:date\"=>\"2020-07-09\"" }, "geometry": { "type": "Point", "coordinates": [ -1.5796532, 53.8205742 ] } },
	{ "type": "Feature", "properties": { "osm_id": "7899492438", "name": "The Groove Pad", "amenity": "pub" }, "geometry": { "type": "Point", "coordinates": [ -1.6927554, 53.9053298 ] } },
	{ "type": "Feature", "properties": { "osm_id": null, "centroid": { "latitude": 53.724079, "longitude": -1.576257 }, "osm_way_id": "26984155", "name": "The British Oak", "amenity": "pub", "other_tags": "\"fhrs:id\"=>\"639205\",\"addr:street\"=>\"Westerton Road\",\"addr:postcode\"=>\"WF3 1AF\",\"addr:housenumber\"=>\"407\"" }, "geometry": { "type": "Polygon", "coordinates": [ [ [ -1.5760646, 53.724359 ], [ -1.5759305, 53.7241032 ], [ -1.5761199, 53.724074 ], [ -1.5759736, 53.7238549 ], [ -1.5762008, 53.7237985 ], [ -1.5764528, 53.7240073 ], [ -1.5764734, 53.7240495 ], [ -1.5765844, 53.724277 ], [ -1.5760646, 53.724359 ] ] ] } },
	{ "type": "Feature", "properties": { "osm_id": null, "centroid": { "latitude": 53.749777, "longitude": -1.526663 }, "osm_way_id": "34294410", "name": "The Omnibus", "amenity": "pub", "landuse": "retail", "other_tags": "\"addr:city\"=>\"Leeds\",\"addr:street\"=>\"Throstle Road North\",\"addr:postcode\"=>\"LS10 4AD\"" }, "geometry": { "type": "Polygon", "coordinates": [ [ [ -1.5260811, 53.7496006 ], [ -1.5262158, 53.7495445 ], [ -1.5272058, 53.7496275 ], [ -1.5272968, 53.7496982 ], [ -1.5272031, 53.7500096 ], [ -1.5260287, 53.7498639 ], [ -1.5260811, 53.7496006 ] ] ] } },
	{ "type": "Feature", "properties": { "osm_id": null, "centroid": { "latitude": 53.757662, "longitude": -1.662950 }, "osm_way_id": "35225530", "name": "Drighlington Tempest Constitutional Club", "amenity": "pub", "other_tags": "\"fhrs:id\"=>\"320717\",\"addr:city\"=>\"Bradford\",\"addr:street\"=>\"Bradford Road\",\"addr:suburb\"=>\"Drighlington\",\"addr:postcode\"=>\"BD11 1AB\",\"addr:housenumber\"=>\"34\"" }, "geometry": { "type": "Polygon", "coordinates": [ [ [ -1.6624035, 53.7579 ], [ -1.6628543, 53.7574875 ], [ -1.6631152, 53.7572839 ], [ -1.6634961, 53.7574651 ], [ -1.6631845, 53.7576703 ], [ -1.6631344, 53.7576645 ], [ -1.6626531, 53.7580409 ], [ -1.6624035, 53.7579 ] ] ] } },
	{ "type": "Feature", "properties": { "osm_id": null, "centroid": { "latitude": 53.763702, "longitude": -1.648683 }, "osm_way_id": "35225550", "name": "Valley Inn", "amenity": "pub", "other_tags": "\"fhrs:id\"=>\"467307\",\"addr:city\"=>\"Bradford\",\"addr:street\"=>\"Whitehall Road\",\"addr:postcode\"=>\"BD11 1NE\",\"addr:housenumber\"=>\"68\"" }, "geometry": { "type": "Polygon", "coordinates": [ [ [ -1.6486146, 53.7634363 ], [ -1.6490358, 53.7637738 ], [ -1.6486446, 53.763968 ], [ -1.6483303, 53.763608 ], [ -1.6484524, 53.7635404 ], [ -1.6486146, 53.7634363 ] ] ] } },
	{ "type": "Feature", "properties": { "osm_id": null, "centroid": { "latitude": 53.755363, "longitude": -1.658298 }, "osm_way_id": "35267932", "name": "The Black Bull", "amenity": "pub", "other_tags": "\"real_ale\"=>\"yes\",\"beer_garden\"=>\"yes\"" }, "geometry": { "type": "Polygon", "coordinates": [ [ [ -1.6579604, 53.7554715 ], [ -1.658383, 53.7551378 ], [ -1.6585426, 53.7552354 ], [ -1.6586358, 53.755213 ], [ -1.6580266, 53.7555881 ], [ -1.6579604, 53.7554715 ] ] ] } },
	{ "type": "Feature", "properties": { "osm_id": null, "centroid": { "latitude": 53.754206, "longitude": -1.654129 }, "osm_way_id": "35267935", "name": "Drighlington A.R.L.F.C.", "amenity": "pub" }, "geometry": { "type": "Polygon", "coordinates": [ [ [ -1.6546731, 53.7540228 ], [ -1.6546104, 53.7542053 ], [ -1.6542033, 53.7543788 ], [ -1.6540411, 53.7544315 ], [ -1.6537677, 53.7545203 ], [ -1.6536489, 53.7544055 ], [ -1.6535847, 53.7541428 ], [ -1.6538713, 53.7538913 ], [ -1.6539688, 53.7539272 ], [ -1.6542006, 53.7539804 ], [ -1.654298, 53.7540001 ], [ -1.6544763, 53.7540239 ], [ -1.6546731, 53.7540228 ] ] ] } },
	{ "type": "Feature", "properties": { "osm_id": null, "centroid": { "latitude": 53.904079, "longitude": -1.700357 }, "osm_way_id": "43016708", "name": "The Fleece", "amenity": "pub", "building": "retail", "other_tags": "\"fhrs:id\"=>\"964265\",\"website\"=>\"www.fleece-otley.co.uk\",\"wikidata\"=>\"Q26428618\",\"addr:city\"=>\"Otley\",\"is_in:town\"=>\"Otley\",\"addr:street\"=>\"Westgate\",\"is_in:county\"=>\"West Yorkshire\",\"addr:postcode\"=>\"LS21 3DT\",\"opening_hours\"=>\"Mo-Su 11:00-23:00\"" }, "geometry": { "type": "Polygon", "coordinates": [ [ [ -1.7005156, 53.9040802 ], [ -1.7002736, 53.904159 ], [ -1.7001983, 53.9040788 ], [ -1.7004402, 53.9039999 ], [ -1.7005156, 53.9040802 ] ] ] } },
	{ "type": "Feature", "properties": { "osm_id": null, "centroid": { "latitude": 53.881753, "longitude": -1.720476 }, "osm_way_id": "60672854", "name": "The Ings", "amenity": "pub", "building": "yes", "other_tags": "\"fhrs:id\"=>\"320478\",\"addr:city\"=>\"Guiseley\",\"addr:street\"=>\"Ings Lane\",\"source:addr\"=>\"FHRS Open Data\",\"addr:postcode\"=>\"LS20 9HR\",\"addr:housenumber\"=>\"45\"" }, "geometry": { "type": "Polygon", "coordinates": [ [ [ -1.7204591, 53.8816645 ], [ -1.7206248, 53.8817386 ], [ -1.7204931, 53.881841 ], [ -1.7203274, 53.8817669 ], [ -1.7204591, 53.8816645 ] ] ] } },
	{ "type": "Feature", "properties": { "osm_id": null, "centroid": { "latitude": 53.838133, "longitude": -1.591204 }, "osm_way_id": "63995327", "name": "Stable's Pub", "amenity": "pub", "building": "yes", "other_tags": "\"wheelchair\"=>\"yes\"" }, "geometry": { "type": "Polygon", "coordinates": [ [ [ -1.5912607, 53.8382176 ], [ -1.5910444, 53.8381418 ], [ -1.5911431, 53.8380477 ], [ -1.5913634, 53.8381267 ], [ -1.5912607, 53.8382176 ] ] ] } },