{
"type": "FeatureCollection",
"crs": { "type": "name", "properties": { "name": "urn:ogc:def:crs:OGC:1.3:CRS84" } },
"features": [
	{ "type": "Feature", "properties": { "osm_id": "292238532", "name": "The Crop Shop", "other_tags": "\"addr:housenumber\"=>\"7\",\"phone\"=>\"+44 113 772 136\",\"shop\"=>\"hairdresser\"" }, "geometry": { "type": "Point", "coordinates": [ -1.5430904, 53.7770409 ] } },
	{ "type": "Feature", "properties": { "osm_id": "297118271", "name": "Fringes Hair Salon", "other_tags": "\"shop\"=>\"hairdresser\"" }, "geometry": { "type": "Point", "coordinates": [ -1.6492423, 53.8001966 ] } },
	{ "type": "Feature", "properties": { "osm_id": "302737774", "name": "Michael's Hair Fashions", "other_tags": "\"addr:city\"=>\"Leeds\",\"addr:housenumber\"=>\"147\",\"addr:postcode\"=>\"LS12 2RF\",\"addr:street\"=>\"Stanningley Road\",\"opening_hours\"=>\"Closed\",\"shop\"=>\"hairdresser\"" }, "geometry": { "type": "Point", "coordinates": [ -1.6138916, 53.8043203 ] } },
	{ "type": "Feature", "properties": { "osm_id": "302737810", "name": "Hands On Beauty", "other_tags": "\"shop\"=>\"hairdresser\"" }, "geometry": { "type": "Point", "coordinates": [ -1.6102209, 53.8047023 ] } },
	{ "type": "Feature", "properties": { "osm_id": "302868964", "name": "Carl & Paul Barber's", "other_tags": "\"shop\"=>\"hairdresser\"" }, "geometry": { "type": "Point", "coordinates": [ -1.6269417, 53.8057507 ] } },
	{ "type": "Feature", "properties": { "osm_id": "302868965", "name": "Beauty Box", "other_tags": "\"shop\"=>\"hairdresser\"" }, "geometry": { "type": "Point", "coordinates": [ -1.626859, 53.8057492 ] } },
	{ "type": "Feature", "properties": { "osm_id": "306328528", "name": "L Sixty-Five", "other_tags": "\"shop\"=>\"hairdresser\"" }, "geometry": { "type": "Point", "coordinates": [ -1.6088212, 53.7990734 ] } },
	{ "type": "Feature", "properties": { "osm_id": "313246917", "name": "Grades Barber", "other_tags": "\"shop\"=>\"hairdresser\"" }, "geometry": { "type": "Point", "coordinates": [ -1.5876678, 53.7973771 ] } },
	{ "type": "Feature", "properties": { "osm_id": "313246926", "name": "Hair", "other_tags": "\"shop\"=>\"hairdresser\"" }, "geometry": { "type": "Point", "coordinates": [ -1.5875694, 53.7977649 ] } },
	{ "type": "Feature", "properties": { "osm_id": "313246945", "name": "Sloanes Hair Design", "other_tags": "\"shop\"=>\"hairdresser\"" }, "geometry": { "type": "Point", "coordinates": [ -1.6028478, 53.8016519 ] } },
	{ "type": "Feature", "properties": { "osm_id": "319428951", "name": "Fazz's Barber Shop", "other_tags": "\"shop\"=>\"hairdresser\"" }, "geometry": { "type": "Point", "coordinates": [ -1.5678294, 53.8109069 ] } },
	{ "type": "Feature", "properties": { "osm_id": "319428958", "name": "Hussain Barbers", "other_tags": "\"shop\"=>\"hairdresser\"" }, "geometry": { "type": "Point", "coordinates": [ -1.5677153, 53.8118782 ] } },
	{ "type": "Feature", "properties": { "osm_id": "320998068", "name": "Ego", "other_tags": "\"shop\"=>\"hairdresser\"" }, "geometry": { "type": "Point", "coordinates": [ -1.5369688, 53.796211 ] } },
	{ "type": "Feature", "properties": { "osm_id": "330071180", "name": "The Barbers Shop", "other_tags": "\"shop\"=>\"hairdresser\"" }, "geometry": { "type": "Point", "coordinates": [ -1.5911309, 53.7965837 ] } },
	{ "type": "Feature", "properties": { "osm_id": "330089271", "name": "Renato Hair Design", "other_tags": "\"shop\"=>\"hairdresser\"" }, "geometry": { "type": "Point", "coordinates": [ -1.5926947, 53.7966301 ] } },
	{ "type": "Feature", "properties": { "osm_id": "331637215", "name": "Opal Hair & Beauty", "other_tags": "\"shop\"=>\"hairdresser\"" }, "geometry": { "type": "Point", "coordinates": [ -1.5890256, 53.7971597 ] } },
	{ "type": "Feature", "properties": { "osm_id": "331654381", "name": "Kwik Kutz", "other_tags": "\"shop\"=>\"hairdresser\"" }, "geometry": { "type": "Point", "coordinates": [ -1.5982944, 53.7964886 ] } },
	{ "type": "Feature", "properties": { "osm_id": "331654406", "name": "Hair Team", "other_tags": "\"shop\"=>\"hairdresser\"" }, "geometry": { "type": "Point", "coordinates": [ -1.5971802, 53.796843 ] } },
	{ "type": "Feature", "properties": { "osm_id": "331654409", "name": "K's Cuts", "other_tags": "\"shop\"=>\"hairdresser\"" }, "geometry": { "type": "Point", "coordinates": [ -1.6012011, 53.7976797 ] } },
	{ "type": "Feature", "properties": { "osm_id": "332329795", "name": "Funct", "other_tags": "\"shop\"=>\"hairdresser\"" }, "geometry": { "type": "Point", "coordinates": [ -1.5786142, 53.8209745 ] } },
	{ "type": "Feature", "properties": { "osm_id": "332484045", "name": "Spirals", "other_tags": "\"addr:city\"=>\"Leeds\",\"addr:housenumber\"=>\"93\",\"addr:postcode\"=>\"LS7 2PR\",\"addr:street\"=>\"Stainbeck Road\",\"addr:suburb\"=>\"Meanwood\",\"shop\"=>\"hairdresser\"" }, "geometry": { "type": "Point", "coordinates": [ -1.5555962, 53.8310901 ] } },
	{ "type": "Feature", "properties": { "osm_id": "332484046", "name": "RedX Hair & Beauty Studio", "other_tags": "\"addr:city\"=>\"Leeds\",\"addr:housenumber\"=>\"101\",\"addr:postcode\"=>\"LS7 2PR\",\"addr:street\"=>\"Stainbeck Road\",\"addr:suburb\"=>\"Meanwood\",\"shop\"=>\"hairdresser\"" }, "geometry": { "type": "Point", "coordinates": [ -1.5552733, 53.8311632 ] } },
	{ "type": "Feature", "properties": { "osm_id": "333452846", "name": "Boris & Co", "other_tags": "\"addr:city\"=>\"Leeds\",\"addr:housenumber\"=>\"165\",\"addr:postcode\"=>\"LS1 6LY\",\"addr:street\"=>\"Lower Briggate\",\"shop\"=>\"hairdresser\",\"website\"=>\"https:\/\/www.borisandco.co.uk\/\"" }, "geometry": { "type": "Point", "coordinates": [ -1.5423603, 53.7952068 ] } },
	{ "type": "Feature", "properties": { "osm_id": "334884434", "name": "Charles Lewis", "other_tags": "\"shop\"=>\"hairdresser\"" }, "geometry": { "type": "Point", "coordinates": [ -1.5837866, 53.8068525 ] } },
	{ "type": "Feature", "properties": { "osm_id": "340071334", "name": "Trendline", "other_tags": "\"shop\"=>\"hairdresser\"" }, "geometry": { "type": "Point", "coordinates": [ -1.6325048, 53.8140469 ] } },
	{ "type": "Feature", "properties": { "osm_id": "342579639", "name": "Halo Hair", "other_tags": "\"shop\"=>\"hairdresser\",\"addr:city\"=>\"Leeds\",\"addr:street\"=>\"Cherry Tree Walk\"" }, "geometry": { "type": "Point", "coordinates": [ -1.540457, 53.7951648 ] } },
	{ "type": "Feature", "properties": { "osm_id": "342601289", "other_tags": "\"shop\"=>\"hairdresser\"" }, "geometry": { "type": "Point", "coordinates": [ -1.5396851, 53.8004131 ] } },
	{ "type": "Feature", "properties": { "osm_id": "342601307", "name": "Nicholas Jane Hairdressing", "other_tags": "\"shop\"=>\"hairdresser\"" }, "geometry": { "type": "Point", "coordinates": [ -1.5416613, 53.8002125 ] } },
	{ "type": "Feature", "properties": { "osm_id": "343136577", "name": "Flying Scissors", "other_tags": "\"shop\"=>\"hairdresser\"" }, "geometry": { "type": "Point", "coordinates": [ -1.6165613, 53.7960765 ] } },
	{ "type": "Feature", "properties": { "osm_id": "349343400", "name": "studio 47", "other_tags": "\"shop\"=>\"hairdresser\"" }, "geometry": { "type": "Point", "coordinates": [ -1.6323782, 53.8110126 ] } },
	{ "type": "Feature", "properties": { "osm_id": "349352562", "name": "Short-Topz", "other_tags": "\"shop\"=>\"hairdresser\"" }, "geometry": { "type": "Point", "coordinates": [ -1.6361946, 53.8064764 ] } },
	{ "type": "Feature", "properties": { "osm_id": "349352565", "name": "Luxe", "other_tags": "\"old_name\"=>\"paul michael\",\"shop\"=>\"hairdresser\",\"website\"=>\"https:\/\/www.luxesalon.co.uk\/\"" }, "geometry": { "type": "Point", "coordinates": [ -1.6359624, 53.8065069 ] } },
	{ "type": "Feature", "properties": { "osm_id": "352871293", "name": "Architect Hair", "other_tags": "\"shop\"=>\"hairdresser\"" }, "geometry": { "type": "Point", "coordinates": [ -1.5745416, 53.8146231 ] } },
	{ "type": "Feature", "properties": { "osm_id": "353922332", "name": "Mega City One", "other_tags": "\"shop\"=>\"hairdresser\"" }, "geometry": { "type": "Point", "coordinates": [ -1.5520273, 53.8082314 ] } },
	{ "type": "Feature", "properties": { "osm_id": "356074100", "name": "Rhubarb Hair Design", "other_tags": "\"addr:city\"=>\"Leeds\",\"addr:postcode\"=>\"LS12 5AA\",\"addr:street\"=>\"Cross Lane\",\"shop\"=>\"hairdresser\"" }, "geometry": { "type": "Point", "coordinates": [ -1.6194725, 53.7871703 ] } },
	{ "type": "Feature", "properties": { "osm_id": "357751948", "name": "Box", "other_tags": "\"shop\"=>\"hairdresser\"" }, "geometry": { "type": "Point", "coordinates": [ -1.5424704, 53.7945715 ] } },
	{ "type": "Feature", "properties": { "osm_id": "364458778", "name": "Mr Smiths Barbershop", "other_tags": "\"addr:housenumber\"=>\"154a\",\"addr:postcode\"=>\"LS26 8SF\",\"addr:street\"=>\"Holmesly Lane\",\"shop\"=>\"hairdresser\"" }, "geometry": { "type": "Point", "coordinates": [ -1.4646894, 53.7556447 ] } },
	{ "type": "Feature", "properties": { "osm_id": "382692532", "name": "Beechwood Hair Studio", "other_tags": "\"shop\"=>\"hairdresser\"" }, "geometry": { "type": "Point", "coordinates": [ -1.6758514, 53.8055588 ] } },
	{ "type": "Feature", "properties": { "osm_id": "392007372", "name": "Hussain Hairdresser", "other_tags": "\"shop\"=>\"hairdresser\"" }, "geometry": { "type": "Point", "coordinates": [ -1.5494162, 53.7737286 ] } },
	{ "type": "Feature", "properties": { "osm_id": "392047410", "name": "Denise's", "other_tags": "\"shop\"=>\"hairdresser\"" }, "geometry": { "type": "Point", "coordinates": [ -1.5554434, 53.7774645 ] } },
	{ "type": "Feature", "properties": { "osm_id": "405211386", "other_tags": "\"shop\"=>\"hairdresser\"" }, "geometry": { "type": "Point", "coordinates": [ -1.5528388, 53.7763642 ] } },
	{ "type": "Feature", "properties": { "osm_id": "430953147", "name": "Hair Lounge", "other_tags": "\"shop\"=>\"hairdresser\"" }, "geometry": { "type": "Point", "coordinates": [ -1.6009914, 53.7835957 ] } },
	{ "type": "Feature", "properties": { "osm_id": "538870441", "name": "Chevin Barber", "other_tags": "\"shop\"=>\"hairdresser\",\"telephone\"=>\"01943 468846\",\"hairdresser\"=>\"men\"" }, "geometry": { "type": "Point", "coordinates": [ -1.6927884, 53.904489 ] } },
	{ "type": "Feature", "properties": { "osm_id": "886569595", "name": "Trim And Proper", "other_tags": "\"shop\"=>\"hairdresser\"" }, "geometry": { "type": "Point", "coordinates": [ -1.53854, 53.830504 ] } },
	{ "type": "Feature", "properties": { "osm_id": "1221670544", "name": "Strands Hair Salon", "other_tags": "\"addr:city\"=>\"Leeds\",\"addr:housenumber\"=>\"203\",\"addr:postcode\"=>\"LS18 5BS\",\"addr:street\"=>\"Broadgate Lane\",\"addr:suburb\"=>\"Horsforth\",\"opening_hours\"=>\"Mo-Sa 09:00-18:00; Su Closed\",\"operator\"=>\"Cath Bishop\",\"shop\"=>\"hairdresser\"" }, "geometry": { "type": "Point", "coordinates": [ -1.6367964, 53.8401062 ] } },
	{ "type": "Feature", "properties": { "osm_id": "1251742960", "name": "Prosenium", "other_tags": "\"shop\"=>\"hairdresser\"" }, "geometry": { "type": "Point", "coordinates": [ -1.6521821, 53.8095903 ] } },
	{ "type": "Feature", "properties": { "osm_id": "1406386709", "name": "Lez Robinz", "other_tags": "\"shop\"=>\"hairdresser\"" }, "geometry": { "type": "Point", "coordinates": [ -1.5856825, 53.8074839 ] } },
	{ "type": "Feature", "properties": { "osm_id": "1859541299", "name": "Pure Indulgence", "other_tags": "\"addr:housename\"=>\"Laurel Bank\",\"old_name\"=>\"E.K.One Hairdressing\",\"shop\"=>\"hairdresser\"" }, "geometry": { "type": "Point", "coordinates": [ -1.4512443, 53.8931615 ] } },
	{ "type": "Feature", "properties": { "osm_id": "2072972461", "name": "Martin's", "other_tags": "\"shop\"=>\"hairdresser\"" }, "geometry": { "type": "Point", "coordinates": [ -1.5619478, 53.7641991 ] } },
	{ "type": "Feature", "properties": { "osm_id": "2072972464", "name": "Profile Hair Studio", "other_tags": "\"shop\"=>\"hairdresser\"" }, "geometry": { "type": "Point", "coordinates": [ -1.5617216, 53.7646906 ] } },
	{ "type": "Feature", "properties": { "osm_id": "2073006178", "name": "Razers", "other_tags": "\"shop\"=>\"hairdresser\"" }, "geometry": { "type": "Point", "coordinates": [ -1.5556273, 53.7672792 ] } },
	{ "type": "Feature", "properties": { "osm_id": "2117006487", "other_tags": "\"shop\"=>\"hairdresser\"" }, "geometry": { "type": "Point", "coordinates": [ -1.5286777, 53.778838 ] } },
	{ "type": "Feature", "properties": { "osm_id": "2124265334", "name": "Sketch Hair", "other_tags": "\"shop\"=>\"hairdresser\"" }, "geometry": { "type": "Point", "coordinates": [ -1.5455446, 53.7952958 ] } },
	{ "type": "Feature", "properties": { "osm_id": "2125610521", "name": "Just Men", "other_tags": "\"shop\"=>\"hairdresser\"" }, "geometry": { "type": "Point", "coordinates": [ -1.5379817, 53.7965878 ] } },
	{ "type": "Feature", "properties": { "osm_id": "2128107730", "name": "Atelier", "other_tags": "\"addr:city\"=>\"Leeds\",\"addr:housenumber\"=>\"8\",\"addr:postcode\"=>\"LS2 7JF\",\"addr:street\"=>\"Vicar Lane\",\"old_name\"=>\"Prague Hair Salon\",\"shop\"=>\"hairdresser\",\"website\"=>\"https:\/\/atelier.mytreatwell.co.uk\/\"" }, "geometry": { "type": "Point", "coordinates": [ -1.5401195, 53.7970888 ] } },
	{ "type": "Feature", "properties": { "osm_id": "2134260269", "name": "Unique Gro Hair & Beauty Salon", "other_tags": "\"shop\"=>\"hairdresser\"" }, "geometry": { "type": "Point", "coordinates": [ -1.5398349, 53.7967847 ] } },
	{ "type": "Feature", "properties": { "osm_id": "2138746302", "name": "Hair", "other_tags": "\"shop\"=>\"hairdresser\"" }, "geometry": { "type": "Point", "coordinates": [ -1.5413191, 53.7974686 ] } },
	{ "type": "Feature", "properties": { "osm_id": "2144729451", "name": "Remedy", "amenity": "bar", "other_tags": "\"addr:city\"=>\"Leeds\",\"addr:housenumber\"=>\"16\",\"addr:postcode\"=>\"LS1 6NU\",\"addr:street\"=>\"New Briggate\",\"fhrs:id\"=>\"1018414\",\"shop\"=>\"hairdresser\"" }, "geometry": { "type": "Point", "coordinates": [ -1.5416596, 53.7994476 ] } },
	{ "type": "Feature", "properties": { "osm_id": "2353519756", "name": "Steca's Barber Shop", "other_tags": "\"shop\"=>\"hairdresser\",\"addr:street\"=>\"New Inn Court\",\"hairdresser\"=>\"men\"" }, "geometry": { "type": "Point", "coordinates": [ -1.6938876, 53.9049909 ] } },
	{ "type": "Feature", "properties": { "osm_id": "2353558014", "name": "In Dimensions", "other_tags": "\"shop\"=>\"hairdresser\",\"addr:street\"=>\"Kirkgate\",\"hairdresser\"=>\"unisex\"" }, "geometry": { "type": "Point", "coordinates": [ -1.693893, 53.9043652 ] } },
	{ "type": "Feature", "properties": { "osm_id": "2353725351", "name": "Debutante", "other_tags": "\"shop\"=>\"hairdresser\",\"addr:city\"=>\"Otley\",\"telephone\"=>\"01943 462996\",\"is_in:town\"=>\"Otley\",\"addr:street\"=>\"Newmarket\"" }, "geometry": { "type": "Point", "coordinates": [ -1.6930776, 53.9048013 ] } },
	{ "type": "Feature", "properties": { "osm_id": "2353725354", "name": "Daniyal Baig", "other_tags": "\"shop\"=>\"hairdresser\",\"addr:city\"=>\"Otley\",\"is_in:town\"=>\"Otley\",\"addr:street\"=>\"Newmarket\",\"addr:postcode\"=>\"LS21 3AE\",\"addr:housenumber\"=>\"26\"" }, "geometry": { "type": "Point", "coordinates": [ -1.6930829, 53.9048393 ] } },
	{ "type": "Feature", "properties": { "osm_id": "2408752468", "name": "Scissor Sisters", "other_tags": "\"shop\"=>\"hairdresser\"" }, "geometry": { "type": "Point", "coordinates": [ -1.5673558, 53.8292784 ] } },
	{ "type": "Feature", "properties": { "osm_id": "2408752499", "name": "Chaplins", "other_tags": "\"shop\"=>\"hairdresser\"" }, "geometry": { "type": "Point", "coordinates": [ -1.5665768, 53.8285538 ] } },
	{ "type": "Feature", "properties": { "osm_id": "2430356591", "name": "Tonic", "other_tags": "\"addr:city\"=>\"Leeds\",\"addr:housenumber\"=>\"12B\",\"addr:postcode\"=>\"LS18 4RJ\",\"addr:street\"=>\"Town Street\",\"addr:suburb\"=>\"Horsforth\",\"opening_hours\"=>\"Mo-Fr 10:00-19:00; Sa 10:00-18:00\",\"phone\"=>\"+44 113 258 8841\",\"shop\"=>\"hairdresser\"" }, "geometry": { "type": "Point", "coordinates": [ -1.641932, 53.8369739 ] } },
	{ "type": "Feature", "properties": { "osm_id": "2556966316", "name": "Chris Wallbank Hairdressing", "other_tags": "\"shop\"=>\"hairdresser\"" }, "geometry": { "type": "Point", "coordinates": [ -1.7124433, 53.873898 ] } },
	{ "type": "Feature", "properties": { "osm_id": "2952382428", "name": "Cissis Barbers", "other_tags": "\"shop\"=>\"hairdresser\"" }, "geometry": { "type": "Point", "coordinates": [ -1.5695163, 53.8271596 ] } },
	{ "type": "Feature", "properties": { "osm_id": "3057112834", "name": "Yazz Number One Hair Studio", "other_tags": "\"addr:city\"=>\"Yeadon\",\"addr:housename\"=>\"LA Fitness Health Club\",\"addr:postcode\"=>\"LS19 7EN\",\"addr:street\"=>\"Haworth Lane\",\"opening_hours\"=>\"Mo,Su off; Tu,Fr 09:00-18:00; We,Th 09:00-20:00; Sa 09:00-16:00\",\"phone\"=>\"+44 113 391 0888\",\"shop\"=>\"hairdresser\",\"website\"=>\"https:\/\/www.yazzhair.co\/yazz-yeadon-salon\/\",\"wheelchair\"=>\"no\"" }, "geometry": { "type": "Point", "coordinates": [ -1.6887141, 53.8669423 ] } },
	{ "type": "Feature", "properties": { "osm_id": "3057247698", "name": "Yazz Number One Hair Salon", "other_tags": "\"addr:city\"=>\"Guiseley\",\"addr:housenumber\"=>\"14\",\"addr:postcode\"=>\"LS20 8AH\",\"addr:street\"=>\"Otley Road\",\"opening_hours\"=>\"Monday: Closed, Tuesday: 9:00 to 6:00, Wednesday: 9:00 to 6:00, Thursday: 9:00 to 8:00, Friday: 9:00 to 6:00, Saturday: 9:00 to 4:00, Sunday: Closed\",\"phone\"=>\"+44 1943 870 333\",\"shop\"=>\"hairdresser\",\"website\"=>\"https:\/\/www.yazzhair.co\/yazz-guiseley-salon\/\"" }, "geometry": { "type": "Point", "coordinates": [ -1.7096025, 53.8727231 ] } },
	{ "type": "Feature", "properties": { "osm_id": "3073182158", "name": "Verity's Hair Salon", "other_tags": "\"addr:city\"=>\"Farsley\",\"addr:housenumber\"=>\"1\",\"addr:street\"=>\"Town Street\",\"shop\"=>\"hairdresser\"" }, "geometry": { "type": "Point", "coordinates": [ -1.6723754, 53.8112178 ] } },
	{ "type": "Feature", "properties": { "osm_id": "3191671108", "name": "The Salon", "other_tags": "\"shop\"=>\"hairdresser\"" }, "geometry": { "type": "Point", "coordinates": [ -1.7252432, 53.87655 ] } },
	{ "type": "Feature", "properties": { "osm_id": "3222634963", "name": "Silver", "other_tags": "\"shop\"=>\"hairdresser\"" }, "geometry": { "type": "Point", "coordinates": [ -1.5610983, 53.8147955 ] } },
	{ "type": "Feature", "properties": { "osm_id": "3222635461", "name": "Hair Angels", "other_tags": "\"shop\"=>\"hairdresser\",\"opening_hours\"=>\"Mo - Fr 10:00 - 18:00, Sa 10:00 - 16:00\"" }, "geometry": { "type": "Point", "coordinates": [ -1.5611638, 53.8145648 ] } },
	{ "type": "Feature", "properties": { "osm_id": "3225905507", "name": "Hair Creative Cutting", "other_tags": "\"shop\"=>\"hairdresser\"" }, "geometry": { "type": "Point", "coordinates": [ -1.5759844, 53.8120772 ] } },
	{ "type": "Feature", "properties": { "osm_id": "3225929666", "name": "Kiren's Hair & Beauty", "other_tags": "\"shop\"=>\"hairdresser\"" }, "geometry": { "type": "Point", "coordinates": [ -1.5735376, 53.8111902 ] } },
	{ "type": "Feature", "properties": { "osm_id": "3225929772", "name": "Philip Jons", "other_tags": "\"shop\"=>\"hairdresser\"" }, "geometry": { "type": "Point", "coordinates": [ -1.5758715, 53.8118885 ] } },
	{ "type": "Feature", "properties": { "osm_id": "3300696422", "name": "Regis", "other_tags": "\"shop\"=>\"hairdresser\"" }, "geometry": { "type": "Point", "coordinates": [ -1.5454856, 53.7959256 ] } },
	{ "type": "Feature", "properties": { "osm_id": "3600588639", "name": "C02 Beauty", "other_tags": "\"addr:city\"=>\"Leeds\",\"addr:housenumber\"=>\"8\",\"addr:postcode\"=>\"LS8 1LW\",\"addr:street\"=>\"Chandos Gardens\",\"phone\"=>\"+44 113 269 5392\",\"shop\"=>\"hairdresser\"" }, "geometry": { "type": "Point", "coordinates": [ -1.5208875, 53.8345825 ] } },
	{ "type": "Feature", "properties": { "osm_id": "3625915990", "name": "Rawdon Barber Shop", "other_tags": "\"opening_hours\"=>\"Mo 09:00-18:00; Tu,Th,Fr 09:00-18:00; Sa 08:30-14:00\",\"shop\"=>\"hairdresser\"" }, "geometry": { "type": "Point", "coordinates": [ -1.6714499, 53.8498506 ] } },
	{ "type": "Feature", "properties": { "osm_id": "3626078174", "name": "Mirror Mirror", "other_tags": "\"shop\"=>\"hairdresser\"" }, "geometry": { "type": "Point", "coordinates": [ -1.6164603, 53.8284395 ] } },
	{ "type": "Feature", "properties": { "osm_id": "3715263091", "name": "Limeys Barber Shop", "other_tags": "\"addr:city\"=>\"Rawdon\",\"addr:housenumber\"=>\"28\",\"addr:postcode\"=>\"LS19 6HJ\",\"addr:street\"=>\"Harrogate Road\",\"phone\"=>\"+44 7834 317 282\",\"shop\"=>\"hairdresser\"" }, "geometry": { "type": "Point", "coordinates": [ -1.6842263, 53.8543839 ] } },
	{ "type": "Feature", "properties": { "osm_id": "3715263115", "name": "Samantha Hair Beauty Nails", "other_tags": "\"addr:city\"=>\"Rawdon\",\"addr:housenumber\"=>\"14\",\"addr:postcode\"=>\"LS19 6HJ\",\"addr:street\"=>\"Harrogate Road\",\"phone\"=>\"+44 113 250 9500\",\"shop\"=>\"hairdresser\"" }, "geometry": { "type": "Point", "coordinates": [ -1.684458, 53.8537029 ] } },
	{ "type": "Feature", "properties": { "osm_id": "3715292793", "name": "Definition Hair Design", "other_tags": "\"addr:city\"=>\"Rawdon\",\"addr:housenumber\"=>\"3\",\"addr:postcode\"=>\"LS19 6HW\",\"addr:street\"=>\"Harrogate Road\",\"phone\"=>\"+44 113 250 7139\",\"shop\"=>\"hairdresser\",\"website\"=>\"https:\/\/www.definitionhairdesign.co.uk\/\"" }, "geometry": { "type": "Point", "coordinates": [ -1.684889, 53.8535926 ] } },
	{ "type": "Feature", "properties": { "osm_id": "3715344951", "name": "Bijou Hair", "other_tags": "\"addr:city\"=>\"Rawdon\",\"addr:postcode\"=>\"LS19 6AX\",\"addr:street\"=>\"Leeds Road\",\"phone\"=>\"+44 113 250 4428\",\"shop\"=>\"hairdresser\"" }, "geometry": { "type": "Point", "coordinates": [ -1.6846622, 53.8524805 ] } },
	{ "type": "Feature", "properties": { "osm_id": "3716749538", "name": "Stiff Hairdressers", "other_tags": "\"addr:city\"=>\"Yeadon\",\"addr:housenumber\"=>\"131\",\"addr:postcode\"=>\"LS19 7TA\",\"addr:street\"=>\"High Street\",\"phone\"=>\"+44 113 250 5516\",\"shop\"=>\"hairdresser\"" }, "geometry": { "type": "Point", "coordinates": [ -1.6771306, 53.8653923 ] } },
	{ "type": "Feature", "properties": { "osm_id": "3716749539", "name": "John Ollen", "other_tags": "\"shop\"=>\"hairdresser\",\"addr:city\"=>\"Yeadon\",\"addr:street\"=>\"High Street\",\"addr:postcode\"=>\"LS19 7TA\"" }, "geometry": { "type": "Point", "coordinates": [ -1.6771773, 53.8654295 ] } },
	{ "type": "Feature", "properties": { "osm_id": "3716852675", "name": "Tribe Hairdressing", "other_tags": "\"addr:city\"=>\"Yeadon\",\"addr:housenumber\"=>\"107\",\"addr:postcode\"=>\"LS19 7TA\",\"addr:street\"=>\"High Street\",\"phone\"=>\"+44 113 250 3105\",\"shop\"=>\"hairdresser\",\"website\"=>\"www.tribeleeds.co.uk\"" }, "geometry": { "type": "Point", "coordinates": [ -1.6787622, 53.8660839 ] } },
	{ "type": "Feature", "properties": { "osm_id": "3716852687", "name": "Gary's Barber Shop", "other_tags": "\"addr:city\"=>\"Yeadon\",\"addr:housenumber\"=>\"99\",\"addr:postcode\"=>\"LS19 7TA\",\"addr:street\"=>\"High Street\",\"phone\"=>\"+44 7795 088068\",\"shop\"=>\"hairdresser\"" }, "geometry": { "type": "Point", "coordinates": [ -1.6791214, 53.8661486 ] } },
	{ "type": "Feature", "properties": { "osm_id": "3716852689", "name": "A.L.F. Hair Design", "other_tags": "\"addr:city\"=>\"Yeadon\",\"addr:housenumber\"=>\"91\",\"addr:postcode\"=>\"LS19 7TA\",\"addr:street\"=>\"High Street\",\"phone\"=>\"+44 113 250 6757\",\"shop\"=>\"hairdresser\"" }, "geometry": { "type": "Point", "coordinates": [ -1.6793426, 53.8661904 ] } },
	{ "type": "Feature", "properties": { "osm_id": "3716870616", "other_tags": "\"addr:city\"=>\"Yeadon\",\"addr:housenumber\"=>\"83a\",\"addr:street\"=>\"High Street\",\"phone\"=>\"+44 7538 101507\",\"shop\"=>\"hairdresser\"" }, "geometry": { "type": "Point", "coordinates": [ -1.6799195, 53.8662958 ] } },
	{ "type": "Feature", "properties": { "osm_id": "3716883310", "name": "Red", "other_tags": "\"addr:city\"=>\"Yeadon\",\"addr:housenumber\"=>\"58\",\"addr:postcode\"=>\"LS19 7PP\",\"addr:street\"=>\"High Street\",\"phone\"=>\"+44 113 250 9479\",\"shop\"=>\"hairdresser\",\"website\"=>\"www.red-hair.co.uk\"" }, "geometry": { "type": "Point", "coordinates": [ -1.6805193, 53.8661471 ] } },
	{ "type": "Feature", "properties": { "osm_id": "3716915900", "name": "LA's Hair Studios", "other_tags": "\"addr:city\"=>\"Yeadon\",\"addr:housenumber\"=>\"10\",\"addr:postcode\"=>\"LS19 7QP\",\"addr:street\"=>\"Harper Lane\",\"phone\"=>\"+44 113 250 2460\",\"shop\"=>\"hairdresser\"" }, "geometry": { "type": "Point", "coordinates": [ -1.6819906, 53.8656718 ] } },
	{ "type": "Feature", "properties": { "osm_id": "3716946417", "name": "Yeadon Barber", "other_tags": "\"shop\"=>\"hairdresser\"" }, "geometry": { "type": "Point", "coordinates": [ -1.6825865, 53.8662322 ] } },
	{ "type": "Feature", "properties": { "osm_id": "3716946418", "name": "Salon 65", "other_tags": "\"addr:city\"=>\"Yeadon\",\"addr:housenumber\"=>\"65\",\"addr:postcode\"=>\"LS19 7SP\",\"addr:street\"=>\"High Street\",\"phone\"=>\"+44 113 250 9498\",\"shop\"=>\"hairdresser\"" }, "geometry": { "type": "Point", "coordinates": [ -1.6826577, 53.8662214 ] } },
	{ "type": "Feature", "properties": { "osm_id": "3718205542", "name": "Nu Style Unisex Hair Salon", "other_tags": "\"addr:city\"=>\"Yeadon\",\"addr:housenumber\"=>\"33\",\"addr:postcode\"=>\"LS19 7SP\",\"addr:street\"=>\"High Street\",\"phone\"=>\"+44 113 210 2731\",\"shop\"=>\"hairdresser\"" }, "geometry": { "type": "Point", "coordinates": [ -1.6843011, 53.8662407 ] } },
	{ "type": "Feature", "properties": { "osm_id": "3718213175", "name": "Room 11", "other_tags": "\"addr:city\"=>\"Yeadon\",\"addr:housenumber\"=>\"11\",\"addr:postcode\"=>\"LS19 7SP\",\"addr:street\"=>\"High Street\",\"phone\"=>\"+44 113 250 2342\",\"shop\"=>\"hairdresser\"" }, "geometry": { "type": "Point", "coordinates": [ -1.6851065, 53.8661319 ] } },
	{ "type": "Feature", "properties": { "osm_id": "3718231086", "name": "Kirsty's Hair Diffusione", "other_tags": "\"addr:city\"=>\"Yeadon\",\"addr:housenumber\"=>\"6\",\"addr:postcode\"=>\"LS19 7PP\",\"addr:street\"=>\"High Street\",\"phone\"=>\"+44 113 250 3822\",\"shop\"=>\"hairdresser\"" }, "geometry": { "type": "Point", "coordinates": [ -1.6852742, 53.8659342 ] } },
	{ "type": "Feature", "properties": { "osm_id": "3718444414", "name": "Big Al's Barber Shop", "other_tags": "\"shop\"=>\"hairdresser\",\"addr:city\"=>\"Yeadon\",\"addr:street\"=>\"High Street\",\"addr:postcode\"=>\"LS19 7PP\",\"addr:housenumber\"=>\"18\"" }, "geometry": { "type": "Point", "coordinates": [ -1.683695, 53.8660399 ] } },
	{ "type": "Feature", "properties": { "osm_id": "3718469497", "name": "Originals Hair Salon", "other_tags": "\"addr:city\"=>\"Yeadon\",\"addr:housenumber\"=>\"8\",\"addr:postcode\"=>\"LS19 7EQ\",\"addr:street\"=>\"Town Street\",\"phone\"=>\"+44 113 202 9493\",\"shop\"=>\"hairdresser\"" }, "geometry": { "type": "Point", "coordinates": [ -1.6859775, 53.8660379 ] } },
	{ "type": "Feature", "properties": { "osm_id": "3718469500", "name": "Mirror Mirror", "other_tags": "\"addr:city\"=>\"Yeadon\",\"addr:housenumber\"=>\"15\",\"addr:postcode\"=>\"LS19 7EQ\",\"addr:street\"=>\"Town Street\",\"phone\"=>\"+44 7585 807091\",\"shop\"=>\"hairdresser\"" }, "geometry": { "type": "Point", "coordinates": [ -1.6863395, 53.8658672 ] } },
	{ "type": "Feature", "properties": { "osm_id": "3718505648", "name": "Hair La Mode", "other_tags": "\"addr:city\"=>\"Yeadon\",\"addr:housenumber\"=>\"12\",\"addr:postcode\"=>\"LS19 7EW\",\"addr:street\"=>\"Sandy Way\",\"phone\"=>\"+44 113 250 8512\",\"shop\"=>\"hairdresser\"" }, "geometry": { "type": "Point", "coordinates": [ -1.6865021, 53.8656907 ] } },
	{ "type": "Feature", "properties": { "osm_id": "3777443923", "name": "The Barbers Shop", "other_tags": "\"shop\"=>\"hairdresser\"" }, "geometry": { "type": "Point", "coordinates": [ -1.6633405, 53.7965556 ] } },
	{ "type": "Feature", "properties": { "osm_id": "3813294644", "name": "City Smart", "other_tags": "\"female\"=>\"no\",\"male\"=>\"yes\",\"phone\"=>\"+44 113 274 3366\",\"shop\"=>\"hairdresser\"" }, "geometry": { "type": "Point", "coordinates": [ -1.5664753, 53.8278449 ] } },
	{ "type": "Feature", "properties": { "osm_id": "3832991733", "name": "La Boutique", "other_tags": "\"shop\"=>\"hairdresser\",\"telephone\"=>\"01132842607\"" }, "geometry": { "type": "Point", "coordinates": [ -1.622798, 53.8850599 ] } },
	{ "type": "Feature", "properties": { "osm_id": "3887784698", "name": "Stacey Wright", "other_tags": "\"addr:city\"=>\"Leeds\",\"addr:housenumber\"=>\"94\",\"addr:postcode\"=>\"LS18 4AP\",\"addr:street\"=>\"Town Street\",\"addr:suburb\"=>\"Horsforth\",\"phone\"=>\"+44 113 258 9186\",\"shop\"=>\"hairdresser\",\"website\"=>\"https:\/\/www.facebook.com\/Stacey-Wright-Hair-by-Design-horsforth-town-street-115230598576226\/\"" }, "geometry": { "type": "Point", "coordinates": [ -1.6384627, 53.839284 ] } },
	{ "type": "Feature", "properties": { "osm_id": "3887830123", "name": "Auriole Hair Salon", "other_tags": "\"addr:city\"=>\"Leeds\",\"addr:housenumber\"=>\"85D\",\"addr:postcode\"=>\"LS18 5BP\",\"addr:street\"=>\"Town Street\",\"addr:suburb\"=>\"Horsforth\",\"opening_hours\"=>\"Tu-Fr 09:30-18:00; Sa 08:00-16:00; Su-Mo Closed\",\"phone\"=>\"+44 113 259 0912\",\"shop\"=>\"hairdresser\",\"website\"=>\"http:\/\/www.auriolehair.co.uk\/\"" }, "geometry": { "type": "Point", "coordinates": [ -1.6393935, 53.8389018 ] } },
	{ "type": "Feature", "properties": { "osm_id": "3887830144", "name": "Squire", "other_tags": "\"addr:city\"=>\"Leeds\",\"addr:housenumber\"=>\"91\",\"addr:postcode\"=>\"LS18 5BP\",\"addr:street\"=>\"Town Street\",\"addr:suburb\"=>\"Horsforth\",\"phone\"=>\"+44 113 259 0605\",\"shop\"=>\"hairdresser\"" }, "geometry": { "type": "Point", "coordinates": [ -1.6389405, 53.8391902 ] } },
	{ "type": "Feature", "properties": { "osm_id": "3887830146", "name": "Esquire", "other_tags": "\"addr:city\"=>\"Leeds\",\"addr:housenumber\"=>\"95\",\"addr:postcode\"=>\"LS18 5BP\",\"addr:street\"=>\"Town Street\",\"addr:suburb\"=>\"Horsforth\",\"phone\"=>\"+44 113 281 9043\",\"shop\"=>\"hairdresser\"" }, "geometry": { "type": "Point", "coordinates": [ -1.6388078, 53.8392643 ] } },
	{ "type": "Feature", "properties": { "osm_id": "3892020073", "name": "R & A Fuller Hair World", "other_tags": "\"addr:city\"=>\"Leeds\",\"addr:housenumber\"=>\"111\",\"addr:postcode\"=>\"LS18 5BL\",\"addr:street\"=>\"Town Street\",\"addr:suburb\"=>\"Horsforth\",\"phone\"=>\"+44 113 281 8141\",\"shop\"=>\"hairdresser\"" }, "geometry": { "type": "Point", "coordinates": [ -1.6375507, 53.8400077 ] } },
	{ "type": "Feature", "properties": { "osm_id": "3898525377", "name": "Mr Jay's Barbershop", "other_tags": "\"addr:city\"=>\"Leeds\",\"addr:housenumber\"=>\"11\",\"addr:postcode\"=>\"LS18 5PA\",\"addr:street\"=>\"Station Road\",\"addr:suburb\"=>\"Horsforth\",\"opening_hours\"=>\"Tu-Fr 09:00-17:30; Sa 09:00-15:30; Su-Mo Closed\",\"phone\"=>\"+44 7717 368511\",\"shop\"=>\"hairdresser\"" }, "geometry": { "type": "Point", "coordinates": [ -1.6334172, 53.8466474 ] } },
	{ "type": "Feature", "properties": { "osm_id": "3898601892", "name": "Platform 1", "other_tags": "\"addr:city\"=>\"Horsforth\",\"addr:housenumber\"=>\"29\",\"addr:postcode\"=>\"LS18 5PA\",\"addr:street\"=>\"Station Road\",\"phone\"=>\"+44 113 258 4453\",\"shop\"=>\"hairdresser\"" }, "geometry": { "type": "Point", "coordinates": [ -1.631825, 53.8469724 ] } },
	{ "type": "Feature", "properties": { "osm_id": "3900180356", "name": "Anthony James", "other_tags": "\"shop\"=>\"hairdresser\",\"addr:city\"=>\"Horsforth\",\"addr:street\"=>\"New Road Side\",\"addr:postcode\"=>\"LS18 4DR\",\"opening_hours\"=>\"Tu-Fr 09:30-18:00; Sa 08:30-17:00; Su Closed\",\"addr:housenumber\"=>\"255\"" }, "geometry": { "type": "Point", "coordinates": [ -1.6480122, 53.8333059 ] } },
	{ "type": "Feature", "properties": { "osm_id": "3902978494", "name": "Jefferson Hair & Beauty", "other_tags": "\"addr:city\"=>\"Horsforth\",\"addr:housenumber\"=>\"147\",\"addr:postcode\"=>\"LS18 4QD\",\"addr:street\"=>\"New Road Side\",\"opening_hours\"=>\"Tu,We,Fr 09:00-18:00; Th 09:00-19:00; Sa 09:00-17:00; Su-Mo Closed\",\"phone\"=>\"+44 113 259 1531\",\"shop\"=>\"hairdresser\",\"website\"=>\"http:\/\/www.jeffersonhairdressing.co.uk\/\"" }, "geometry": { "type": "Point", "coordinates": [ -1.6441927, 53.8321074 ] } },
	{ "type": "Feature", "properties": { "osm_id": "3902978505", "name": "Vie Hair & Beauty", "other_tags": "\"addr:city\"=>\"Horsforth\",\"addr:housenumber\"=>\"129\",\"addr:postcode\"=>\"LS18 4QD\",\"addr:street\"=>\"New Road Side\",\"phone\"=>\"+44 113 258 6420\",\"shop\"=>\"hairdresser\"" }, "geometry": { "type": "Point", "coordinates": [ -1.6434823, 53.8320658 ] } },
	{ "type": "Feature", "properties": { "osm_id": "3904761988", "name": "Bev @ Michael Laurence", "other_tags": "\"addr:city\"=>\"Horsforth\",\"addr:housenumber\"=>\"95\",\"addr:postcode\"=>\"LS18 4QD\",\"addr:street\"=>\"New Road Side\",\"phone\"=>\"+44 113 258 3365\",\"shop\"=>\"hairdresser\"" }, "geometry": { "type": "Point", "coordinates": [ -1.6417326, 53.831991 ] } },
	{ "type": "Feature", "properties": { "osm_id": "3916676792", "name": "John Scott Hairdressing", "other_tags": "\"addr:city\"=>\"Horsforth\",\"addr:housenumber\"=>\"90\",\"addr:postcode\"=>\"LS18 4QB\",\"addr:street\"=>\"New Road Side\",\"phone\"=>\"+44 113 2584732\",\"shop\"=>\"hairdresser\"" }, "geometry": { "type": "Point", "coordinates": [ -1.6410439, 53.8321932 ] } },
	{ "type": "Feature", "properties": { "osm_id": "3916676794", "name": "Top Mens Barbers", "other_tags": "\"shop\"=>\"hairdresser\"" }, "geometry": { "type": "Point", "coordinates": [ -1.6408929, 53.8322735 ] } },
	{ "type": "Feature", "properties": { "osm_id": "3942727564", "name": "Solo Hair Team", "other_tags": "\"shop\"=>\"hairdresser\"" }, "geometry": { "type": "Point", "coordinates": [ -1.6948573, 53.9062519 ] } },
	{ "type": "Feature", "properties": { "osm_id": "4009429010", "name": "Head Office Salon", "other_tags": "\"addr:city\"=>\"Leeds\",\"addr:housenumber\"=>\"125\",\"addr:postcode\"=>\"LS15 7PB\",\"addr:street\"=>\"Cross Gates Road\",\"shop\"=>\"hairdresser\",\"website\"=>\"https:\/\/headofficesalons.co.uk\/\"" }, "geometry": { "type": "Point", "coordinates": [ -1.4547218, 53.8085774 ] } },
	{ "type": "Feature", "properties": { "osm_id": "4131484806", "name": "Yazz", "other_tags": "\"shop\"=>\"hairdresser\"" }, "geometry": { "type": "Point", "coordinates": [ -1.6870987, 53.8557515 ] } },
	{ "type": "Feature", "properties": { "osm_id": "4149119852", "name": "Alpha Male", "other_tags": "\"shop\"=>\"hairdresser\"" }, "geometry": { "type": "Point", "coordinates": [ -1.6934601, 53.9043619 ] } },
	{ "type": "Feature", "properties": { "osm_id": "4202206074", "name": "Technicolour", "other_tags": "\"shop\"=>\"hairdresser\"" }, "geometry": { "type": "Point", "coordinates": [ -1.388558, 53.7924619 ] } },
	{ "type": "Feature", "properties": { "osm_id": "4211277961", "name": "Follicle", "other_tags": "\"shop\"=>\"hairdresser\"" }, "geometry": { "type": "Point", "coordinates": [ -1.6682005, 53.7928076 ] } },
	{ "type": "Feature", "properties": { "osm_id": "4346027282", "name": "The Agyeboats Barbers", "other_tags": "\"shop\"=>\"hairdresser\",\"addr:city\"=>\"Leeds\",\"addr:unit\"=>\"4\",\"addr:street\"=>\"Byron Street\",\"addr:postcode\"=>\"LS2 7QJ\",\"addr:housenumber\"=>\"45\"" }, "geometry": { "type": "Point", "coordinates": [ -1.5336965, 53.8024661 ] } },
	{ "type": "Feature", "properties": { "osm_id": "4362482325", "name": "The Barbers Leeds", "other_tags": "\"addr:city\"=>\"Leeds\",\"addr:housenumber\"=>\"76\",\"addr:postcode\"=>\"LS2 7DJ\",\"addr:street\"=>\"Kirkgate\",\"phone\"=>\"+44 113 245 7526\",\"shop\"=>\"hairdresser\",\"website\"=>\"www.thebarbersleeds.co.uk\"" }, "geometry": { "type": "Point", "coordinates": [ -1.5374409, 53.7955722 ] } },
	{ "type": "Feature", "properties": { "osm_id": "4362485981", "name": "The Salon Leeds", "other_tags": "\"addr:city\"=>\"Leeds\",\"addr:street\"=>\"Wharf Street\",\"shop\"=>\"hairdresser\"" }, "geometry": { "type": "Point", "coordinates": [ -1.5375724, 53.7955492 ] } },
	{ "type": "Feature", "properties": { "osm_id": "4384356300", "name": "Sue's", "other_tags": "\"shop\"=>\"hairdresser\",\"name:en\"=>\"Sue's\"" }, "geometry": { "type": "Point", "coordinates": [ -1.5888629, 53.7613191 ] } },
	{ "type": "Feature", "properties": { "osm_id": "4392669292", "name": "Just Men", "other_tags": "\"shop\"=>\"hairdresser\"" }, "geometry": { "type": "Point", "coordinates": [ -1.5990995, 53.7431117 ] } },
	{ "type": "Feature", "properties": { "osm_id": "4471283674", "name": "Supercuts", "other_tags": "\"brand\"=>\"Supercuts\",\"brand:wikidata\"=>\"Q7643239\",\"brand:wikipedia\"=>\"en:Supercuts\",\"shop\"=>\"hairdresser\",\"wheelchair\"=>\"yes\"" }, "geometry": { "type": "Point", "coordinates": [ -1.4506673, 53.8060913 ] } },
	{ "type": "Feature", "properties": { "osm_id": "4488841940", "name": "Piranha Hair Studio", "other_tags": "\"addr:city\"=>\"Leeds\",\"addr:housenumber\"=>\"60\",\"addr:postcode\"=>\"LS2 7PN\",\"addr:street\"=>\"North Street\",\"shop\"=>\"hairdresser\"" }, "geometry": { "type": "Point", "coordinates": [ -1.5382629, 53.8014405 ] } },
	{ "type": "Feature", "properties": { "osm_id": "4488841941", "name": "Tint", "other_tags": "\"addr:city\"=>\"Leeds\",\"addr:housenumber\"=>\"70\",\"addr:postcode\"=>\"LS2 7PN\",\"addr:street\"=>\"North Street\",\"shop\"=>\"hairdresser\"" }, "geometry": { "type": "Point", "coordinates": [ -1.5380296, 53.8015989 ] } },
	{ "type": "Feature", "properties": { "osm_id": "4583122235", "name": "Jans Hairdressing", "other_tags": "\"addr:city\"=>\"Leeds\",\"addr:housenumber\"=>\"28\",\"addr:postcode\"=>\"LS26 0RD\",\"addr:street\"=>\"Manor Road\",\"addr:suburb\"=>\"Rothwell\",\"shop\"=>\"hairdresser\"" }, "geometry": { "type": "Point", "coordinates": [ -1.4864208, 53.7527457 ] } },
	{ "type": "Feature", "properties": { "osm_id": "4602768927", "name": "Rodley Barbers", "other_tags": "\"shop\"=>\"hairdresser\"" }, "geometry": { "type": "Point", "coordinates": [ -1.6627807, 53.823108 ] } }
]
}
