{
"type": "FeatureCollection",
"crs": { "type": "name", "properties": { "name": "urn:ogc:def:crs:OGC:1.3:CRS84" } },
"features": [
	{ "type": "Feature", "properties": { "osm_id": "330089354", "name": "Cash Converters", "other_tags": "\"shop\"=>\"pawnbroker\"" }, "geometry": { "type": "Point", "coordinates": [ -1.5888196, 53.7974026 ] } },
	{ "type": "Feature", "properties": { "osm_id": "2091013188", "name": "Herbert Brown", "other_tags": "\"shop\"=>\"pawnbroker\"" }, "geometry": { "type": "Point", "coordinates": [ -1.5405257, 53.7971311 ] } },
	{ "type": "Feature", "properties": { "osm_id": "2125610514", "name": "H & T Pawnbrokers", "other_tags": "\"shop\"=>\"pawnbroker\"" }, "geometry": { "type": "Point", "coordinates": [ -1.5407558, 53.7966542 ] } },
	{ "type": "Feature", "properties": { "osm_id": "2128107740", "name": "Herbert Brown", "other_tags": "\"shop\"=>\"pawnbroker\"" }, "geometry": { "type": "Point", "coordinates": [ -1.5414082, 53.7989065 ] } },
	{ "type": "Feature", "properties": { "osm_id": "3194894611", "name": "Cash Converters", "other_tags": "\"shop\"=>\"pawnbroker\"" }, "geometry": { "type": "Point", "coordinates": [ -1.5261661, 53.8020197 ] } },
	{ "type": "Feature", "properties": { "osm_id": "4489200794", "name": "Cash Generator (Cheque Centre)", "other_tags": "\"shop\"=>\"pawnbroker\"" }, "geometry": { "type": "Point", "coordinates": [ -1.4504103, 53.8067031 ] } },
	{ "type": "Feature", "properties": { "osm_id": "5407217971", "name": "Cash Convertors", "other_tags": "\"shop\"=>\"pawnbroker\"" }, "geometry": { "type": "Point", "coordinates": [ -1.5406045, 53.796993 ] } },
	{ "type": "Feature", "properties": { "osm_id": "5527199859", "name": "Cash Planet", "other_tags": "\"shop\"=>\"pawnbroker\"" }, "geometry": { "type": "Point", "coordinates": [ -1.5832533, 53.806687 ] } }
]
}
