{
"type": "FeatureCollection",
"crs": { "type": "name", "properties": { "name": "urn:ogc:def:crs:OGC:1.3:CRS84" } },
"features": [
	{ "type": "Feature", "properties": { "osm_id": "330318327", "name": "Durtnell Veterinary Centre", "amenity": "veterinary" }, "geometry": { "type": "Point", "coordinates": [ -1.5937312, 53.7938066 ] } },
	{ "type": "Feature", "properties": { "osm_id": "444622854", "name": "Companion Care Veterinary Practice", "amenity": "veterinary" }, "geometry": { "type": "Point", "coordinates": [ -1.6620616, 53.795719 ] } },
	{ "type": "Feature", "properties": { "osm_id": "1646062176", "name": "Aire Veterinary Centre", "amenity": "veterinary", "other_tags": "\"addr:street\"=>\"Kirkstall Lane\",\"addr:postcode\"=>\"LS6 3EJ\",\"contact:website\"=>\"http:\/\/www.aireveterinarycentre.co.uk\/\",\"addr:housenumber\"=>\"177\"" }, "geometry": { "type": "Point", "coordinates": [ -1.5861235, 53.8178101 ] } },
	{ "type": "Feature", "properties": { "osm_id": "2408752470", "name": "Yorkshire Vets", "amenity": "veterinary" }, "geometry": { "type": "Point", "coordinates": [ -1.5672846, 53.8292271 ] } },
	{ "type": "Feature", "properties": { "osm_id": "3191671092", "name": "White Cross Vets", "amenity": "veterinary" }, "geometry": { "type": "Point", "coordinates": [ -1.7256509, 53.8775825 ] } },
	{ "type": "Feature", "properties": { "osm_id": "3898525383", "name": "Yorkshire Vets", "amenity": "veterinary", "other_tags": "\"phone\"=>\"+44 113 259 1196\",\"website\"=>\"https:\/\/www.yorkshirevets.co.uk\/surgeries\/horsforth\/\",\"addr:city\"=>\"Leeds\",\"addr:street\"=>\"Station Road\",\"addr:suburb\"=>\"Horsforth\",\"addr:postcode\"=>\"LS18 5PA\",\"opening_hours\"=>\"Mo-Fr 08:30-10:00, 14:00-18:00; Sa 08:30-11:00; Su Closed\",\"addr:housenumber\"=>\"1\"" }, "geometry": { "type": "Point", "coordinates": [ -1.6338384, 53.8465833 ] } },
	{ "type": "Feature", "properties": { "osm_id": "3916647730", "name": "J S Baxter", "amenity": "veterinary", "other_tags": "\"phone\"=>\"+44 113 258 3215\",\"addr:city\"=>\"Horsforth\",\"addr:street\"=>\"Rose Avenue\",\"addr:postcode\"=>\"LS18 4QE\",\"addr:housenumber\"=>\"2\"" }, "geometry": { "type": "Point", "coordinates": [ -1.6438663, 53.8322925 ] } },
	{ "type": "Feature", "properties": { "osm_id": "4035680656", "name": "Tweed House Veterinary Surgery", "amenity": "veterinary" }, "geometry": { "type": "Point", "coordinates": [ -1.6843549, 53.8647276 ] } },
	{ "type": "Feature", "properties": { "osm_id": "4397050320", "name": "Parkhill Veterinary Surgery", "amenity": "veterinary" }, "geometry": { "type": "Point", "coordinates": [ -1.3746015, 53.9245454 ] } },
	{ "type": "Feature", "properties": { "osm_id": "4846648936", "name": "Abbey House Veterinary Hospital", "amenity": "veterinary" }, "geometry": { "type": "Point", "coordinates": [ -1.5973762, 53.7438112 ] } },
	{ "type": "Feature", "properties": { "osm_id": "5248450314", "name": "Chantry Vets", "amenity": "veterinary", "other_tags": "\"email\"=>\"reception@chantryvets.co.uk\",\"phone\"=>\"+44 1132 717799\",\"website\"=>\"https:\/\/www.chantryvets.co.uk\/\",\"addr:city\"=>\"Leeds\",\"addr:street\"=>\"Middleton Park Road\",\"addr:postcode\"=>\"LS10 3ST\",\"addr:housenumber\"=>\"22\"" }, "geometry": { "type": "Point", "coordinates": [ -1.5409414, 53.7488578 ] } },
	{ "type": "Feature", "properties": { "osm_id": "7141864964", "name": "Calder Vets", "amenity": "veterinary" }, "geometry": { "type": "Point", "coordinates": [ -1.4706667, 53.7960431 ] } },
	{ "type": "Feature", "properties": { "osm_id": "7574984573", "name": "Holly House Vets", "amenity": "veterinary" }, "geometry": { "type": "Point", "coordinates": [ -1.550368, 53.8452138 ] } },
	{ "type": "Feature", "properties": { "osm_id": "7619938224", "name": "Yorkshire Vets", "amenity": "veterinary" }, "geometry": { "type": "Point", "coordinates": [ -1.5255865, 53.8503975 ] } }
]
}
