{
"type": "FeatureCollection",
"crs": { "type": "name", "properties": { "name": "urn:ogc:def:crs:OGC:1.3:CRS84" } },
"features": [
	{ "type": "Feature", "properties": { "osm_id": "333467298", "name": "The Body Shop", "other_tags": "\"addr:city\"=>\"Leeds\",\"addr:housenumber\"=>\"64\",\"addr:postcode\"=>\"LS1 6LH\",\"addr:street\"=>\"Briggate\",\"shop\"=>\"cosmetics\"" }, "geometry": { "type": "Point", "coordinates": [ -1.5424439, 53.7978903 ] } },
	{ "type": "Feature", "properties": { "osm_id": "2134260274", "name": "CC Hair and Beauty", "other_tags": "\"shop\"=>\"cosmetics\"" }, "geometry": { "type": "Point", "coordinates": [ -1.5398731, 53.7967957 ] } },
	{ "type": "Feature", "properties": { "osm_id": "4489200798", "name": "Scentiments", "other_tags": "\"shop\"=>\"cosmetics\"" }, "geometry": { "type": "Point", "coordinates": [ -1.4504143, 53.8064394 ] } },
	{ "type": "Feature", "properties": { "osm_id": "5648164603", "name": "Bodycare", "other_tags": "\"addr:city\"=>\"Leeds\",\"addr:housename\"=>\"St Johns Centre\",\"addr:housenumber\"=>\"110-118\",\"addr:postcode\"=>\"LS2 8LQ\",\"addr:street\"=>\"Albion Street\",\"level\"=>\"0\",\"shop\"=>\"cosmetics\"" }, "geometry": { "type": "Point", "coordinates": [ -1.5437581, 53.8002445 ] } },
	{ "type": "Feature", "properties": { "osm_id": "5941346421", "name": "Space NK", "other_tags": "\"addr:city\"=>\"Leeds\",\"addr:housenumber\"=>\"16-18\",\"addr:postcode\"=>\"LS1 6BA\",\"addr:street\"=>\"Queen Victoria Street\",\"shop\"=>\"cosmetics\"" }, "geometry": { "type": "Point", "coordinates": [ -1.5413075, 53.7982583 ] } },
	{ "type": "Feature", "properties": { "osm_id": "5981573967", "name": "Maya's Hair & Cosmetics", "other_tags": "\"shop\"=>\"cosmetics\"" }, "geometry": { "type": "Point", "coordinates": [ -1.5393339, 53.7974424 ] } }
]
}
