{
"type": "FeatureCollection",
"crs": { "type": "name", "properties": { "name": "urn:ogc:def:crs:OGC:1.3:CRS84" } },
"features": [
	{ "type": "Feature", "properties": { "osm_id": "313182994", "name": "Downtown Electricals", "other_tags": "\"shop\"=>\"electronics\",\"old_name\"=>\"The Rose & Crown\"" }, "geometry": { "type": "Point", "coordinates": [ -1.584491, 53.798901 ] } },
	{ "type": "Feature", "properties": { "osm_id": "313246929", "name": "SS Electrical Superstore", "other_tags": "\"shop\"=>\"electronics\"" }, "geometry": { "type": "Point", "coordinates": [ -1.5893778, 53.7981476 ] } },
	{ "type": "Feature", "properties": { "osm_id": "313246932", "name": "Electrocare", "other_tags": "\"shop\"=>\"electronics\"" }, "geometry": { "type": "Point", "coordinates": [ -1.5902898, 53.7987791 ] } },
	{ "type": "Feature", "properties": { "osm_id": "333799024", "name": "Samsung", "other_tags": "\"shop\"=>\"electronics\",\"brand\"=>\"Samsung\",\"addr:city\"=>\"Leeds\",\"addr:street\"=>\"Briggate\",\"addr:postcode\"=>\"LS1 6NP\",\"brand:wikidata\"=>\"Q20718\",\"brand:wikipedia\"=>\"en:Samsung Electronics\",\"addr:housenumber\"=>\"89-91\"" }, "geometry": { "type": "Point", "coordinates": [ -1.541806, 53.7989164 ] } },
	{ "type": "Feature", "properties": { "osm_id": "333799052", "name": "Currys PC World", "other_tags": "\"shop\"=>\"electronics\",\"brand\"=>\"Currys PC World\",\"brand:wikidata\"=>\"Q3246464\",\"brand:wikipedia\"=>\"en:Currys\"" }, "geometry": { "type": "Point", "coordinates": [ -1.5447208, 53.7992369 ] } },
	{ "type": "Feature", "properties": { "osm_id": "367872373", "name": "Argos", "other_tags": "\"shop\"=>\"electronics\",\"website\"=>\"https:\/\/www.argos.co.uk\/\",\"addr:city\"=>\"Otley\",\"addr:country\"=>\"GB\"" }, "geometry": { "type": "Point", "coordinates": [ -1.6922214, 53.9027496 ] } },
	{ "type": "Feature", "properties": { "osm_id": "2129684012", "name": "CeX", "other_tags": "\"shop\"=>\"electronics\",\"brand\"=>\"CeX\",\"phone\"=>\"+44 845 345 1664\",\"addr:street\"=>\"The Headrow\",\"brand:wikidata\"=>\"Q5055676\",\"brand:wikipedia\"=>\"en:CeX (company)\",\"internet_access\"=>\"wlan\",\"payment:bitcoin\"=>\"yes\",\"addr:housenumber\"=>\"28\"" }, "geometry": { "type": "Point", "coordinates": [ -1.5443754, 53.7995573 ] } },
	{ "type": "Feature", "properties": { "osm_id": "2138696603", "name": "Sony Centre", "other_tags": "\"shop\"=>\"electronics\",\"brand\"=>\"Sony Centre\",\"brand:wikidata\"=>\"Q3437496\",\"brand:wikipedia\"=>\"en:Sony Centre\"" }, "geometry": { "type": "Point", "coordinates": [ -1.5399939, 53.7993646 ] } },
	{ "type": "Feature", "properties": { "osm_id": "2157985619", "name": "Saville Audio Visual", "other_tags": "\"shop\"=>\"electronics\",\"industrial\"=>\"warehouse\",\"addr:street\"=>\"Scala Court\",\"addr:postcode\"=>\"LS10 1JD\"" }, "geometry": { "type": "Point", "coordinates": [ -1.5381959, 53.7877954 ] } },
	{ "type": "Feature", "properties": { "osm_id": "2212678970", "name": "Apple Store", "other_tags": "\"shop\"=>\"electronics\",\"brand\"=>\"Apple Store\",\"short_name\"=>\"Apple\",\"brand:wikidata\"=>\"Q421253\",\"brand:wikipedia\"=>\"en:Apple Store\"" }, "geometry": { "type": "Point", "coordinates": [ -1.5438952, 53.7966351 ] } },
	{ "type": "Feature", "properties": { "osm_id": "2212678975", "name": "iPatch", "other_tags": "\"shop\"=>\"electronics\"" }, "geometry": { "type": "Point", "coordinates": [ -1.5461483, 53.7965336 ] } },
	{ "type": "Feature", "properties": { "osm_id": "2400790056", "name": "Audio Republic", "other_tags": "\"addr:city\"=>\"Leeds\",\"addr:housenumber\"=>\"78\",\"addr:postcode\"=>\"LS6 4BA\",\"addr:street\"=>\"Otley Road\",\"shop\"=>\"electronics\"" }, "geometry": { "type": "Point", "coordinates": [ -1.5821077, 53.8269911 ] } },
	{ "type": "Feature", "properties": { "osm_id": "2408752506", "name": "Taybell", "other_tags": "\"shop\"=>\"electronics\"" }, "geometry": { "type": "Point", "coordinates": [ -1.5662901, 53.8285969 ] } },
	{ "type": "Feature", "properties": { "osm_id": "3222614870", "name": "Apple Corner", "other_tags": "\"shop\"=>\"electronics\"" }, "geometry": { "type": "Point", "coordinates": [ -1.5610823, 53.8145088 ] } },
	{ "type": "Feature", "properties": { "osm_id": "3801400064", "name": "Repair Lab", "other_tags": "\"shop\"=>\"electronics\",\"craft\"=>\"electronics_repair\"" }, "geometry": { "type": "Point", "coordinates": [ -1.6022609, 53.8154878 ] } },
	{ "type": "Feature", "properties": { "osm_id": "4475968862", "name": "EHS", "other_tags": "\"shop\"=>\"electronics\"" }, "geometry": { "type": "Point", "coordinates": [ -1.4490809, 53.8071494 ] } },
	{ "type": "Feature", "properties": { "osm_id": "4632341179", "name": "Bright Ideas", "other_tags": "\"shop\"=>\"electronics\"" }, "geometry": { "type": "Point", "coordinates": [ -1.3845435, 53.9305963 ] } },
	{ "type": "Feature", "properties": { "osm_id": "5084759494", "name": "CeX", "other_tags": "\"shop\"=>\"electronics\",\"brand\"=>\"CeX\",\"brand:wikidata\"=>\"Q5055676\",\"brand:wikipedia\"=>\"en:CeX (company)\"" }, "geometry": { "type": "Point", "coordinates": [ -1.4518675, 53.8063557 ] } },
	{ "type": "Feature", "properties": { "osm_id": "5306192754", "name": "Currys PC World", "other_tags": "\"shop\"=>\"electronics\",\"brand\"=>\"Currys PC World\",\"brand:wikidata\"=>\"Q3246464\",\"brand:wikipedia\"=>\"en:Currys\"" }, "geometry": { "type": "Point", "coordinates": [ -1.7024164, 53.8688968 ] } },
	{ "type": "Feature", "properties": { "osm_id": "5648164585", "name": "Rocking Gadgets", "other_tags": "\"shop\"=>\"electronics\",\"level\"=>\"1\",\"addr:city\"=>\"Leeds\",\"addr:street\"=>\"Albion Street\",\"addr:postcode\"=>\"LS2 8LQ\",\"addr:housename\"=>\"St Johns Centre\",\"addr:housenumber\"=>\"110-118\"" }, "geometry": { "type": "Point", "coordinates": [ -1.5437856, 53.8004742 ] } },
	{ "type": "Feature", "properties": { "osm_id": "5648164602", "name": "Trade Me In", "other_tags": "\"shop\"=>\"electronics\",\"level\"=>\"0\",\"website\"=>\"https:\/\/www.trademein.co.uk\/\",\"addr:city\"=>\"Leeds\",\"addr:street\"=>\"Albion Street\",\"addr:postcode\"=>\"LS2 8LQ\",\"addr:housename\"=>\"St Johns Centre\",\"addr:housenumber\"=>\"110-118\"" }, "geometry": { "type": "Point", "coordinates": [ -1.5437615, 53.8001811 ] } },
	{ "type": "Feature", "properties": { "osm_id": "6052531518", "name": "Sky", "other_tags": "\"shop\"=>\"electronics\",\"level\"=>\"0\"" }, "geometry": { "type": "Point", "coordinates": [ -1.5742984, 53.7593884 ] } },
	{ "type": "Feature", "properties": { "osm_id": "6052531601", "name": "CeX", "other_tags": "\"shop\"=>\"electronics\",\"brand\"=>\"CeX\",\"level\"=>\"0\",\"brand:wikidata\"=>\"Q5055676\",\"brand:wikipedia\"=>\"en:CeX (company)\"" }, "geometry": { "type": "Point", "coordinates": [ -1.5736115, 53.7597795 ] } },
	{ "type": "Feature", "properties": { "osm_id": "6331294924", "name": "Do$h", "other_tags": "\"shop\"=>\"electronics\",\"addr:city\"=>\"Leeds\",\"addr:street\"=>\"South Queen Street\",\"addr:suburb\"=>\"Morley\",\"addr:postcode\"=>\"LS27 9EW\",\"addr:housenumber\"=>\"6\"" }, "geometry": { "type": "Point", "coordinates": [ -1.5994522, 53.7428483 ] } }
]
}
