{
"type": "FeatureCollection",
"crs": { "type": "name", "properties": { "name": "urn:ogc:def:crs:OGC:1.3:CRS84" } },
"features": [
	{ "type": "Feature", "properties": { "osm_id": "268975100", "name": "Airedale DIY", "other_tags": "\"shop\"=>\"doityourself\"" }, "geometry": { "type": "Point", "coordinates": [ -1.6712623, 53.8780201 ] } },
	{ "type": "Feature", "properties": { "osm_id": "319428954", "name": "Raj's DIY & News", "other_tags": "\"addr:city\"=>\"Leeds\",\"addr:housenumber\"=>\"51\",\"addr:postcode\"=>\"LS6 1HR\",\"addr:street\"=>\"Brudenell Grove\",\"addr:suburb\"=>\"Headingley\",\"fhrs:id\"=>\"466916\",\"shop\"=>\"doityourself\"" }, "geometry": { "type": "Point", "coordinates": [ -1.5678167, 53.8116432 ] } },
	{ "type": "Feature", "properties": { "osm_id": "319428959", "name": "KH DIY Centre", "other_tags": "\"shop\"=>\"doityourself\"" }, "geometry": { "type": "Point", "coordinates": [ -1.5676621, 53.8120069 ] } },
	{ "type": "Feature", "properties": { "osm_id": "319429906", "name": "Marcher Roofing DIY & Hardwarre", "other_tags": "\"shop\"=>\"doityourself\"" }, "geometry": { "type": "Point", "coordinates": [ -1.5677026, 53.8127911 ] } },
	{ "type": "Feature", "properties": { "osm_id": "498472157", "name": "Tile Depot", "other_tags": "\"shop\"=>\"doityourself\"" }, "geometry": { "type": "Point", "coordinates": [ -1.578795, 53.772244 ] } },
	{ "type": "Feature", "properties": { "osm_id": "954908961", "name": "Magnet Trade", "other_tags": "\"shop\"=>\"doityourself\"" }, "geometry": { "type": "Point", "coordinates": [ -1.6230935, 53.7444815 ] } },
	{ "type": "Feature", "properties": { "osm_id": "1111901557", "other_tags": "\"shop\"=>\"doityourself\"" }, "geometry": { "type": "Point", "coordinates": [ -1.4354527, 53.7958095 ] } },
	{ "type": "Feature", "properties": { "osm_id": "2106070864", "name": "Wilko", "other_tags": "\"addr:city\"=>\"Leeds\",\"addr:housename\"=>\"Arndale Centre\",\"addr:postcode\"=>\"LS6 2UE\",\"addr:street\"=>\"Otley Road\",\"addr:unit\"=>\"22-24\",\"fhrs:id\"=>\"467062\",\"shop\"=>\"doityourself\"" }, "geometry": { "type": "Point", "coordinates": [ -1.5784816, 53.822354 ] } },
	{ "type": "Feature", "properties": { "osm_id": "2472720040", "name": "B&Q", "other_tags": "\"addr:city\"=>\"Leeds\",\"addr:postcode\"=>\"LS14 6\",\"addr:street\"=>\"Killingbeck Drive\",\"brand\"=>\"B&Q\",\"brand:wikidata\"=>\"Q707602\",\"brand:wikipedia\"=>\"en:B&Q\",\"shop\"=>\"doityourself\"" }, "geometry": { "type": "Point", "coordinates": [ -1.4788058, 53.8065937 ] } },
	{ "type": "Feature", "properties": { "osm_id": "3901161757", "name": "J&L Marshall", "other_tags": "\"addr:city\"=>\"Horsforth\",\"addr:housename\"=>\"Victoria Works\",\"addr:postcode\"=>\"LS18 4DR\",\"addr:street\"=>\"New Road Side\",\"opening_hours\"=>\"Mo-Fr 07:00-17:00; Sa 07:30-12:00; Su Closed\",\"phone\"=>\"+44 113 258 3463\",\"shop\"=>\"doityourself\",\"website\"=>\"http:\/\/www.jandlmarshall.com\/\"" }, "geometry": { "type": "Point", "coordinates": [ -1.6449194, 53.832199 ] } },
	{ "type": "Feature", "properties": { "osm_id": "4373244280", "other_tags": "\"shop\"=>\"doityourself\",\"operator\"=>\"Farsley DIY & Pet Supplies\",\"addr:city\"=>\"Farsley\",\"addr:street\"=>\"Town Street\",\"addr:postcode\"=>\"LS28 5HX\",\"addr:housenumber\"=>\"43\"" }, "geometry": { "type": "Point", "coordinates": [ -1.6714386, 53.8126516 ] } },
	{ "type": "Feature", "properties": { "osm_id": "4541774126", "name": "Screwfix", "other_tags": "\"brand\"=>\"Screwfix\",\"brand:wikidata\"=>\"Q7439115\",\"brand:wikipedia\"=>\"en:Screwfix\",\"shop\"=>\"doityourself\"" }, "geometry": { "type": "Point", "coordinates": [ -1.457334, 53.8272225 ] } }
]
}
