{
"type": "FeatureCollection",
"crs": { "type": "name", "properties": { "name": "urn:ogc:def:crs:OGC:1.3:CRS84" } },
"features": [
	{ "type": "Feature", "properties": { "osm_id": "320998140", "name": "CC Hair and Beauty", "other_tags": "\"shop\"=>\"cosmetics\",\"fhrs:id\"=>\"1251318\",\"addr:city\"=>\"Leeds\",\"addr:street\"=>\"New York Street\",\"addr:postcode\"=>\"LS2 7DT\",\"addr:housenumber\"=>\"1-5\"" }, "geometry": { "type": "Point", "coordinates": [ -1.5392695, 53.796631 ] } },
	{ "type": "Feature", "properties": { "osm_id": "333467298", "name": "The Body Shop", "other_tags": "\"shop\"=>\"cosmetics\",\"brand\"=>\"The Body Shop\",\"addr:city\"=>\"Leeds\",\"addr:street\"=>\"Briggate\",\"addr:postcode\"=>\"LS1 6LH\",\"brand:wikidata\"=>\"Q837851\",\"brand:wikipedia\"=>\"en:The Body Shop\",\"addr:housenumber\"=>\"64\"" }, "geometry": { "type": "Point", "coordinates": [ -1.5424439, 53.7978903 ] } },
	{ "type": "Feature", "properties": { "osm_id": "3621975754", "name": "L'Occitane", "other_tags": "\"shop\"=>\"cosmetics\",\"brand\"=>\"L'Occitane\",\"website\"=>\"https:\/\/www.loccitane.com\/\",\"addr:city\"=>\"Leeds\",\"addr:street\"=>\"County Arcade\",\"addr:postcode\"=>\"LS1 6BW\",\"brand:wikidata\"=>\"Q1880676\",\"brand:wikipedia\"=>\"en:L'Occitane en Provence\",\"addr:housenumber\"=>\"1\"" }, "geometry": { "type": "Point", "coordinates": [ -1.541888, 53.7983833 ] } },
	{ "type": "Feature", "properties": { "osm_id": "4237364590", "name": "Lush", "other_tags": "\"shop\"=>\"cosmetics\",\"brand\"=>\"Lush\",\"addr:city\"=>\"Leeds\",\"addr:street\"=>\"Commercial Street\",\"addr:postcode\"=>\"LS1 6AL\",\"brand:wikidata\"=>\"Q1585448\",\"brand:wikipedia\"=>\"en:Lush (company)\",\"addr:housenumber\"=>\"12-13\"" }, "geometry": { "type": "Point", "coordinates": [ -1.5439706, 53.7974965 ] } },
	{ "type": "Feature", "properties": { "osm_id": "5941346421", "name": "Space NK", "other_tags": "\"shop\"=>\"cosmetics\",\"addr:city\"=>\"Leeds\",\"addr:street\"=>\"Queen Victoria Street\",\"addr:postcode\"=>\"LS1 6BA\",\"addr:housenumber\"=>\"16-18\"" }, "geometry": { "type": "Point", "coordinates": [ -1.5413075, 53.7982583 ] } },
	{ "type": "Feature", "properties": { "osm_id": "5981573967", "name": "Maya's Hair & Cosmetics", "other_tags": "\"shop\"=>\"cosmetics\"" }, "geometry": { "type": "Point", "coordinates": [ -1.5393339, 53.7974424 ] } },
	{ "type": "Feature", "properties": { "osm_id": "6022850186", "name": "Sally", "other_tags": "\"shop\"=>\"cosmetics\",\"addr:city\"=>\"Leeds\",\"addr:street\"=>\"Albion Street\",\"addr:postcode\"=>\"LS1 5AA\",\"addr:housenumber\"=>\"77\"" }, "geometry": { "type": "Point", "coordinates": [ -1.5452823, 53.7983467 ] } },
	{ "type": "Feature", "properties": { "osm_id": "6022850275", "name": "The Look", "other_tags": "\"shop\"=>\"cosmetics\"" }, "geometry": { "type": "Point", "coordinates": [ -1.5387518, 53.7972548 ] } },
	{ "type": "Feature", "properties": { "osm_id": "6025306259", "name": "Savers Health And Beauty", "other_tags": "\"shop\"=>\"cosmetics\",\"fhrs:id\"=>\"467315\",\"addr:city\"=>\"Leeds\",\"addr:street\"=>\"Queen Street\",\"addr:suburb\"=>\"Morley\",\"addr:postcode\"=>\"LS27 8DW\"" }, "geometry": { "type": "Point", "coordinates": [ -1.6010883, 53.7454735 ] } },
	{ "type": "Feature", "properties": { "osm_id": "6052531556", "name": "The Body Shop", "other_tags": "\"shop\"=>\"cosmetics\",\"brand\"=>\"The Body Shop\",\"level\"=>\"0\",\"brand:wikidata\"=>\"Q837851\",\"brand:wikipedia\"=>\"en:The Body Shop\"" }, "geometry": { "type": "Point", "coordinates": [ -1.5744209, 53.7576793 ] } },
	{ "type": "Feature", "properties": { "osm_id": "6052531573", "name": "Lush", "other_tags": "\"shop\"=>\"cosmetics\",\"brand\"=>\"Lush\",\"level\"=>\"0\",\"brand:wikidata\"=>\"Q1585448\",\"brand:wikipedia\"=>\"en:Lush (company)\"" }, "geometry": { "type": "Point", "coordinates": [ -1.5739256, 53.7581405 ] } },
	{ "type": "Feature", "properties": { "osm_id": "6436610922", "name": "The Body Shop", "other_tags": "\"addr:city\"=>\"Leeds\",\"addr:housenumber\"=>\"Unit 12a\",\"addr:postcode\"=>\"LS1 6LH\",\"addr:street\"=>\"Leeds City Station\",\"brand\"=>\"The Body Shop\",\"brand:wikidata\"=>\"Q837851\",\"brand:wikipedia\"=>\"en:The Body Shop\",\"layer\"=>\"1\",\"opening_hours\"=>\"Mo-Fr 07:00-19:30; Sa 08:00-19:30; Su 10:30-17:30\",\"operator\"=>\"The Body Shop International Limited\",\"phone\"=>\"+44 113 243 2926\",\"shop\"=>\"cosmetics\"" }, "geometry": { "type": "Point", "coordinates": [ -1.5472845, 53.7948464 ] } },
	{ "type": "Feature", "properties": { "osm_id": null, "centroid": { "latitude": 53.806430, "longitude": -1.450467 }, "osm_way_id": "903122972", "name": "Scentiments", "shop": "cosmetics", "other_tags": "\"addr:city\"=>\"Leeds\",\"addr:housename\"=>\"Crossgates Shopping Centre\",\"addr:housenumber\"=>\"19\",\"addr:postcode\"=>\"LS15 8ET\",\"addr:street\"=>\"Station Road\",\"addr:unit\"=>\"19\",\"indoor\"=>\"room\",\"level\"=>\"0\",\"room\"=>\"retail\"" }, "geometry": { "type": "Polygon", "coordinates": [ [ [ -1.4503647, 53.8064052 ], [ -1.4504226, 53.8064049 ], [ -1.4505684, 53.8064043 ], [ -1.4505674, 53.806455 ], [ -1.450423, 53.8064557 ], [ -1.4503647, 53.8064559 ], [ -1.4503647, 53.8064052 ] ] ] } }
]
}
