{
"type": "FeatureCollection",
"crs": { "type": "name", "properties": { "name": "urn:ogc:def:crs:OGC:1.3:CRS84" } },
"features": [
	{ "type": "Feature", "properties": { "osm_id": "292238532", "name": "The Crop Shop", "other_tags": "\"shop\"=>\"hairdresser\",\"phone\"=>\"+44 113 772 136\",\"addr:housenumber\"=>\"7\"" }, "geometry": { "type": "Point", "coordinates": [ -1.5430904, 53.7770409 ] } },
	{ "type": "Feature", "properties": { "osm_id": "297118271", "name": "Fringes Hair Salon", "other_tags": "\"shop\"=>\"hairdresser\"" }, "geometry": { "type": "Point", "coordinates": [ -1.6492423, 53.8001966 ] } },
	{ "type": "Feature", "properties": { "osm_id": "302737774", "name": "Michael's Hair Fashions", "other_tags": "\"shop\"=>\"hairdresser\",\"addr:city\"=>\"Leeds\",\"addr:street\"=>\"Stanningley Road\",\"addr:postcode\"=>\"LS12 2RF\",\"opening_hours\"=>\"Closed\",\"addr:housenumber\"=>\"147\"" }, "geometry": { "type": "Point", "coordinates": [ -1.6138916, 53.8043203 ] } },
	{ "type": "Feature", "properties": { "osm_id": "302737810", "name": "Hands On Beauty", "other_tags": "\"shop\"=>\"hairdresser\"" }, "geometry": { "type": "Point", "coordinates": [ -1.6102209, 53.8047023 ] } },
	{ "type": "Feature", "properties": { "osm_id": "302868964", "name": "Carl & Paul Barber's", "other_tags": "\"shop\"=>\"hairdresser\"" }, "geometry": { "type": "Point", "coordinates": [ -1.6269417, 53.8057507 ] } },
	{ "type": "Feature", "properties": { "osm_id": "302868965", "name": "Beauty Box", "other_tags": "\"shop\"=>\"hairdresser\"" }, "geometry": { "type": "Point", "coordinates": [ -1.626859, 53.8057492 ] } },
	{ "type": "Feature", "properties": { "osm_id": "306328528", "name": "L Sixty-Five", "other_tags": "\"shop\"=>\"hairdresser\"" }, "geometry": { "type": "Point", "coordinates": [ -1.6088212, 53.7990734 ] } },
	{ "type": "Feature", "properties": { "osm_id": "313246917", "name": "Grades Barber", "other_tags": "\"shop\"=>\"hairdresser\"" }, "geometry": { "type": "Point", "coordinates": [ -1.5876678, 53.7973771 ] } },
	{ "type": "Feature", "properties": { "osm_id": "313246926", "name": "Hair", "other_tags": "\"shop\"=>\"hairdresser\"" }, "geometry": { "type": "Point", "coordinates": [ -1.5875694, 53.7977649 ] } },
	{ "type": "Feature", "properties": { "osm_id": "313246945", "name": "Sloanes Hair Design", "other_tags": "\"shop\"=>\"hairdresser\"" }, "geometry": { "type": "Point", "coordinates": [ -1.6028478, 53.8016519 ] } },
	{ "type": "Feature", "properties": { "osm_id": "319428951", "name": "Fazz's Barber Shop", "other_tags": "\"shop\"=>\"hairdresser\"" }, "geometry": { "type": "Point", "coordinates": [ -1.5678294, 53.8109069 ] } },
	{ "type": "Feature", "properties": { "osm_id": "319428958", "name": "Hussain Barbers", "other_tags": "\"shop\"=>\"hairdresser\"" }, "geometry": { "type": "Point", "coordinates": [ -1.5677153, 53.8118782 ] } },
	{ "type": "Feature", "properties": { "osm_id": "320998068", "name": "Ego", "other_tags": "\"shop\"=>\"hairdresser\"" }, "geometry": { "type": "Point", "coordinates": [ -1.5369688, 53.796211 ] } },
	{ "type": "Feature", "properties": { "osm_id": "330071180", "name": "The Barbers Shop", "other_tags": "\"shop\"=>\"hairdresser\"" }, "geometry": { "type": "Point", "coordinates": [ -1.5911309, 53.7965837 ] } },
	{ "type": "Feature", "properties": { "osm_id": "330089271", "name": "Renato Hair Design", "other_tags": "\"shop\"=>\"hairdresser\"" }, "geometry": { "type": "Point", "coordinates": [ -1.5926947, 53.7966301 ] } },
	{ "type": "Feature", "properties": { "osm_id": "331637215", "name": "Opal Hair & Beauty", "other_tags": "\"shop\"=>\"hairdresser\"" }, "geometry": { "type": "Point", "coordinates": [ -1.5890256, 53.7971597 ] } },
	{ "type": "Feature", "properties": { "osm_id": "331654381", "name": "Kwik Kutz", "other_tags": "\"shop\"=>\"hairdresser\"" }, "geometry": { "type": "Point", "coordinates": [ -1.5982944, 53.7964886 ] } },
	{ "type": "Feature", "properties": { "osm_id": "331654406", "name": "Hair Team", "other_tags": "\"shop\"=>\"hairdresser\"" }, "geometry": { "type": "Point", "coordinates": [ -1.5971802, 53.796843 ] } },
	{ "type": "Feature", "properties": { "osm_id": "331654409", "name": "K's Cuts", "other_tags": "\"shop\"=>\"hairdresser\"" }, "geometry": { "type": "Point", "coordinates": [ -1.6012011, 53.7976797 ] } },
	{ "type": "Feature", "properties": { "osm_id": "332329795", "name": "Funct", "other_tags": "\"shop\"=>\"hairdresser\"" }, "geometry": { "type": "Point", "coordinates": [ -1.5786142, 53.8209745 ] } },
	{ "type": "Feature", "properties": { "osm_id": "332484045", "name": "Spirals", "other_tags": "\"shop\"=>\"hairdresser\",\"addr:city\"=>\"Leeds\",\"addr:street\"=>\"Stainbeck Road\",\"addr:suburb\"=>\"Meanwood\",\"addr:postcode\"=>\"LS7 2PR\",\"addr:housenumber\"=>\"93\"" }, "geometry": { "type": "Point", "coordinates": [ -1.5555962, 53.8310901 ] } },
	{ "type": "Feature", "properties": { "osm_id": "332484046", "name": "RedX Hair & Beauty Studio", "other_tags": "\"shop\"=>\"hairdresser\",\"addr:city\"=>\"Leeds\",\"addr:street\"=>\"Stainbeck Road\",\"addr:suburb\"=>\"Meanwood\",\"addr:postcode\"=>\"LS7 2PR\",\"addr:housenumber\"=>\"101\"" }, "geometry": { "type": "Point", "coordinates": [ -1.5552733, 53.8311632 ] } },
	{ "type": "Feature", "properties": { "osm_id": "333452846", "name": "Boris & Co", "other_tags": "\"shop\"=>\"hairdresser\",\"website\"=>\"https:\/\/www.borisandco.co.uk\/\",\"addr:city\"=>\"Leeds\",\"addr:street\"=>\"Lower Briggate\",\"addr:postcode\"=>\"LS1 6LY\",\"addr:housenumber\"=>\"165\"" }, "geometry": { "type": "Point", "coordinates": [ -1.5423603, 53.7952068 ] } },
	{ "type": "Feature", "properties": { "osm_id": "334884434", "name": "Charles Lewis", "other_tags": "\"shop\"=>\"hairdresser\"" }, "geometry": { "type": "Point", "coordinates": [ -1.5837866, 53.8068525 ] } },
	{ "type": "Feature", "properties": { "osm_id": "340071334", "name": "Trendline", "other_tags": "\"shop\"=>\"hairdresser\"" }, "geometry": { "type": "Point", "coordinates": [ -1.6325048, 53.8140469 ] } },
	{ "type": "Feature", "properties": { "osm_id": "342579639", "name": "Halo Hair", "other_tags": "\"shop\"=>\"hairdresser\",\"addr:city\"=>\"Leeds\",\"addr:street\"=>\"Cherry Tree Walk\"" }, "geometry": { "type": "Point", "coordinates": [ -1.540457, 53.7951648 ] } },
	{ "type": "Feature", "properties": { "osm_id": "342601289", "other_tags": "\"shop\"=>\"hairdresser\"" }, "geometry": { "type": "Point", "coordinates": [ -1.5396851, 53.8004131 ] } },
	{ "type": "Feature", "properties": { "osm_id": "342601307", "name": "Nicholas Jane Hairdressing", "other_tags": "\"shop\"=>\"hairdresser\"" }, "geometry": { "type": "Point", "coordinates": [ -1.5416613, 53.8002125 ] } },
	{ "type": "Feature", "properties": { "osm_id": "343136577", "name": "Flying Scissors", "other_tags": "\"shop\"=>\"hairdresser\"" }, "geometry": { "type": "Point", "coordinates": [ -1.6165613, 53.7960765 ] } },
	{ "type": "Feature", "properties": { "osm_id": "349343400", "name": "studio 47", "other_tags": "\"shop\"=>\"hairdresser\"" }, "geometry": { "type": "Point", "coordinates": [ -1.6323782, 53.8110126 ] } },
	{ "type": "Feature", "properties": { "osm_id": "349352562", "name": "Short-Topz", "other_tags": "\"shop\"=>\"hairdresser\"" }, "geometry": { "type": "Point", "coordinates": [ -1.6361946, 53.8064764 ] } },
	{ "type": "Feature", "properties": { "osm_id": "349352565", "name": "Luxe", "other_tags": "\"shop\"=>\"hairdresser\",\"website\"=>\"https:\/\/www.luxesalon.co.uk\/\",\"old_name\"=>\"paul michael\"" }, "geometry": { "type": "Point", "coordinates": [ -1.6359624, 53.8065069 ] } },
	{ "type": "Feature", "properties": { "osm_id": "352871293", "name": "Architect Hair", "other_tags": "\"shop\"=>\"hairdresser\"" }, "geometry": { "type": "Point", "coordinates": [ -1.5745416, 53.8146231 ] } },
	{ "type": "Feature", "properties": { "osm_id": "353922332", "name": "Mega City One", "other_tags": "\"shop\"=>\"hairdresser\"" }, "geometry": { "type": "Point", "coordinates": [ -1.5520273, 53.8082314 ] } },
	{ "type": "Feature", "properties": { "osm_id": "356074100", "name": "Rhubarb Hair Design", "other_tags": "\"shop\"=>\"hairdresser\",\"addr:city\"=>\"Leeds\",\"addr:street\"=>\"Cross Lane\",\"addr:postcode\"=>\"LS12 5AA\"" }, "geometry": { "type": "Point", "coordinates": [ -1.6194725, 53.7871703 ] } },
	{ "type": "Feature", "properties": { "osm_id": "357751948", "name": "Box", "other_tags": "\"shop\"=>\"hairdresser\"" }, "geometry": { "type": "Point", "coordinates": [ -1.5424704, 53.7945715 ] } },
	{ "type": "Feature", "properties": { "osm_id": "364458778", "name": "Mr Smiths Barbershop", "other_tags": "\"shop\"=>\"hairdresser\",\"addr:street\"=>\"Holmesly Lane\",\"addr:postcode\"=>\"LS26 8SF\",\"addr:housenumber\"=>\"154a\"" }, "geometry": { "type": "Point", "coordinates": [ -1.4646894, 53.7556447 ] } },
	{ "type": "Feature", "properties": { "osm_id": "382692532", "name": "Beechwood Hair Studio", "other_tags": "\"shop\"=>\"hairdresser\"" }, "geometry": { "type": "Point", "coordinates": [ -1.6758514, 53.8055588 ] } },
	{ "type": "Feature", "properties": { "osm_id": "392007372", "name": "Hussain Hairdresser", "other_tags": "\"shop\"=>\"hairdresser\"" }, "geometry": { "type": "Point", "coordinates": [ -1.5494162, 53.7737286 ] } },
	{ "type": "Feature", "properties": { "osm_id": "392047410", "name": "Denise's", "other_tags": "\"shop\"=>\"hairdresser\"" }, "geometry": { "type": "Point", "coordinates": [ -1.5554434, 53.7774645 ] } },
	{ "type": "Feature", "properties": { "osm_id": "405211386", "other_tags": "\"shop\"=>\"hairdresser\"" }, "geometry": { "type": "Point", "coordinates": [ -1.5528388, 53.7763642 ] } },
	{ "type": "Feature", "properties": { "osm_id": "430953147", "name": "Hair Lounge", "other_tags": "\"shop\"=>\"hairdresser\"" }, "geometry": { "type": "Point", "coordinates": [ -1.6009914, 53.7835957 ] } },
	{ "type": "Feature", "properties": { "osm_id": "538870441", "name": "Chevin Barber", "other_tags": "\"shop\"=>\"hairdresser\",\"telephone\"=>\"01943 468846\",\"hairdresser\"=>\"men\"" }, "geometry": { "type": "Point", "coordinates": [ -1.6927884, 53.904489 ] } },
	{ "type": "Feature", "properties": { "osm_id": "886569595", "name": "Trim And Proper", "other_tags": "\"shop\"=>\"hairdresser\"" }, "geometry": { "type": "Point", "coordinates": [ -1.53854, 53.830504 ] } },
	{ "type": "Feature", "properties": { "osm_id": "1221670544", "name": "Strands Hair Salon", "other_tags": "\"shop\"=>\"hairdresser\",\"operator\"=>\"Cath Bishop\",\"addr:city\"=>\"Leeds\",\"addr:street\"=>\"Broadgate Lane\",\"addr:suburb\"=>\"Horsforth\",\"addr:postcode\"=>\"LS18 5BS\",\"opening_hours\"=>\"Mo-Sa 09:00-18:00; Su Closed\",\"addr:housenumber\"=>\"203\"" }, "geometry": { "type": "Point", "coordinates": [ -1.6367964, 53.8401062 ] } },
	{ "type": "Feature", "properties": { "osm_id": "1251742960", "name": "Prosenium", "other_tags": "\"shop\"=>\"hairdresser\"" }, "geometry": { "type": "Point", "coordinates": [ -1.6521821, 53.8095903 ] } },
	{ "type": "Feature", "properties": { "osm_id": "1406386709", "name": "Lez Robinz", "other_tags": "\"shop\"=>\"hairdresser\"" }, "geometry": { "type": "Point", "coordinates": [ -1.5856825, 53.8074839 ] } },
	{ "type": "Feature", "properties": { "osm_id": "1859541299", "name": "Pure Indulgence", "other_tags": "\"shop\"=>\"hairdresser\",\"old_name\"=>\"E.K.One Hairdressing\",\"addr:housename\"=>\"Laurel Bank\"" }, "geometry": { "type": "Point", "coordinates": [ -1.4512443, 53.8931615 ] } },
	{ "type": "Feature", "properties": { "osm_id": "2072972461", "name": "Martin's", "other_tags": "\"shop\"=>\"hairdresser\"" }, "geometry": { "type": "Point", "coordinates": [ -1.5619478, 53.7641991 ] } },
	{ "type": "Feature", "properties": { "osm_id": "2072972464", "name": "Profile Hair Studio", "other_tags": "\"shop\"=>\"hairdresser\"" }, "geometry": { "type": "Point", "coordinates": [ -1.5617216, 53.7646906 ] } },
	{ "type": "Feature", "properties": { "osm_id": "2073006178", "name": "Razers", "other_tags": "\"shop\"=>\"hairdresser\"" }, "geometry": { "type": "Point", "coordinates": [ -1.5556273, 53.7672792 ] } },
	{ "type": "Feature", "properties": { "osm_id": "2117006487", "other_tags": "\"shop\"=>\"hairdresser\"" }, "geometry": { "type": "Point", "coordinates": [ -1.5286777, 53.778838 ] } },
	{ "type": "Feature", "properties": { "osm_id": "2124265334", "name": "Sketch Hair", "other_tags": "\"shop\"=>\"hairdresser\"" }, "geometry": { "type": "Point", "coordinates": [ -1.5455446, 53.7952958 ] } },
	{ "type": "Feature", "properties": { "osm_id": "2125610521", "name": "Just Men", "other_tags": "\"shop\"=>\"hairdresser\"" }, "geometry": { "type": "Point", "coordinates": [ -1.5379817, 53.7965878 ] } },
	{ "type": "Feature", "properties": { "osm_id": "2128107730", "name": "Atelier", "other_tags": "\"shop\"=>\"hairdresser\",\"website\"=>\"https:\/\/atelier.mytreatwell.co.uk\/\",\"old_name\"=>\"Prague Hair Salon\",\"addr:city\"=>\"Leeds\",\"addr:street\"=>\"Vicar Lane\",\"addr:postcode\"=>\"LS2 7JF\",\"addr:housenumber\"=>\"8\"" }, "geometry": { "type": "Point", "coordinates": [ -1.5401195, 53.7970888 ] } },
	{ "type": "Feature", "properties": { "osm_id": "2134260269", "name": "Unique Gro Hair & Beauty Salon", "other_tags": "\"shop\"=>\"hairdresser\"" }, "geometry": { "type": "Point", "coordinates": [ -1.5398349, 53.7967847 ] } },
	{ "type": "Feature", "properties": { "osm_id": "2138746302", "name": "Hair", "other_tags": "\"shop\"=>\"hairdresser\"" }, "geometry": { "type": "Point", "coordinates": [ -1.5413191, 53.7974686 ] } },
	{ "type": "Feature", "properties": { "osm_id": "2144729451", "name": "Remedy", "amenity": "bar", "other_tags": "\"shop\"=>\"hairdresser\",\"fhrs:id\"=>\"1018414\",\"addr:city\"=>\"Leeds\",\"addr:street\"=>\"New Briggate\",\"addr:postcode\"=>\"LS1 6NU\",\"addr:housenumber\"=>\"16\"" }, "geometry": { "type": "Point", "coordinates": [ -1.5416596, 53.7994476 ] } },
	{ "type": "Feature", "properties": { "osm_id": "2353519756", "name": "Steca's Barber Shop", "other_tags": "\"shop\"=>\"hairdresser\",\"addr:street\"=>\"New Inn Court\",\"hairdresser\"=>\"men\"" }, "geometry": { "type": "Point", "coordinates": [ -1.6938876, 53.9049909 ] } },
	{ "type": "Feature", "properties": { "osm_id": "2353558014", "name": "In Dimensions", "other_tags": "\"shop\"=>\"hairdresser\",\"addr:street\"=>\"Kirkgate\",\"hairdresser\"=>\"unisex\"" }, "geometry": { "type": "Point", "coordinates": [ -1.693893, 53.9043652 ] } },
	{ "type": "Feature", "properties": { "osm_id": "2353725351", "name": "Debutante", "other_tags": "\"shop\"=>\"hairdresser\",\"addr:city\"=>\"Otley\",\"telephone\"=>\"01943 462996\",\"is_in:town\"=>\"Otley\",\"addr:street\"=>\"Newmarket\"" }, "geometry": { "type": "Point", "coordinates": [ -1.6930776, 53.9048013 ] } },
	{ "type": "Feature", "properties": { "osm_id": "2353725354", "name": "Daniyal Baig", "other_tags": "\"shop\"=>\"hairdresser\",\"addr:city\"=>\"Otley\",\"is_in:town\"=>\"Otley\",\"addr:street\"=>\"Newmarket\",\"addr:postcode\"=>\"LS21 3AE\",\"addr:housenumber\"=>\"26\"" }, "geometry": { "type": "Point", "coordinates": [ -1.6930829, 53.9048393 ] } },
	{ "type": "Feature", "properties": { "osm_id": "2408752468", "name": "Scissor Sisters", "other_tags": "\"shop\"=>\"hairdresser\"" }, "geometry": { "type": "Point", "coordinates": [ -1.5673558, 53.8292784 ] } },
	{ "type": "Feature", "properties": { "osm_id": "2408752499", "name": "Chaplins", "other_tags": "\"shop\"=>\"hairdresser\"" }, "geometry": { "type": "Point", "coordinates": [ -1.5665768, 53.8285538 ] } },
	{ "type": "Feature", "properties": { "osm_id": "2430356591", "name": "Tonic", "other_tags": "\"shop\"=>\"hairdresser\",\"phone\"=>\"+44 113 258 8841\",\"addr:city\"=>\"Leeds\",\"addr:street\"=>\"Town Street\",\"addr:suburb\"=>\"Horsforth\",\"addr:postcode\"=>\"LS18 4RJ\",\"opening_hours\"=>\"Mo-Fr 10:00-19:00; Sa 10:00-18:00\",\"addr:housenumber\"=>\"12B\"" }, "geometry": { "type": "Point", "coordinates": [ -1.641932, 53.8369739 ] } },
	{ "type": "Feature", "properties": { "osm_id": "2556966316", "name": "Chris Wallbank Hairdressing", "other_tags": "\"shop\"=>\"hairdresser\"" }, "geometry": { "type": "Point", "coordinates": [ -1.7124433, 53.873898 ] } },
	{ "type": "Feature", "properties": { "osm_id": "2952382428", "name": "Cissis Barbers", "other_tags": "\"shop\"=>\"hairdresser\"" }, "geometry": { "type": "Point", "coordinates": [ -1.5695163, 53.8271596 ] } },
	{ "type": "Feature", "properties": { "osm_id": "3057112834", "name": "Yazz Number One Hair Studio", "other_tags": "\"shop\"=>\"hairdresser\",\"phone\"=>\"+44 113 391 0888\",\"website\"=>\"https:\/\/www.yazzhair.co\/yazz-yeadon-salon\/\",\"addr:city\"=>\"Yeadon\",\"wheelchair\"=>\"no\",\"addr:street\"=>\"Haworth Lane\",\"addr:postcode\"=>\"LS19 7EN\",\"opening_hours\"=>\"Mo,Su off; Tu,Fr 09:00-18:00; We,Th 09:00-20:00; Sa 09:00-16:00\",\"addr:housename\"=>\"LA Fitness Health Club\"" }, "geometry": { "type": "Point", "coordinates": [ -1.6887141, 53.8669423 ] } },
	{ "type": "Feature", "properties": { "osm_id": "3057247698", "name": "Yazz Number One Hair Salon", "other_tags": "\"shop\"=>\"hairdresser\",\"phone\"=>\"+44 1943 870 333\",\"website\"=>\"https:\/\/www.yazzhair.co\/yazz-guiseley-salon\/\",\"addr:city\"=>\"Guiseley\",\"addr:street\"=>\"Otley Road\",\"addr:postcode\"=>\"LS20 8AH\",\"opening_hours\"=>\"Monday: Closed, Tuesday: 9:00 to 6:00, Wednesday: 9:00 to 6:00, Thursday: 9:00 to 8:00, Friday: 9:00 to 6:00, Saturday: 9:00 to 4:00, Sunday: Closed\",\"addr:housenumber\"=>\"14\"" }, "geometry": { "type": "Point", "coordinates": [ -1.7096025, 53.8727231 ] } },
	{ "type": "Feature", "properties": { "osm_id": "3073182158", "name": "Verity's Hair Salon", "other_tags": "\"shop\"=>\"hairdresser\",\"addr:city\"=>\"Farsley\",\"addr:street\"=>\"Town Street\",\"addr:housenumber\"=>\"1\"" }, "geometry": { "type": "Point", "coordinates": [ -1.6723754, 53.8112178 ] } },
	{ "type": "Feature", "properties": { "osm_id": "3191671108", "name": "The Salon", "other_tags": "\"shop\"=>\"hairdresser\"" }, "geometry": { "type": "Point", "coordinates": [ -1.7252432, 53.87655 ] } },
	{ "type": "Feature", "properties": { "osm_id": "3222634963", "name": "Silver", "other_tags": "\"shop\"=>\"hairdresser\"" }, "geometry": { "type": "Point", "coordinates": [ -1.5610983, 53.8147955 ] } },
	{ "type": "Feature", "properties": { "osm_id": "3222635461", "name": "Hair Angels", "other_tags": "\"shop\"=>\"hairdresser\",\"opening_hours\"=>\"Mo - Fr 10:00 - 18:00, Sa 10:00 - 16:00\"" }, "geometry": { "type": "Point", "coordinates": [ -1.5611638, 53.8145648 ] } },
	{ "type": "Feature", "properties": { "osm_id": "3225905507", "name": "Hair Creative Cutting", "other_tags": "\"shop\"=>\"hairdresser\"" }, "geometry": { "type": "Point", "coordinates": [ -1.5759844, 53.8120772 ] } },
	{ "type": "Feature", "properties": { "osm_id": "3225929666", "name": "Kiren's Hair & Beauty", "other_tags": "\"shop\"=>\"hairdresser\"" }, "geometry": { "type": "Point", "coordinates": [ -1.5735376, 53.8111902 ] } },
	{ "type": "Feature", "properties": { "osm_id": "3225929772", "name": "Philip Jons", "other_tags": "\"shop\"=>\"hairdresser\"" }, "geometry": { "type": "Point", "coordinates": [ -1.5758715, 53.8118885 ] } },
	{ "type": "Feature", "properties": { "osm_id": "3300696422", "name": "Regis", "other_tags": "\"shop\"=>\"hairdresser\"" }, "geometry": { "type": "Point", "coordinates": [ -1.5454856, 53.7959256 ] } },
	{ "type": "Feature", "properties": { "osm_id": "3600588639", "name": "C02 Beauty", "other_tags": "\"shop\"=>\"hairdresser\",\"phone\"=>\"+44 113 269 5392\",\"addr:city\"=>\"Leeds\",\"addr:street\"=>\"Chandos Gardens\",\"addr:postcode\"=>\"LS8 1LW\",\"addr:housenumber\"=>\"8\"" }, "geometry": { "type": "Point", "coordinates": [ -1.5208875, 53.8345825 ] } },
	{ "type": "Feature", "properties": { "osm_id": "3625915990", "name": "Rawdon Barber Shop", "other_tags": "\"shop\"=>\"hairdresser\",\"opening_hours\"=>\"Mo 09:00-18:00; Tu,Th,Fr 09:00-18:00; Sa 08:30-14:00\"" }, "geometry": { "type": "Point", "coordinates": [ -1.6714499, 53.8498506 ] } },
	{ "type": "Feature", "properties": { "osm_id": "3626078174", "name": "Mirror Mirror", "other_tags": "\"shop\"=>\"hairdresser\"" }, "geometry": { "type": "Point", "coordinates": [ -1.6164603, 53.8284395 ] } },
	{ "type": "Feature", "properties": { "osm_id": "3715263091", "name": "Limeys Barber Shop", "other_tags": "\"shop\"=>\"hairdresser\",\"phone\"=>\"+44 7834 317 282\",\"addr:city\"=>\"Rawdon\",\"addr:street\"=>\"Harrogate Road\",\"addr:postcode\"=>\"LS19 6HJ\",\"addr:housenumber\"=>\"28\"" }, "geometry": { "type": "Point", "coordinates": [ -1.6842263, 53.8543839 ] } },
	{ "type": "Feature", "properties": { "osm_id": "3715263115", "name": "Samantha Hair Beauty Nails", "other_tags": "\"shop\"=>\"hairdresser\",\"phone\"=>\"+44 113 250 9500\",\"addr:city\"=>\"Rawdon\",\"addr:street\"=>\"Harrogate Road\",\"addr:postcode\"=>\"LS19 6HJ\",\"addr:housenumber\"=>\"14\"" }, "geometry": { "type": "Point", "coordinates": [ -1.684458, 53.8537029 ] } },
	{ "type": "Feature", "properties": { "osm_id": "3715292793", "name": "Definition Hair Design", "other_tags": "\"shop\"=>\"hairdresser\",\"phone\"=>\"+44 113 250 7139\",\"website\"=>\"https:\/\/www.definitionhairdesign.co.uk\/\",\"addr:city\"=>\"Rawdon\",\"addr:street\"=>\"Harrogate Road\",\"addr:postcode\"=>\"LS19 6HW\",\"addr:housenumber\"=>\"3\"" }, "geometry": { "type": "Point", "coordinates": [ -1.684889, 53.8535926 ] } },
	{ "type": "Feature", "properties": { "osm_id": "3715344951", "name": "Bijou Hair", "other_tags": "\"shop\"=>\"hairdresser\",\"phone\"=>\"+44 113 250 4428\",\"addr:city\"=>\"Rawdon\",\"addr:street\"=>\"Leeds Road\",\"addr:postcode\"=>\"LS19 6AX\"" }, "geometry": { "type": "Point", "coordinates": [ -1.6846622, 53.8524805 ] } },
	{ "type": "Feature", "properties": { "osm_id": "3716749538", "name": "Stiff Hairdressers", "other_tags": "\"shop\"=>\"hairdresser\",\"phone\"=>\"+44 113 250 5516\",\"addr:city\"=>\"Yeadon\",\"addr:street\"=>\"High Street\",\"addr:postcode\"=>\"LS19 7TA\",\"addr:housenumber\"=>\"131\"" }, "geometry": { "type": "Point", "coordinates": [ -1.6771306, 53.8653923 ] } },
	{ "type": "Feature", "properties": { "osm_id": "3716749539", "name": "John Ollen", "other_tags": "\"shop\"=>\"hairdresser\",\"addr:city\"=>\"Yeadon\",\"addr:street\"=>\"High Street\",\"addr:postcode\"=>\"LS19 7TA\"" }, "geometry": { "type": "Point", "coordinates": [ -1.6771773, 53.8654295 ] } },
	{ "type": "Feature", "properties": { "osm_id": "3716852675", "name": "Tribe Hairdressing", "other_tags": "\"shop\"=>\"hairdresser\",\"phone\"=>\"+44 113 250 3105\",\"website\"=>\"www.tribeleeds.co.uk\",\"addr:city\"=>\"Yeadon\",\"addr:street\"=>\"High Street\",\"addr:postcode\"=>\"LS19 7TA\",\"addr:housenumber\"=>\"107\"" }, "geometry": { "type": "Point", "coordinates": [ -1.6787622, 53.8660839 ] } },
	{ "type": "Feature", "properties": { "osm_id": "3716852687", "name": "Gary's Barber Shop", "other_tags": "\"shop\"=>\"hairdresser\",\"phone\"=>\"+44 7795 088068\",\"addr:city\"=>\"Yeadon\",\"addr:street\"=>\"High Street\",\"addr:postcode\"=>\"LS19 7TA\",\"addr:housenumber\"=>\"99\"" }, "geometry": { "type": "Point", "coordinates": [ -1.6791214, 53.8661486 ] } },
	{ "type": "Feature", "properties": { "osm_id": "3716852689", "name": "A.L.F. Hair Design", "other_tags": "\"shop\"=>\"hairdresser\",\"phone\"=>\"+44 113 250 6757\",\"addr:city\"=>\"Yeadon\",\"addr:street\"=>\"High Street\",\"addr:postcode\"=>\"LS19 7TA\",\"addr:housenumber\"=>\"91\"" }, "geometry": { "type": "Point", "coordinates": [ -1.6793426, 53.8661904 ] } },
	{ "type": "Feature", "properties": { "osm_id": "3716870616", "other_tags": "\"shop\"=>\"hairdresser\",\"phone\"=>\"+44 7538 101507\",\"addr:city\"=>\"Yeadon\",\"addr:street\"=>\"High Street\",\"addr:housenumber\"=>\"83a\"" }, "geometry": { "type": "Point", "coordinates": [ -1.6799195, 53.8662958 ] } },
	{ "type": "Feature", "properties": { "osm_id": "3716883310", "name": "Red", "other_tags": "\"shop\"=>\"hairdresser\",\"phone\"=>\"+44 113 250 9479\",\"website\"=>\"www.red-hair.co.uk\",\"addr:city\"=>\"Yeadon\",\"addr:street\"=>\"High Street\",\"addr:postcode\"=>\"LS19 7PP\",\"addr:housenumber\"=>\"58\"" }, "geometry": { "type": "Point", "coordinates": [ -1.6805193, 53.8661471 ] } },
	{ "type": "Feature", "properties": { "osm_id": "3716915900", "name": "LA's Hair Studios", "other_tags": "\"shop\"=>\"hairdresser\",\"phone\"=>\"+44 113 250 2460\",\"addr:city\"=>\"Yeadon\",\"addr:street\"=>\"Harper Lane\",\"addr:postcode\"=>\"LS19 7QP\",\"addr:housenumber\"=>\"10\"" }, "geometry": { "type": "Point", "coordinates": [ -1.6819906, 53.8656718 ] } },
	{ "type": "Feature", "properties": { "osm_id": "3716946417", "name": "Yeadon Barber", "other_tags": "\"shop\"=>\"hairdresser\"" }, "geometry": { "type": "Point", "coordinates": [ -1.6825865, 53.8662322 ] } },
	{ "type": "Feature", "properties": { "osm_id": "3716946418", "name": "Salon 65", "other_tags": "\"shop\"=>\"hairdresser\",\"phone\"=>\"+44 113 250 9498\",\"addr:city\"=>\"Yeadon\",\"addr:street\"=>\"High Street\",\"addr:postcode\"=>\"LS19 7SP\",\"addr:housenumber\"=>\"65\"" }, "geometry": { "type": "Point", "coordinates": [ -1.6826577, 53.8662214 ] } },
	{ "type": "Feature", "properties": { "osm_id": "3718205542", "name": "Nu Style Unisex Hair Salon", "other_tags": "\"shop\"=>\"hairdresser\",\"phone\"=>\"+44 113 210 2731\",\"addr:city\"=>\"Yeadon\",\"addr:street\"=>\"High Street\",\"addr:postcode\"=>\"LS19 7SP\",\"addr:housenumber\"=>\"33\"" }, "geometry": { "type": "Point", "coordinates": [ -1.6843011, 53.8662407 ] } },
	{ "type": "Feature", "properties": { "osm_id": "3718213175", "name": "Room 11", "other_tags": "\"shop\"=>\"hairdresser\",\"phone\"=>\"+44 113 250 2342\",\"addr:city\"=>\"Yeadon\",\"addr:street\"=>\"High Street\",\"addr:postcode\"=>\"LS19 7SP\",\"addr:housenumber\"=>\"11\"" }, "geometry": { "type": "Point", "coordinates": [ -1.6851065, 53.8661319 ] } },
	{ "type": "Feature", "properties": { "osm_id": "3718231086", "name": "Kirsty's Hair Diffusione", "other_tags": "\"shop\"=>\"hairdresser\",\"phone\"=>\"+44 113 250 3822\",\"addr:city\"=>\"Yeadon\",\"addr:street\"=>\"High Street\",\"addr:postcode\"=>\"LS19 7PP\",\"addr:housenumber\"=>\"6\"" }, "geometry": { "type": "Point", "coordinates": [ -1.6852742, 53.8659342 ] } },
	{ "type": "Feature", "properties": { "osm_id": "3718444414", "name": "Big Al's Barber Shop", "other_tags": "\"shop\"=>\"hairdresser\",\"addr:city\"=>\"Yeadon\",\"addr:street\"=>\"High Street\",\"addr:postcode\"=>\"LS19 7PP\",\"addr:housenumber\"=>\"18\"" }, "geometry": { "type": "Point", "coordinates": [ -1.683695, 53.8660399 ] } },
	{ "type": "Feature", "properties": { "osm_id": "3718469497", "name": "Originals Hair Salon", "other_tags": "\"shop\"=>\"hairdresser\",\"phone\"=>\"+44 113 202 9493\",\"addr:city\"=>\"Yeadon\",\"addr:street\"=>\"Town Street\",\"addr:postcode\"=>\"LS19 7EQ\",\"addr:housenumber\"=>\"8\"" }, "geometry": { "type": "Point", "coordinates": [ -1.6859775, 53.8660379 ] } },
	{ "type": "Feature", "properties": { "osm_id": "3718469500", "name": "Mirror Mirror", "other_tags": "\"shop\"=>\"hairdresser\",\"phone\"=>\"+44 7585 807091\",\"addr:city\"=>\"Yeadon\",\"addr:street\"=>\"Town Street\",\"addr:postcode\"=>\"LS19 7EQ\",\"addr:housenumber\"=>\"15\"" }, "geometry": { "type": "Point", "coordinates": [ -1.6863395, 53.8658672 ] } },
	{ "type": "Feature", "properties": { "osm_id": "3718505648", "name": "Hair La Mode", "other_tags": "\"shop\"=>\"hairdresser\",\"phone\"=>\"+44 113 250 8512\",\"addr:city\"=>\"Yeadon\",\"addr:street\"=>\"Sandy Way\",\"addr:postcode\"=>\"LS19 7EW\",\"addr:housenumber\"=>\"12\"" }, "geometry": { "type": "Point", "coordinates": [ -1.6865021, 53.8656907 ] } },
	{ "type": "Feature", "properties": { "osm_id": "3777443923", "name": "The Barbers Shop", "other_tags": "\"shop\"=>\"hairdresser\"" }, "geometry": { "type": "Point", "coordinates": [ -1.6633405, 53.7965556 ] } },
	{ "type": "Feature", "properties": { "osm_id": "3813294644", "name": "City Smart", "other_tags": "\"male\"=>\"yes\",\"shop\"=>\"hairdresser\",\"phone\"=>\"+44 113 274 3366\",\"female\"=>\"no\"" }, "geometry": { "type": "Point", "coordinates": [ -1.5664753, 53.8278449 ] } },
	{ "type": "Feature", "properties": { "osm_id": "3832991733", "name": "La Boutique", "other_tags": "\"shop\"=>\"hairdresser\",\"telephone\"=>\"01132842607\"" }, "geometry": { "type": "Point", "coordinates": [ -1.622798, 53.8850599 ] } },
	{ "type": "Feature", "properties": { "osm_id": "3887784698", "name": "Stacey Wright", "other_tags": "\"shop\"=>\"hairdresser\",\"phone\"=>\"+44 113 258 9186\",\"website\"=>\"https:\/\/www.facebook.com\/Stacey-Wright-Hair-by-Design-horsforth-town-street-115230598576226\/\",\"addr:city\"=>\"Leeds\",\"addr:street\"=>\"Town Street\",\"addr:suburb\"=>\"Horsforth\",\"addr:postcode\"=>\"LS18 4AP\",\"addr:housenumber\"=>\"94\"" }, "geometry": { "type": "Point", "coordinates": [ -1.6384627, 53.839284 ] } },
	{ "type": "Feature", "properties": { "osm_id": "3887830123", "name": "Auriole Hair Salon", "other_tags": "\"shop\"=>\"hairdresser\",\"phone\"=>\"+44 113 259 0912\",\"website\"=>\"http:\/\/www.auriolehair.co.uk\/\",\"addr:city\"=>\"Leeds\",\"addr:street\"=>\"Town Street\",\"addr:suburb\"=>\"Horsforth\",\"addr:postcode\"=>\"LS18 5BP\",\"opening_hours\"=>\"Tu-Fr 09:30-18:00; Sa 08:00-16:00; Su-Mo Closed\",\"addr:housenumber\"=>\"85D\"" }, "geometry": { "type": "Point", "coordinates": [ -1.6393935, 53.8389018 ] } },
	{ "type": "Feature", "properties": { "osm_id": "3887830144", "name": "Squire", "other_tags": "\"shop\"=>\"hairdresser\",\"phone\"=>\"+44 113 259 0605\",\"addr:city\"=>\"Leeds\",\"addr:street\"=>\"Town Street\",\"addr:suburb\"=>\"Horsforth\",\"addr:postcode\"=>\"LS18 5BP\",\"addr:housenumber\"=>\"91\"" }, "geometry": { "type": "Point", "coordinates": [ -1.6389405, 53.8391902 ] } },
	{ "type": "Feature", "properties": { "osm_id": "3887830146", "name": "Esquire", "other_tags": "\"shop\"=>\"hairdresser\",\"phone\"=>\"+44 113 281 9043\",\"addr:city\"=>\"Leeds\",\"addr:street\"=>\"Town Street\",\"addr:suburb\"=>\"Horsforth\",\"addr:postcode\"=>\"LS18 5BP\",\"addr:housenumber\"=>\"95\"" }, "geometry": { "type": "Point", "coordinates": [ -1.6388078, 53.8392643 ] } },
	{ "type": "Feature", "properties": { "osm_id": "3892020073", "name": "R & A Fuller Hair World", "other_tags": "\"shop\"=>\"hairdresser\",\"phone\"=>\"+44 113 281 8141\",\"addr:city\"=>\"Leeds\",\"addr:street\"=>\"Town Street\",\"addr:suburb\"=>\"Horsforth\",\"addr:postcode\"=>\"LS18 5BL\",\"addr:housenumber\"=>\"111\"" }, "geometry": { "type": "Point", "coordinates": [ -1.6375507, 53.8400077 ] } },
	{ "type": "Feature", "properties": { "osm_id": "3898525377", "name": "Mr Jay's Barbershop", "other_tags": "\"shop\"=>\"hairdresser\",\"phone\"=>\"+44 7717 368511\",\"addr:city\"=>\"Leeds\",\"addr:street\"=>\"Station Road\",\"addr:suburb\"=>\"Horsforth\",\"addr:postcode\"=>\"LS18 5PA\",\"opening_hours\"=>\"Tu-Fr 09:00-17:30; Sa 09:00-15:30; Su-Mo Closed\",\"addr:housenumber\"=>\"11\"" }, "geometry": { "type": "Point", "coordinates": [ -1.6334172, 53.8466474 ] } },
	{ "type": "Feature", "properties": { "osm_id": "3898601892", "name": "Platform 1", "other_tags": "\"shop\"=>\"hairdresser\",\"phone\"=>\"+44 113 258 4453\",\"addr:city\"=>\"Horsforth\",\"addr:street\"=>\"Station Road\",\"addr:postcode\"=>\"LS18 5PA\",\"addr:housenumber\"=>\"29\"" }, "geometry": { "type": "Point", "coordinates": [ -1.631825, 53.8469724 ] } },
	{ "type": "Feature", "properties": { "osm_id": "3900180356", "name": "Anthony James", "other_tags": "\"shop\"=>\"hairdresser\",\"addr:city\"=>\"Horsforth\",\"addr:street\"=>\"New Road Side\",\"addr:postcode\"=>\"LS18 4DR\",\"opening_hours\"=>\"Tu-Fr 09:30-18:00; Sa 08:30-17:00; Su Closed\",\"addr:housenumber\"=>\"255\"" }, "geometry": { "type": "Point", "coordinates": [ -1.6480122, 53.8333059 ] } },
	{ "type": "Feature", "properties": { "osm_id": "3902978494", "name": "Jefferson Hair & Beauty", "other_tags": "\"shop\"=>\"hairdresser\",\"phone\"=>\"+44 113 259 1531\",\"website\"=>\"http:\/\/www.jeffersonhairdressing.co.uk\/\",\"addr:city\"=>\"Horsforth\",\"addr:street\"=>\"New Road Side\",\"addr:postcode\"=>\"LS18 4QD\",\"opening_hours\"=>\"Tu,We,Fr 09:00-18:00; Th 09:00-19:00; Sa 09:00-17:00; Su-Mo Closed\",\"addr:housenumber\"=>\"147\"" }, "geometry": { "type": "Point", "coordinates": [ -1.6441927, 53.8321074 ] } },
	{ "type": "Feature", "properties": { "osm_id": "3902978505", "name": "Vie Hair & Beauty", "other_tags": "\"shop\"=>\"hairdresser\",\"phone\"=>\"+44 113 258 6420\",\"addr:city\"=>\"Horsforth\",\"addr:street\"=>\"New Road Side\",\"addr:postcode\"=>\"LS18 4QD\",\"addr:housenumber\"=>\"129\"" }, "geometry": { "type": "Point", "coordinates": [ -1.6434823, 53.8320658 ] } },
	{ "type": "Feature", "properties": { "osm_id": "3904761988", "name": "Bev @ Michael Laurence", "other_tags": "\"shop\"=>\"hairdresser\",\"phone\"=>\"+44 113 258 3365\",\"addr:city\"=>\"Horsforth\",\"addr:street\"=>\"New Road Side\",\"addr:postcode\"=>\"LS18 4QD\",\"addr:housenumber\"=>\"95\"" }, "geometry": { "type": "Point", "coordinates": [ -1.6417326, 53.831991 ] } },
	{ "type": "Feature", "properties": { "osm_id": "3916676792", "name": "John Scott Hairdressing", "other_tags": "\"shop\"=>\"hairdresser\",\"phone\"=>\"+44 113 2584732\",\"addr:city\"=>\"Horsforth\",\"addr:street\"=>\"New Road Side\",\"addr:postcode\"=>\"LS18 4QB\",\"addr:housenumber\"=>\"90\"" }, "geometry": { "type": "Point", "coordinates": [ -1.6410439, 53.8321932 ] } },
	{ "type": "Feature", "properties": { "osm_id": "3916676794", "name": "Top Mens Barbers", "other_tags": "\"shop\"=>\"hairdresser\"" }, "geometry": { "type": "Point", "coordinates": [ -1.6408929, 53.8322735 ] } },
	{ "type": "Feature", "properties": { "osm_id": "3942727564", "name": "Solo Hair Team", "other_tags": "\"shop\"=>\"hairdresser\"" }, "geometry": { "type": "Point", "coordinates": [ -1.6948573, 53.9062519 ] } },
	{ "type": "Feature", "properties": { "osm_id": "4009429010", "name": "Head Office Salon", "other_tags": "\"shop\"=>\"hairdresser\",\"website\"=>\"https:\/\/headofficesalons.co.uk\/\",\"addr:city\"=>\"Leeds\",\"addr:street\"=>\"Cross Gates Road\",\"addr:postcode\"=>\"LS15 7PB\",\"addr:housenumber\"=>\"125\"" }, "geometry": { "type": "Point", "coordinates": [ -1.4547218, 53.8085774 ] } },
	{ "type": "Feature", "properties": { "osm_id": "4131484806", "name": "Yazz", "other_tags": "\"shop\"=>\"hairdresser\"" }, "geometry": { "type": "Point", "coordinates": [ -1.6870987, 53.8557515 ] } },
	{ "type": "Feature", "properties": { "osm_id": "4149119852", "name": "Alpha Male", "other_tags": "\"shop\"=>\"hairdresser\"" }, "geometry": { "type": "Point", "coordinates": [ -1.6934601, 53.9043619 ] } },
	{ "type": "Feature", "properties": { "osm_id": "4202206074", "name": "Technicolour", "other_tags": "\"shop\"=>\"hairdresser\"" }, "geometry": { "type": "Point", "coordinates": [ -1.388558, 53.7924619 ] } },
	{ "type": "Feature", "properties": { "osm_id": "4211277961", "name": "Follicle", "other_tags": "\"shop\"=>\"hairdresser\"" }, "geometry": { "type": "Point", "coordinates": [ -1.6682005, 53.7928076 ] } },
	{ "type": "Feature", "properties": { "osm_id": "4346027282", "name": "The Agyeboats Barbers", "other_tags": "\"shop\"=>\"hairdresser\",\"addr:city\"=>\"Leeds\",\"addr:unit\"=>\"4\",\"addr:street\"=>\"Byron Street\",\"addr:postcode\"=>\"LS2 7QJ\",\"addr:housenumber\"=>\"45\"" }, "geometry": { "type": "Point", "coordinates": [ -1.5336965, 53.8024661 ] } },
	{ "type": "Feature", "properties": { "osm_id": "4362482325", "name": "The Barbers Leeds", "other_tags": "\"shop\"=>\"hairdresser\",\"phone\"=>\"+44 113 245 7526\",\"website\"=>\"www.thebarbersleeds.co.uk\",\"addr:city\"=>\"Leeds\",\"addr:street\"=>\"Kirkgate\",\"addr:postcode\"=>\"LS2 7DJ\",\"addr:housenumber\"=>\"76\"" }, "geometry": { "type": "Point", "coordinates": [ -1.5374409, 53.7955722 ] } },
	{ "type": "Feature", "properties": { "osm_id": "4362485981", "name": "The Salon Leeds", "other_tags": "\"shop\"=>\"hairdresser\",\"addr:city\"=>\"Leeds\",\"addr:street\"=>\"Wharf Street\"" }, "geometry": { "type": "Point", "coordinates": [ -1.5375724, 53.7955492 ] } },
	{ "type": "Feature", "properties": { "osm_id": "4384356300", "name": "Sue's", "other_tags": "\"shop\"=>\"hairdresser\",\"name:en\"=>\"Sue's\"" }, "geometry": { "type": "Point", "coordinates": [ -1.5888629, 53.7613191 ] } },
	{ "type": "Feature", "properties": { "osm_id": "4392669292", "name": "Just Men", "other_tags": "\"shop\"=>\"hairdresser\"" }, "geometry": { "type": "Point", "coordinates": [ -1.5990995, 53.7431117 ] } },
	{ "type": "Feature", "properties": { "osm_id": "4471283674", "name": "Supercuts", "other_tags": "\"shop\"=>\"hairdresser\",\"brand\"=>\"Supercuts\",\"wheelchair\"=>\"yes\",\"brand:wikidata\"=>\"Q7643239\",\"brand:wikipedia\"=>\"en:Supercuts\"" }, "geometry": { "type": "Point", "coordinates": [ -1.4506673, 53.8060913 ] } },
	{ "type": "Feature", "properties": { "osm_id": "4488841940", "name": "Piranha Hair Studio", "other_tags": "\"shop\"=>\"hairdresser\",\"addr:city\"=>\"Leeds\",\"addr:street\"=>\"North Street\",\"addr:postcode\"=>\"LS2 7PN\",\"addr:housenumber\"=>\"60\"" }, "geometry": { "type": "Point", "coordinates": [ -1.5382629, 53.8014405 ] } },
	{ "type": "Feature", "properties": { "osm_id": "4488841941", "name": "Tint", "other_tags": "\"shop\"=>\"hairdresser\",\"addr:city\"=>\"Leeds\",\"addr:street\"=>\"North Street\",\"addr:postcode\"=>\"LS2 7PN\",\"addr:housenumber\"=>\"70\"" }, "geometry": { "type": "Point", "coordinates": [ -1.5380296, 53.8015989 ] } },
	{ "type": "Feature", "properties": { "osm_id": "4583122235", "name": "Jans Hairdressing", "other_tags": "\"shop\"=>\"hairdresser\",\"addr:city\"=>\"Leeds\",\"addr:street\"=>\"Manor Road\",\"addr:suburb\"=>\"Rothwell\",\"addr:postcode\"=>\"LS26 0RD\",\"addr:housenumber\"=>\"28\"" }, "geometry": { "type": "Point", "coordinates": [ -1.4864208, 53.7527457 ] } },
	{ "type": "Feature", "properties": { "osm_id": "4602768927", "name": "Rodley Barbers", "other_tags": "\"shop\"=>\"hairdresser\"" }, "geometry": { "type": "Point", "coordinates": [ -1.6627807, 53.823108 ] } },
	{ "type": "Feature", "properties": { "osm_id": "4653490137", "name": "Hair Station", "other_tags": "\"shop\"=>\"hairdresser\"" }, "geometry": { "type": "Point", "coordinates": [ -1.4506285, 53.8072235 ] } },
	{ "type": "Feature", "properties": { "osm_id": "4778563850", "name": "Headonist", "other_tags": "\"male\"=>\"yes\",\"shop\"=>\"hairdresser\",\"phone\"=>\"+44 113 4405 499\",\"website\"=>\"http:\/\/headonist.co.uk\/\",\"addr:city\"=>\"Leeds\",\"addr:street\"=>\"Stott Road\",\"addr:postcode\"=>\"LS6 1GH\",\"opening_hours\"=>\"Mo-Sa 09:00-18:00\",\"addr:housenumber\"=>\"1\"" }, "geometry": { "type": "Point", "coordinates": [ -1.5741199, 53.8147693 ] } },
	{ "type": "Feature", "properties": { "osm_id": "4846648970", "name": "Religion Hair & Beauty", "other_tags": "\"shop\"=>\"hairdresser\"" }, "geometry": { "type": "Point", "coordinates": [ -1.6016677, 53.751729 ] } },
	{ "type": "Feature", "properties": { "osm_id": "4885695953", "name": "Supercuts", "other_tags": "\"shop\"=>\"hairdresser\",\"brand\"=>\"Supercuts\",\"brand:wikidata\"=>\"Q7643239\",\"brand:wikipedia\"=>\"en:Supercuts\"" }, "geometry": { "type": "Point", "coordinates": [ -1.5446075, 53.8018501 ] } },
	{ "type": "Feature", "properties": { "osm_id": "4885695958", "name": "JRs Barbershop", "other_tags": "\"shop\"=>\"hairdresser\"" }, "geometry": { "type": "Point", "coordinates": [ -1.5442416, 53.8023208 ] } },
	{ "type": "Feature", "properties": { "osm_id": "4964806674", "name": "The Cutting Room", "other_tags": "\"shop\"=>\"hairdresser\"" }, "geometry": { "type": "Point", "coordinates": [ -1.5936318, 53.7473991 ] } },
	{ "type": "Feature", "properties": { "osm_id": "4986256621", "name": "Matthew's Barber shop", "other_tags": "\"shop\"=>\"hairdresser\",\"phone\"=>\"+44 113 274 1555\",\"name:en\"=>\"Matthew's Barber shop\",\"website\"=>\"http:\/\/www.matthewsbarbers.com\/\",\"addr:street\"=>\"Weetwood Lane\",\"addr:postcode\"=>\"LS16 5LX\",\"opening_hours\"=>\"Mo-Fr 08:30-18:00; Sa 08:30-17:00\",\"addr:housenumber\"=>\"40\"" }, "geometry": { "type": "Point", "coordinates": [ -1.5817651, 53.8288198 ] } },
	{ "type": "Feature", "properties": { "osm_id": "4999403938", "name": "Blacks", "other_tags": "\"shop\"=>\"hairdresser\"" }, "geometry": { "type": "Point", "coordinates": [ -1.3885519, 53.7923096 ] } },
	{ "type": "Feature", "properties": { "osm_id": "5022102101", "name": "Tonys Cuts", "other_tags": "\"shop\"=>\"hairdresser\",\"operator\"=>\"Tony\",\"addr:city\"=>\"Leeds\",\"addr:street\"=>\"Brudenell Road\",\"addr:postcode\"=>\"LS6 1EG\",\"opening_hours\"=>\"Th-Tu 10:00-19:00\",\"addr:housenumber\"=>\"78\"" }, "geometry": { "type": "Point", "coordinates": [ -1.5697247, 53.8122333 ] } },
	{ "type": "Feature", "properties": { "osm_id": "5218896688", "name": "Roma", "other_tags": "\"shop\"=>\"hairdresser\"" }, "geometry": { "type": "Point", "coordinates": [ -1.6027325, 53.7453014 ] } },
	{ "type": "Feature", "properties": { "osm_id": "5287544468", "name": "Grade One", "other_tags": "\"shop\"=>\"hairdresser\"" }, "geometry": { "type": "Point", "coordinates": [ -1.4645503, 53.799094 ] } },
	{ "type": "Feature", "properties": { "osm_id": "5296591313", "name": "Smitin Hair", "other_tags": "\"shop\"=>\"hairdresser\"" }, "geometry": { "type": "Point", "coordinates": [ -1.6711798, 53.8130889 ] } },
	{ "type": "Feature", "properties": { "osm_id": "5296592025", "name": "Raahil's Barber Shop", "other_tags": "\"shop\"=>\"hairdresser\"" }, "geometry": { "type": "Point", "coordinates": [ -1.6718651, 53.812073 ] } },
	{ "type": "Feature", "properties": { "osm_id": "5299870169", "name": "The Barbers", "other_tags": "\"shop\"=>\"hairdresser\"" }, "geometry": { "type": "Point", "coordinates": [ -1.4552412, 53.8080103 ] } },
	{ "type": "Feature", "properties": { "osm_id": "5311258595", "name": "unity", "other_tags": "\"shop\"=>\"hairdresser\"" }, "geometry": { "type": "Point", "coordinates": [ -1.6873576, 53.9016439 ] } },
	{ "type": "Feature", "properties": { "osm_id": "5354055960", "name": "Union Barbers Leeds", "other_tags": "\"shop\"=>\"hairdresser\",\"phone\"=>\"+44 113 274 3240\",\"website\"=>\"https:\/\/www.facebook.com\/unionbarbersleeds\/\",\"addr:city\"=>\"Leeds\",\"addr:street\"=>\"Hyde Park Corner\",\"reservation\"=>\"recommended\",\"addr:postcode\"=>\"LS6 1AF\",\"opening_hours\"=>\"Mo-Sa 10:00-18:00\",\"addr:housenumber\"=>\"21\"" }, "geometry": { "type": "Point", "coordinates": [ -1.5613339, 53.8143623 ] } },
	{ "type": "Feature", "properties": { "osm_id": "5407594205", "name": "Select Hairdressing", "other_tags": "\"shop\"=>\"hairdresser\"" }, "geometry": { "type": "Point", "coordinates": [ -1.4838128, 53.7552552 ] } },
	{ "type": "Feature", "properties": { "osm_id": "5407594207", "name": "The Chair", "other_tags": "\"shop\"=>\"hairdresser\",\"addr:city\"=>\"Leeds\",\"addr:street\"=>\"Haigh Road\",\"addr:postcode\"=>\"LS26 0LP\",\"addr:housenumber\"=>\"98\"" }, "geometry": { "type": "Point", "coordinates": [ -1.4778274, 53.7549785 ] } },
	{ "type": "Feature", "properties": { "osm_id": "5407594215", "name": "The Salon - hair consultants & barbers", "other_tags": "\"shop\"=>\"hairdresser\"" }, "geometry": { "type": "Point", "coordinates": [ -1.4463557, 53.7526441 ] } },
	{ "type": "Feature", "properties": { "osm_id": "5413294422", "name": "Best Cuts -barbers-", "other_tags": "\"shop\"=>\"hairdresser\"" }, "geometry": { "type": "Point", "coordinates": [ -1.4493913, 53.8074355 ] } },
	{ "type": "Feature", "properties": { "osm_id": "5413294427", "name": "Danny's Barbers", "other_tags": "\"shop\"=>\"hairdresser\"" }, "geometry": { "type": "Point", "coordinates": [ -1.4497787, 53.8074599 ] } },
	{ "type": "Feature", "properties": { "osm_id": "5413319841", "name": "The Cutting Shed", "other_tags": "\"shop\"=>\"hairdresser\"" }, "geometry": { "type": "Point", "coordinates": [ -1.4517285, 53.8073909 ] } },
	{ "type": "Feature", "properties": { "osm_id": "5413319844", "name": "65 The Barbers", "other_tags": "\"shop\"=>\"hairdresser\"" }, "geometry": { "type": "Point", "coordinates": [ -1.4520225, 53.8072839 ] } },
	{ "type": "Feature", "properties": { "osm_id": "5422663135", "name": "Hair Xpress", "other_tags": "\"shop\"=>\"hairdresser\"" }, "geometry": { "type": "Point", "coordinates": [ -1.5437146, 53.8010421 ] } },
	{ "type": "Feature", "properties": { "osm_id": "5439861938", "name": "Quiff Salon", "other_tags": "\"shop\"=>\"hairdresser\",\"phone\"=>\"+44 113 278 4442\",\"website\"=>\"http:\/\/www.quiffsalon.co.uk\",\"addr:city\"=>\"Leeds\",\"addr:street\"=>\"North Lane\",\"description\"=>\"additionalvalue for payment: Card, Contactless, Smart Pay\",\"payment:cash\"=>\"yes\",\"addr:postcode\"=>\"LS6 3HW\",\"opening_hours\"=>\"Mo 09:30-17:00; We 09:30-19:00; Th 09:30-18:00; Fr 09:30-16:00; Sa 09:00-16:00; Tu, Su off\",\"addr:housenumber\"=>\"19\"" }, "geometry": { "type": "Point", "coordinates": [ -1.5809555, 53.8200212 ] } },
	{ "type": "Feature", "properties": { "osm_id": "5527199863", "name": "The Gentleman's Barber", "other_tags": "\"shop\"=>\"hairdresser\"" }, "geometry": { "type": "Point", "coordinates": [ -1.5836487, 53.806806 ] } },
	{ "type": "Feature", "properties": { "osm_id": "5632863876", "name": "Westrow Academy", "other_tags": "\"shop\"=>\"hairdresser\",\"addr:city\"=>\"Leeds\",\"addr:street\"=>\"Briggate\",\"addr:postcode\"=>\"LS1 6LY\",\"addr:housename\"=>\"Westrow House\",\"addr:housenumber\"=>\"161\"" }, "geometry": { "type": "Point", "coordinates": [ -1.5423332, 53.795457 ] } },
	{ "type": "Feature", "properties": { "osm_id": "5648164608", "name": "Just Men", "other_tags": "\"shop\"=>\"hairdresser\"" }, "geometry": { "type": "Point", "coordinates": [ -1.5433913, 53.8009819 ] } },
	{ "type": "Feature", "properties": { "osm_id": "5912474833", "name": "Head First", "other_tags": "\"shop\"=>\"hairdresser\",\"addr:city\"=>\"Leeds\",\"addr:street\"=>\"Harrogate Road\",\"addr:postcode\"=>\"LS17 8DP\",\"addr:housenumber\"=>\"590\"" }, "geometry": { "type": "Point", "coordinates": [ -1.5304705, 53.8558078 ] } },
	{ "type": "Feature", "properties": { "osm_id": "5916115982", "other_tags": "\"shop\"=>\"hairdresser\"" }, "geometry": { "type": "Point", "coordinates": [ -1.4517611, 53.8061621 ] } },
	{ "type": "Feature", "properties": { "osm_id": "5918770672", "name": "Mod Salons", "other_tags": "\"shop\"=>\"hairdresser\",\"addr:city\"=>\"Leeds\",\"addr:street\"=>\"Harrogate Road\",\"addr:housenumber\"=>\"98\"" }, "geometry": { "type": "Point", "coordinates": [ -1.5374282, 53.8284028 ] } },
	{ "type": "Feature", "properties": { "osm_id": "5918780435", "name": "Cold Bath", "other_tags": "\"shop\"=>\"hairdresser\",\"addr:city\"=>\"Leeds\",\"addr:street\"=>\"Harrogate Road\",\"addr:postcode\"=>\"LS7 3PD\",\"addr:housenumber\"=>\"43\"" }, "geometry": { "type": "Point", "coordinates": [ -1.5377688, 53.8284044 ] } },
	{ "type": "Feature", "properties": { "osm_id": "5940387582", "name": "Lords Barbering", "other_tags": "\"shop\"=>\"hairdresser\",\"website\"=>\"https:\/\/www.lordsbarbering.co.uk\/\",\"addr:city\"=>\"Leeds\",\"addr:street\"=>\"Grand Arcade\",\"addr:postcode\"=>\"LS1 6PG\",\"addr:housenumber\"=>\"7\"" }, "geometry": { "type": "Point", "coordinates": [ -1.5402604, 53.800184 ] } },
	{ "type": "Feature", "properties": { "osm_id": "5941346443", "name": "Allertons", "other_tags": "\"shop\"=>\"hairdresser\",\"website\"=>\"https:\/\/allertonsonline.com\/\",\"addr:city\"=>\"Leeds\",\"addr:street\"=>\"Queens Arcade\",\"addr:postcode\"=>\"LS1 6LF\",\"addr:housenumber\"=>\"3\"" }, "geometry": { "type": "Point", "coordinates": [ -1.5425431, 53.7983911 ] } },
	{ "type": "Feature", "properties": { "osm_id": "5941346460", "name": "Westrow", "other_tags": "\"shop\"=>\"hairdresser\",\"addr:city\"=>\"Leeds\",\"addr:street\"=>\"Thornton's Arcade\",\"addr:postcode\"=>\"LS1 6LQ\",\"addr:housenumber\"=>\"4-6\"" }, "geometry": { "type": "Point", "coordinates": [ -1.542451, 53.7987085 ] } },
	{ "type": "Feature", "properties": { "osm_id": "5941346464", "name": "Westrow", "other_tags": "\"shop\"=>\"hairdresser\",\"addr:city\"=>\"Leeds\",\"addr:street\"=>\"Thornton's Arcade\",\"addr:postcode\"=>\"LS1 6LQ\",\"addr:housenumber\"=>\"18\"" }, "geometry": { "type": "Point", "coordinates": [ -1.5428347, 53.7987435 ] } },
	{ "type": "Feature", "properties": { "osm_id": "5941346469", "name": "Modern Hairdressing For Men", "other_tags": "\"shop\"=>\"hairdresser\",\"addr:city\"=>\"Leeds\",\"addr:street\"=>\"Thornton's Arcade\",\"addr:postcode\"=>\"LS1 6LQ\",\"addr:housenumber\"=>\"23\"" }, "geometry": { "type": "Point", "coordinates": [ -1.5430949, 53.7986606 ] } },
	{ "type": "Feature", "properties": { "osm_id": "5941346475", "name": "Steca", "other_tags": "\"shop\"=>\"hairdresser\",\"addr:city\"=>\"Leeds\",\"addr:street\"=>\"Thornton's Arcade\",\"addr:postcode\"=>\"LS1 6LQ\",\"addr:housenumber\"=>\"9\"" }, "geometry": { "type": "Point", "coordinates": [ -1.5426625, 53.7986188 ] } },
	{ "type": "Feature", "properties": { "osm_id": "5981576295", "name": "Gallery Barbers", "other_tags": "\"shop\"=>\"hairdresser\",\"addr:city\"=>\"Leeds\",\"addr:unit\"=>\"10-11\",\"addr:street\"=>\"Kirkgate\",\"addr:housename\"=>\"Kirkgate Market\"" }, "geometry": { "type": "Point", "coordinates": [ -1.5400222, 53.7972995 ] } },
	{ "type": "Feature", "properties": { "osm_id": "6001482099", "name": "Josephine Hair Braiding", "other_tags": "\"shop\"=>\"hairdresser\"" }, "geometry": { "type": "Point", "coordinates": [ -1.5381141, 53.7972987 ] } },
	{ "type": "Feature", "properties": { "osm_id": "6001482102", "name": "Josephine Hair Braiding", "other_tags": "\"shop\"=>\"hairdresser\"" }, "geometry": { "type": "Point", "coordinates": [ -1.5383542, 53.7975007 ] } },
	{ "type": "Feature", "properties": { "osm_id": "6001482110", "name": "Hair Station", "other_tags": "\"shop\"=>\"hairdresser\"" }, "geometry": { "type": "Point", "coordinates": [ -1.5380381, 53.797426 ] } },
	{ "type": "Feature", "properties": { "osm_id": "6001482111", "name": "Josephine Hair Braiding", "other_tags": "\"shop\"=>\"hairdresser\"" }, "geometry": { "type": "Point", "coordinates": [ -1.5379635, 53.7974234 ] } },
	{ "type": "Feature", "properties": { "osm_id": "6022850191", "name": "Sassoon Salon", "other_tags": "\"shop\"=>\"hairdresser\",\"addr:city\"=>\"Leeds\",\"addr:street\"=>\"Albion Street\",\"addr:postcode\"=>\"LS1 5AA\",\"addr:housename\"=>\"Pinnacle\",\"addr:housenumber\"=>\"57\"" }, "geometry": { "type": "Point", "coordinates": [ -1.5453547, 53.7977291 ] } },
	{ "type": "Feature", "properties": { "osm_id": "6022850231", "name": "King Koby", "other_tags": "\"shop\"=>\"hairdresser\",\"fhrs:id\"=>\"1207194\",\"addr:city\"=>\"Leeds\",\"addr:unit\"=>\"11\",\"addr:street\"=>\"Central Arcade\",\"addr:postcode\"=>\"LS1 6DX\"" }, "geometry": { "type": "Point", "coordinates": [ -1.5415286, 53.7963529 ] } },
	{ "type": "Feature", "properties": { "osm_id": "6022850394", "name": "Headcase", "other_tags": "\"shop\"=>\"hairdresser\"" }, "geometry": { "type": "Point", "coordinates": [ -1.5472953, 53.7958713 ] } },
	{ "type": "Feature", "properties": { "osm_id": "6033886289", "name": "King Koby Chop Shop", "other_tags": "\"shop\"=>\"hairdresser\",\"level\"=>\"0\",\"addr:city\"=>\"Leeds\",\"addr:street\"=>\"Call Lane\",\"addr:postcode\"=>\"LS1 7BR\",\"addr:housename\"=>\"Corn Exchange\"" }, "geometry": { "type": "Point", "coordinates": [ -1.5400241, 53.7957394 ] } },
	{ "type": "Feature", "properties": { "osm_id": "6033886291", "name": "Hive", "other_tags": "\"shop\"=>\"hairdresser\",\"level\"=>\"0\",\"website\"=>\"https:\/\/www.hivehairsalon.co.uk\/\",\"addr:city\"=>\"Leeds\",\"addr:street\"=>\"Call Lane\",\"addr:postcode\"=>\"LS1 7BR\",\"addr:housename\"=>\"Corn Exchange\"" }, "geometry": { "type": "Point", "coordinates": [ -1.5398435, 53.795868 ] } },
	{ "type": "Feature", "properties": { "osm_id": "6052531508", "name": "Supercuts", "other_tags": "\"shop\"=>\"hairdresser\",\"brand\"=>\"Supercuts\",\"brand:wikidata\"=>\"Q7643239\",\"brand:wikipedia\"=>\"en:Supercuts\"" }, "geometry": { "type": "Point", "coordinates": [ -1.5745479, 53.7580327 ] } },
	{ "type": "Feature", "properties": { "osm_id": "6052531617", "name": "Five Barbers", "other_tags": "\"shop\"=>\"hairdresser\",\"addr:city\"=>\"Leeds\",\"addr:street\"=>\"Church Street\",\"addr:suburb\"=>\"Hunslet\",\"addr:postcode\"=>\"LS10 2AR\",\"addr:housenumber\"=>\"86\"" }, "geometry": { "type": "Point", "coordinates": [ -1.5288135, 53.7784144 ] } },
	{ "type": "Feature", "properties": { "osm_id": "6052536859", "name": "Gentlemans Corner", "other_tags": "\"shop\"=>\"hairdresser\"" }, "geometry": { "type": "Point", "coordinates": [ -1.574517, 53.7603588 ] } },
	{ "type": "Feature", "properties": { "osm_id": "6092510506", "name": "Azmara Salon", "other_tags": "\"shop\"=>\"hairdresser\",\"addr:city\"=>\"Leeds\",\"addr:unit\"=>\"3\",\"addr:street\"=>\"Regent Street\",\"addr:postcode\"=>\"LS2 7QN\",\"addr:housename\"=>\"Citispace\",\"addr:housenumber\"=>\"11\"" }, "geometry": { "type": "Point", "coordinates": [ -1.533266, 53.8027909 ] } },
	{ "type": "Feature", "properties": { "osm_id": "6331294899", "name": "Studio 3", "other_tags": "\"shop\"=>\"hairdresser\",\"addr:city\"=>\"Bradford\",\"addr:street\"=>\"Bradford Road\",\"addr:suburb\"=>\"Drighlington\",\"addr:postcode\"=>\"BD11 1AS\",\"addr:housenumber\"=>\"3\"" }, "geometry": { "type": "Point", "coordinates": [ -1.6621757, 53.7567704 ] } },
	{ "type": "Feature", "properties": { "osm_id": "6331294925", "name": "Faces Hair", "other_tags": "\"shop\"=>\"hairdresser\",\"addr:city\"=>\"Leeds\",\"addr:street\"=>\"South Queen Street\",\"addr:suburb\"=>\"Morley\",\"addr:postcode\"=>\"LS27 9EW\",\"addr:housenumber\"=>\"10\"" }, "geometry": { "type": "Point", "coordinates": [ -1.5993798, 53.7427729 ] } },
	{ "type": "Feature", "properties": { "osm_id": "6331294927", "name": "The Mens Room", "other_tags": "\"shop\"=>\"hairdresser\"" }, "geometry": { "type": "Point", "coordinates": [ -1.5467575, 53.7215375 ] } },
	{ "type": "Feature", "properties": { "osm_id": "6331294928", "name": "Fusion Hair Studio", "other_tags": "\"shop\"=>\"hairdresser\"" }, "geometry": { "type": "Point", "coordinates": [ -1.5466757, 53.7215367 ] } },
	{ "type": "Feature", "properties": { "osm_id": "6348287943", "name": "Taylor's Hair Salon", "other_tags": "\"shop\"=>\"hairdresser\"" }, "geometry": { "type": "Point", "coordinates": [ -1.379613, 53.7838988 ] } },
	{ "type": "Feature", "properties": { "osm_id": "6349524087", "name": "Red Door Salon", "other_tags": "\"shop\"=>\"hairdresser\",\"level\"=>\"1\",\"addr:city\"=>\"Leeds\",\"addr:street\"=>\"New Briggate\",\"addr:postcode\"=>\"LS2 8JD\",\"addr:housenumber\"=>\"25\"" }, "geometry": { "type": "Point", "coordinates": [ -1.5417431, 53.7998469 ] } },
	{ "type": "Feature", "properties": { "osm_id": "6349524088", "name": "ISalon", "other_tags": "\"shop\"=>\"hairdresser\",\"addr:city\"=>\"Leeds\",\"addr:street\"=>\"New Briggate\",\"addr:postcode\"=>\"LS2 8JD\",\"addr:housenumber\"=>\"27\"" }, "geometry": { "type": "Point", "coordinates": [ -1.5417297, 53.7998683 ] } },
	{ "type": "Feature", "properties": { "osm_id": "6349524092", "name": "Mr Carter's", "other_tags": "\"shop\"=>\"hairdresser\",\"addr:city\"=>\"Leeds\",\"addr:street\"=>\"New Briggate\",\"addr:postcode\"=>\"LS2 8JD\",\"addr:housenumber\"=>\"47\"" }, "geometry": { "type": "Point", "coordinates": [ -1.5415125, 53.8001209 ] } },
	{ "type": "Feature", "properties": { "osm_id": "6387478655", "other_tags": "\"shop\"=>\"hairdresser\"" }, "geometry": { "type": "Point", "coordinates": [ -1.5402433, 53.7987145 ] } },
	{ "type": "Feature", "properties": { "osm_id": "6391235068", "name": "Prohibition Hair", "other_tags": "\"shop\"=>\"hairdresser\",\"level\"=>\"1\",\"addr:city\"=>\"Leeds\",\"addr:street\"=>\"The Headrow\",\"addr:postcode\"=>\"LS1 6PU\",\"addr:housenumber\"=>\"41\"" }, "geometry": { "type": "Point", "coordinates": [ -1.5416841, 53.7989257 ] } },
	{ "type": "Feature", "properties": { "osm_id": "6486646865", "name": "Istanbul Barber", "other_tags": "\"shop\"=>\"hairdresser\",\"addr:city\"=>\"Leeds\",\"addr:street\"=>\"Terminus Parade\",\"addr:postcode\"=>\"LS15 7JZ\",\"outdoor_seating\"=>\"yes\",\"addr:housenumber\"=>\"4\"" }, "geometry": { "type": "Point", "coordinates": [ -1.4528283, 53.8072436 ] } },
	{ "type": "Feature", "properties": { "osm_id": "6488022084", "name": "Shinx", "other_tags": "\"shop\"=>\"hairdresser\",\"addr:city\"=>\"Leeds\",\"addr:street\"=>\"Cross Gates Road\",\"addr:postcode\"=>\"LS15 7PB\",\"addr:housenumber\"=>\"131\"" }, "geometry": { "type": "Point", "coordinates": [ -1.4544323, 53.808563 ] } },
	{ "type": "Feature", "properties": { "osm_id": "6611619545", "name": "Jamnian One1", "other_tags": "\"shop\"=>\"hairdresser\",\"sells\"=>\"hairdresser;beauty\"" }, "geometry": { "type": "Point", "coordinates": [ -1.441359, 53.8179993 ] } },
	{ "type": "Feature", "properties": { "osm_id": "6702943713", "name": "3D Hair Design", "other_tags": "\"shop\"=>\"hairdresser\",\"addr:city\"=>\"Leeds\",\"addr:street\"=>\"Manston Approach\",\"addr:postcode\"=>\"LS15 8BQ\",\"addr:housenumber\"=>\"8\"" }, "geometry": { "type": "Point", "coordinates": [ -1.4476686, 53.8107611 ] } },
	{ "type": "Feature", "properties": { "osm_id": "6767661135", "name": "Brick Mill Barbers", "other_tags": "\"shop\"=>\"hairdresser\"" }, "geometry": { "type": "Point", "coordinates": [ -1.6604587, 53.7916128 ] } },
	{ "type": "Feature", "properties": { "osm_id": "6769233568", "name": "AK Barber", "other_tags": "\"shop\"=>\"hairdresser\"" }, "geometry": { "type": "Point", "coordinates": [ -1.5300232, 53.8028574 ] } },
	{ "type": "Feature", "properties": { "osm_id": "6769292591", "name": "Hair Xchange", "other_tags": "\"shop\"=>\"hairdresser\"" }, "geometry": { "type": "Point", "coordinates": [ -1.4407005, 53.7999812 ] } },
	{ "type": "Feature", "properties": { "osm_id": "6769292593", "name": "Linda's", "other_tags": "\"shop\"=>\"hairdresser\"" }, "geometry": { "type": "Point", "coordinates": [ -1.4405672, 53.7999044 ] } },
	{ "type": "Feature", "properties": { "osm_id": "6799053517", "other_tags": "\"shop\"=>\"hairdresser\"" }, "geometry": { "type": "Point", "coordinates": [ -1.561856, 53.8145241 ] } },
	{ "type": "Feature", "properties": { "osm_id": "6814620845", "name": "Sam's Barbers", "other_tags": "\"shop\"=>\"hairdresser\"" }, "geometry": { "type": "Point", "coordinates": [ -1.3852896, 53.9288081 ] } },
	{ "type": "Feature", "properties": { "osm_id": "6814624925", "name": "Unique", "other_tags": "\"shop\"=>\"hairdresser\"" }, "geometry": { "type": "Point", "coordinates": [ -1.3862817, 53.9281216 ] } },
	{ "type": "Feature", "properties": { "osm_id": "6814630561", "name": "Saks", "other_tags": "\"shop\"=>\"hairdresser\"" }, "geometry": { "type": "Point", "coordinates": [ -1.3858383, 53.9279552 ] } },
	{ "type": "Feature", "properties": { "osm_id": "6814634535", "name": "Wetherby Barbers", "other_tags": "\"shop\"=>\"hairdresser\"" }, "geometry": { "type": "Point", "coordinates": [ -1.3861801, 53.927787 ] } },
	{ "type": "Feature", "properties": { "osm_id": "6969267530", "name": "Rothwell Barber Shop", "other_tags": "\"shop\"=>\"hairdresser\"" }, "geometry": { "type": "Point", "coordinates": [ -1.4781466, 53.7484158 ] } },
	{ "type": "Feature", "properties": { "osm_id": "6969267534", "name": "McKenzie Barbers", "other_tags": "\"shop\"=>\"hairdresser\"" }, "geometry": { "type": "Point", "coordinates": [ -1.4802716, 53.748296 ] } },
	{ "type": "Feature", "properties": { "osm_id": "7063672138", "other_tags": "\"shop\"=>\"hairdresser\"" }, "geometry": { "type": "Point", "coordinates": [ -1.4968528, 53.8205142 ] } },
	{ "type": "Feature", "properties": { "osm_id": "7089250819", "name": "Peta Franklin", "other_tags": "\"shop\"=>\"hairdresser\"" }, "geometry": { "type": "Point", "coordinates": [ -1.455138, 53.8139766 ] } },
	{ "type": "Feature", "properties": { "osm_id": "7096633011", "name": "Zeenon Salon", "other_tags": "\"shop\"=>\"hairdresser\"" }, "geometry": { "type": "Point", "coordinates": [ -1.4932873, 53.8019455 ] } },
	{ "type": "Feature", "properties": { "osm_id": "7126021301", "name": "Mousie Browns", "other_tags": "\"shop\"=>\"hairdresser\",\"addr:city\"=>\"Leeds\",\"addr:street\"=>\"Station Road\",\"addr:suburb\"=>\"Horsforth\",\"addr:postcode\"=>\"LS18 5NR\",\"addr:housenumber\"=>\"58\"" }, "geometry": { "type": "Point", "coordinates": [ -1.6309229, 53.8469019 ] } },
	{ "type": "Feature", "properties": { "osm_id": "7141864932", "name": "Ash", "other_tags": "\"shop\"=>\"hairdresser\"" }, "geometry": { "type": "Point", "coordinates": [ -1.4696539, 53.7960836 ] } },
	{ "type": "Feature", "properties": { "osm_id": "7141864949", "name": "Barbers 271", "other_tags": "\"shop\"=>\"hairdresser\"" }, "geometry": { "type": "Point", "coordinates": [ -1.4691346, 53.796537 ] } },
	{ "type": "Feature", "properties": { "osm_id": "7141864955", "name": "Cerisse", "other_tags": "\"shop\"=>\"hairdresser\"" }, "geometry": { "type": "Point", "coordinates": [ -1.4702048, 53.7961091 ] } },
	{ "type": "Feature", "properties": { "osm_id": "7141864965", "name": "Lee's Salon", "other_tags": "\"shop\"=>\"hairdresser\"" }, "geometry": { "type": "Point", "coordinates": [ -1.4709075, 53.7960672 ] } },
	{ "type": "Feature", "properties": { "osm_id": "7141868813", "name": "Jack of All Shades", "other_tags": "\"shop\"=>\"hairdresser\"" }, "geometry": { "type": "Point", "coordinates": [ -1.4652075, 53.7990979 ] } },
	{ "type": "Feature", "properties": { "osm_id": "7141868814", "name": "Amour", "other_tags": "\"shop\"=>\"hairdresser\"" }, "geometry": { "type": "Point", "coordinates": [ -1.4652448, 53.7990696 ] } },
	{ "type": "Feature", "properties": { "osm_id": "7141868816", "name": "Kari Anne", "other_tags": "\"shop\"=>\"hairdresser\"" }, "geometry": { "type": "Point", "coordinates": [ -1.4651263, 53.7991587 ] } },
	{ "type": "Feature", "properties": { "osm_id": "7316190091", "other_tags": "\"shop\"=>\"hairdresser\"" }, "geometry": { "type": "Point", "coordinates": [ -1.6024187, 53.7455037 ] } },
	{ "type": "Feature", "properties": { "osm_id": "7549426927", "other_tags": "\"shop\"=>\"hairdresser\"" }, "geometry": { "type": "Point", "coordinates": [ -1.3946601, 53.8312113 ] } },
	{ "type": "Feature", "properties": { "osm_id": "7549426953", "name": "Barwick Barbers", "other_tags": "\"shop\"=>\"hairdresser\"" }, "geometry": { "type": "Point", "coordinates": [ -1.3947437, 53.8310154 ] } },
	{ "type": "Feature", "properties": { "osm_id": "7574984569", "name": "HQ Hair", "other_tags": "\"shop\"=>\"hairdresser\"" }, "geometry": { "type": "Point", "coordinates": [ -1.5497248, 53.845554 ] } },
	{ "type": "Feature", "properties": { "osm_id": "7575101681", "name": "Cest Chic", "other_tags": "\"shop\"=>\"hairdresser\"" }, "geometry": { "type": "Point", "coordinates": [ -1.5205871, 53.8559169 ] } },
	{ "type": "Feature", "properties": { "osm_id": "7699775085", "name": "Max Barbers", "other_tags": "\"shop\"=>\"hairdresser\",\"survey:date\"=>\"2020-07-09\"" }, "geometry": { "type": "Point", "coordinates": [ -1.5812986, 53.8197093 ] } },
	{ "type": "Feature", "properties": { "osm_id": "7699775286", "name": "Cutting Corners Barber Shop", "other_tags": "\"shop\"=>\"hairdresser\",\"survey:date\"=>\"2020-07-09\"" }, "geometry": { "type": "Point", "coordinates": [ -1.5805469, 53.8203038 ] } },
	{ "type": "Feature", "properties": { "osm_id": "7745186182", "name": "Shed", "other_tags": "\"shop\"=>\"hairdresser\"" }, "geometry": { "type": "Point", "coordinates": [ -1.3884982, 53.7959311 ] } },
	{ "type": "Feature", "properties": { "osm_id": "7837813421", "name": "Mr Men's", "other_tags": "\"addr:city\"=>\"Leeds\",\"addr:housenumber\"=>\"84\",\"addr:postcode\"=>\"LS20 8BH\",\"addr:street\"=>\"Otley Road\",\"male\"=>\"yes\",\"phone\"=>\"+44 1943 870 131\",\"shop\"=>\"hairdresser\",\"website\"=>\"https:\/\/booksy.com\/en-gb\/40773_mr-mens-barbers-guiseley_barber-shop_1470108_guiseley\"" }, "geometry": { "type": "Point", "coordinates": [ -1.7145564, 53.8745871 ] } },
	{ "type": "Feature", "properties": { "osm_id": "7869213640", "name": "1986 Hair Studio", "other_tags": "\"shop\"=>\"hairdresser\"" }, "geometry": { "type": "Point", "coordinates": [ -1.4450182, 53.8027719 ] } },
	{ "type": "Feature", "properties": { "osm_id": "7869213667", "name": "Station Barbers", "other_tags": "\"shop\"=>\"hairdresser\"" }, "geometry": { "type": "Point", "coordinates": [ -1.4526793, 53.8054812 ] } },
	{ "type": "Feature", "properties": { "osm_id": "7869213693", "name": "Wildest Dreams", "other_tags": "\"shop\"=>\"hairdresser\"" }, "geometry": { "type": "Point", "coordinates": [ -1.4523479, 53.8041552 ] } },
	{ "type": "Feature", "properties": { "osm_id": "7869213695", "name": "The Opposition", "other_tags": "\"shop\"=>\"hairdresser\"" }, "geometry": { "type": "Point", "coordinates": [ -1.4524955, 53.8045592 ] } },
	{ "type": "Feature", "properties": { "osm_id": "7890195152", "name": "Men only", "other_tags": "\"shop\"=>\"hairdresser\"" }, "geometry": { "type": "Point", "coordinates": [ -1.4527396, 53.8069437 ] } },
	{ "type": "Feature", "properties": { "osm_id": "7902894934", "name": "Two's Company", "other_tags": "\"shop\"=>\"hairdresser\"" }, "geometry": { "type": "Point", "coordinates": [ -1.4355339, 53.7959687 ] } },
	{ "type": "Feature", "properties": { "osm_id": "8064950474", "name": "Nova", "other_tags": "\"shop\"=>\"hairdresser\"" }, "geometry": { "type": "Point", "coordinates": [ -1.54731, 53.7477091 ] } },
	{ "type": "Feature", "properties": { "osm_id": "8065478159", "name": "Hair Infinity", "other_tags": "\"shop\"=>\"hairdresser\"" }, "geometry": { "type": "Point", "coordinates": [ -1.5332758, 53.7489001 ] } }
]
}
