{
"type": "FeatureCollection",
"crs": { "type": "name", "properties": { "name": "urn:ogc:def:crs:OGC:1.3:CRS84" } },
"features": [
	{ "type": "Feature", "properties": { "osm_id": "292238532", "name": "The Crop Shop", "other_tags": "\"addr:housenumber\"=>\"7\",\"phone\"=>\"+44 113 772 136\",\"shop\"=>\"hairdresser\"" }, "geometry": { "type": "Point", "coordinates": [ -1.5430904, 53.7770409 ] } },
	{ "type": "Feature", "properties": { "osm_id": "297118271", "name": "Fringes Hair Salon", "other_tags": "\"shop\"=>\"hairdresser\"" }, "geometry": { "type": "Point", "coordinates": [ -1.6492423, 53.8001966 ] } },
	{ "type": "Feature", "properties": { "osm_id": "302737774", "name": "Michael's Hair Fashions", "other_tags": "\"addr:city\"=>\"Leeds\",\"addr:housenumber\"=>\"147\",\"addr:postcode\"=>\"LS12 2RF\",\"addr:street\"=>\"Stanningley Road\",\"opening_hours\"=>\"Closed\",\"shop\"=>\"hairdresser\"" }, "geometry": { "type": "Point", "coordinates": [ -1.6138916, 53.8043203 ] } },
	{ "type": "Feature", "properties": { "osm_id": "302737810", "name": "Hands On Beauty", "other_tags": "\"shop\"=>\"hairdresser\"" }, "geometry": { "type": "Point", "coordinates": [ -1.6102209, 53.8047023 ] } },
	{ "type": "Feature", "properties": { "osm_id": "302868964", "name": "Carl & Paul Barber's", "other_tags": "\"shop\"=>\"hairdresser\"" }, "geometry": { "type": "Point", "coordinates": [ -1.6269417, 53.8057507 ] } },
	{ "type": "Feature", "properties": { "osm_id": "302868965", "name": "Beauty Box", "other_tags": "\"shop\"=>\"hairdresser\"" }, "geometry": { "type": "Point", "coordinates": [ -1.626859, 53.8057492 ] } },
	{ "type": "Feature", "properties": { "osm_id": "306328528", "name": "L Sixty-Five", "other_tags": "\"shop\"=>\"hairdresser\"" }, "geometry": { "type": "Point", "coordinates": [ -1.6088212, 53.7990734 ] } },
	{ "type": "Feature", "properties": { "osm_id": "313246917", "name": "Grades Barber", "other_tags": "\"shop\"=>\"hairdresser\"" }, "geometry": { "type": "Point", "coordinates": [ -1.5876678, 53.7973771 ] } },
	{ "type": "Feature", "properties": { "osm_id": "313246926", "name": "Hair", "other_tags": "\"shop\"=>\"hairdresser\"" }, "geometry": { "type": "Point", "coordinates": [ -1.5875694, 53.7977649 ] } },
	{ "type": "Feature", "properties": { "osm_id": "313246945", "name": "Sloanes Hair Design", "other_tags": "\"shop\"=>\"hairdresser\"" }, "geometry": { "type": "Point", "coordinates": [ -1.6028478, 53.8016519 ] } },
	{ "type": "Feature", "properties": { "osm_id": "319428951", "name": "Fazz's Barber Shop", "other_tags": "\"shop\"=>\"hairdresser\"" }, "geometry": { "type": "Point", "coordinates": [ -1.5678294, 53.8109069 ] } },
	{ "type": "Feature", "properties": { "osm_id": "319428958", "name": "Hussain Barbers", "other_tags": "\"shop\"=>\"hairdresser\"" }, "geometry": { "type": "Point", "coordinates": [ -1.5677153, 53.8118782 ] } },
	{ "type": "Feature", "properties": { "osm_id": "320998068", "name": "Ego", "other_tags": "\"shop\"=>\"hairdresser\"" }, "geometry": { "type": "Point", "coordinates": [ -1.5369688, 53.796211 ] } },
	{ "type": "Feature", "properties": { "osm_id": "330071180", "name": "The Barbers Shop", "other_tags": "\"shop\"=>\"hairdresser\"" }, "geometry": { "type": "Point", "coordinates": [ -1.5911309, 53.7965837 ] } },
	{ "type": "Feature", "properties": { "osm_id": "330089271", "name": "Renato Hair Design", "other_tags": "\"shop\"=>\"hairdresser\"" }, "geometry": { "type": "Point", "coordinates": [ -1.5926947, 53.7966301 ] } },
	{ "type": "Feature", "properties": { "osm_id": "331637215", "name": "Opal Hair & Beauty", "other_tags": "\"shop\"=>\"hairdresser\"" }, "geometry": { "type": "Point", "coordinates": [ -1.5890256, 53.7971597 ] } },
	{ "type": "Feature", "properties": { "osm_id": "331654381", "name": "Kwik Kutz", "other_tags": "\"shop\"=>\"hairdresser\"" }, "geometry": { "type": "Point", "coordinates": [ -1.5982944, 53.7964886 ] } },
	{ "type": "Feature", "properties": { "osm_id": "331654406", "name": "Hair Team", "other_tags": "\"shop\"=>\"hairdresser\"" }, "geometry": { "type": "Point", "coordinates": [ -1.5971802, 53.796843 ] } },
	{ "type": "Feature", "properties": { "osm_id": "331654409", "name": "K's Cuts", "other_tags": "\"shop\"=>\"hairdresser\"" }, "geometry": { "type": "Point", "coordinates": [ -1.6012011, 53.7976797 ] } },
	{ "type": "Feature", "properties": { "osm_id": "332329795", "name": "Funct", "other_tags": "\"shop\"=>\"hairdresser\"" }, "geometry": { "type": "Point", "coordinates": [ -1.5786142, 53.8209745 ] } },
	{ "type": "Feature", "properties": { "osm_id": "332484045", "name": "Spirals", "other_tags": "\"addr:city\"=>\"Leeds\",\"addr:housenumber\"=>\"93\",\"addr:postcode\"=>\"LS7 2PR\",\"addr:street\"=>\"Stainbeck Road\",\"addr:suburb\"=>\"Meanwood\",\"shop\"=>\"hairdresser\"" }, "geometry": { "type": "Point", "coordinates": [ -1.5555962, 53.8310901 ] } },
	{ "type": "Feature", "properties": { "osm_id": "332484046", "name": "RedX Hair & Beauty Studio", "other_tags": "\"addr:city\"=>\"Leeds\",\"addr:housenumber\"=>\"101\",\"addr:postcode\"=>\"LS7 2PR\",\"addr:street\"=>\"Stainbeck Road\",\"addr:suburb\"=>\"Meanwood\",\"shop\"=>\"hairdresser\"" }, "geometry": { "type": "Point", "coordinates": [ -1.5552733, 53.8311632 ] } },
	{ "type": "Feature", "properties": { "osm_id": "333452846", "name": "Boris & Co", "other_tags": "\"addr:city\"=>\"Leeds\",\"addr:housenumber\"=>\"165\",\"addr:postcode\"=>\"LS1 6LY\",\"addr:street\"=>\"Lower Briggate\",\"shop\"=>\"hairdresser\",\"website\"=>\"https:\/\/www.borisandco.co.uk\/\"" }, "geometry": { "type": "Point", "coordinates": [ -1.5423603, 53.7952068 ] } },
	{ "type": "Feature", "properties": { "osm_id": "334884434", "name": "Charles Lewis", "other_tags": "\"shop\"=>\"hairdresser\"" }, "geometry": { "type": "Point", "coordinates": [ -1.5837866, 53.8068525 ] } },
	{ "type": "Feature", "properties": { "osm_id": "340071334", "name": "Trendline", "other_tags": "\"shop\"=>\"hairdresser\"" }, "geometry": { "type": "Point", "coordinates": [ -1.6325048, 53.8140469 ] } },
	{ "type": "Feature", "properties": { "osm_id": "342579639", "name": "Halo Hair", "other_tags": "\"shop\"=>\"hairdresser\",\"addr:city\"=>\"Leeds\",\"addr:street\"=>\"Cherry Tree Walk\"" }, "geometry": { "type": "Point", "coordinates": [ -1.540457, 53.7951648 ] } },
	{ "type": "Feature", "properties": { "osm_id": "342601289", "other_tags": "\"shop\"=>\"hairdresser\"" }, "geometry": { "type": "Point", "coordinates": [ -1.5396851, 53.8004131 ] } },
	{ "type": "Feature", "properties": { "osm_id": "342601307", "name": "Nicholas Jane Hairdressing", "other_tags": "\"shop\"=>\"hairdresser\"" }, "geometry": { "type": "Point", "coordinates": [ -1.5416613, 53.8002125 ] } },
	{ "type": "Feature", "properties": { "osm_id": "343136577", "name": "Flying Scissors", "other_tags": "\"shop\"=>\"hairdresser\"" }, "geometry": { "type": "Point", "coordinates": [ -1.6165613, 53.7960765 ] } },
	{ "type": "Feature", "properties": { "osm_id": "349343400", "name": "studio 47", "other_tags": "\"shop\"=>\"hairdresser\"" }, "geometry": { "type": "Point", "coordinates": [ -1.6323782, 53.8110126 ] } },
	{ "type": "Feature", "properties": { "osm_id": "349352562", "name": "Short-Topz", "other_tags": "\"shop\"=>\"hairdresser\"" }, "geometry": { "type": "Point", "coordinates": [ -1.6361946, 53.8064764 ] } },
	{ "type": "Feature", "properties": { "osm_id": "349352565", "name": "Luxe", "other_tags": "\"shop\"=>\"hairdresser\",\"website\"=>\"http:\/\/luxesalon.co.uk\/\",\"old_name\"=>\"paul michael\"" }, "geometry": { "type": "Point", "coordinates": [ -1.6359624, 53.8065069 ] } },
	{ "type": "Feature", "properties": { "osm_id": "352871293", "name": "Architect Hair", "other_tags": "\"shop\"=>\"hairdresser\"" }, "geometry": { "type": "Point", "coordinates": [ -1.5745416, 53.8146231 ] } },
	{ "type": "Feature", "properties": { "osm_id": "353922332", "name": "Mega City One", "other_tags": "\"shop\"=>\"hairdresser\"" }, "geometry": { "type": "Point", "coordinates": [ -1.5520273, 53.8082314 ] } },
	{ "type": "Feature", "properties": { "osm_id": "356074100", "name": "Rhubarb Hair Design", "other_tags": "\"addr:city\"=>\"Leeds\",\"addr:postcode\"=>\"LS12 5AA\",\"addr:street\"=>\"Cross Lane\",\"shop\"=>\"hairdresser\"" }, "geometry": { "type": "Point", "coordinates": [ -1.6194725, 53.7871703 ] } },
	{ "type": "Feature", "properties": { "osm_id": "357751948", "name": "Box", "other_tags": "\"shop\"=>\"hairdresser\"" }, "geometry": { "type": "Point", "coordinates": [ -1.5424704, 53.7945715 ] } },
	{ "type": "Feature", "properties": { "osm_id": "364458778", "name": "Mr Smiths Barbershop", "other_tags": "\"addr:housenumber\"=>\"154a\",\"addr:postcode\"=>\"LS26 8SF\",\"addr:street\"=>\"Holmesly Lane\",\"shop\"=>\"hairdresser\"" }, "geometry": { "type": "Point", "coordinates": [ -1.4646894, 53.7556447 ] } },
	{ "type": "Feature", "properties": { "osm_id": "382692532", "name": "Beechwood Hair Studio", "other_tags": "\"shop\"=>\"hairdresser\"" }, "geometry": { "type": "Point", "coordinates": [ -1.6758514, 53.8055588 ] } },
	{ "type": "Feature", "properties": { "osm_id": "392007372", "name": "Hussain Hairdresser", "other_tags": "\"shop\"=>\"hairdresser\"" }, "geometry": { "type": "Point", "coordinates": [ -1.5494162, 53.7737286 ] } },
	{ "type": "Feature", "properties": { "osm_id": "392047410", "name": "Denise's", "other_tags": "\"shop\"=>\"hairdresser\"" }, "geometry": { "type": "Point", "coordinates": [ -1.5554434, 53.7774645 ] } },
	{ "type": "Feature", "properties": { "osm_id": "405211386", "other_tags": "\"shop\"=>\"hairdresser\"" }, "geometry": { "type": "Point", "coordinates": [ -1.5528388, 53.7763642 ] } },
	{ "type": "Feature", "properties": { "osm_id": "430953147", "name": "Hair Lounge", "other_tags": "\"shop\"=>\"hairdresser\"" }, "geometry": { "type": "Point", "coordinates": [ -1.6009914, 53.7835957 ] } },
	{ "type": "Feature", "properties": { "osm_id": "538870441", "name": "Chevin Barber", "other_tags": "\"shop\"=>\"hairdresser\",\"telephone\"=>\"01943 468846\",\"hairdresser\"=>\"men\"" }, "geometry": { "type": "Point", "coordinates": [ -1.6927884, 53.904489 ] } },
	{ "type": "Feature", "properties": { "osm_id": "886569595", "name": "Trim And Proper", "other_tags": "\"shop\"=>\"hairdresser\"" }, "geometry": { "type": "Point", "coordinates": [ -1.53854, 53.830504 ] } },
	{ "type": "Feature", "properties": { "osm_id": "1221670544", "name": "Strands Hair Salon", "other_tags": "\"addr:city\"=>\"Leeds\",\"addr:housenumber\"=>\"203\",\"addr:postcode\"=>\"LS18 5BS\",\"addr:street\"=>\"Broadgate Lane\",\"addr:suburb\"=>\"Horsforth\",\"opening_hours\"=>\"Mo-Sa 09:00-18:00; Su Closed\",\"operator\"=>\"Cath Bishop\",\"shop\"=>\"hairdresser\"" }, "geometry": { "type": "Point", "coordinates": [ -1.6367964, 53.8401062 ] } },
	{ "type": "Feature", "properties": { "osm_id": "1251742960", "name": "Prosenium", "other_tags": "\"shop\"=>\"hairdresser\"" }, "geometry": { "type": "Point", "coordinates": [ -1.6521821, 53.8095903 ] } },
	{ "type": "Feature", "properties": { "osm_id": "1406386709", "name": "Lez Robinz", "other_tags": "\"shop\"=>\"hairdresser\"" }, "geometry": { "type": "Point", "coordinates": [ -1.5856825, 53.8074839 ] } },
	{ "type": "Feature", "properties": { "osm_id": "1859541299", "name": "E.K.One Hairdressing", "other_tags": "\"shop\"=>\"hairdresser\"" }, "geometry": { "type": "Point", "coordinates": [ -1.4512384, 53.8931112 ] } },
	{ "type": "Feature", "properties": { "osm_id": "2072972461", "name": "Martin's", "other_tags": "\"shop\"=>\"hairdresser\"" }, "geometry": { "type": "Point", "coordinates": [ -1.5619478, 53.7641991 ] } },
	{ "type": "Feature", "properties": { "osm_id": "2072972464", "name": "Profile Hair Studio", "other_tags": "\"shop\"=>\"hairdresser\"" }, "geometry": { "type": "Point", "coordinates": [ -1.5617216, 53.7646906 ] } },
	{ "type": "Feature", "properties": { "osm_id": "2073006178", "name": "Razers", "other_tags": "\"shop\"=>\"hairdresser\"" }, "geometry": { "type": "Point", "coordinates": [ -1.5556273, 53.7672792 ] } },
	{ "type": "Feature", "properties": { "osm_id": "2117006487", "other_tags": "\"shop\"=>\"hairdresser\"" }, "geometry": { "type": "Point", "coordinates": [ -1.5286777, 53.778838 ] } },
	{ "type": "Feature", "properties": { "osm_id": "2124265334", "name": "Sketch Hair", "other_tags": "\"shop\"=>\"hairdresser\"" }, "geometry": { "type": "Point", "coordinates": [ -1.5455446, 53.7952958 ] } },
	{ "type": "Feature", "properties": { "osm_id": "2125610521", "name": "Just Men", "other_tags": "\"shop\"=>\"hairdresser\"" }, "geometry": { "type": "Point", "coordinates": [ -1.5379817, 53.7965878 ] } },
	{ "type": "Feature", "properties": { "osm_id": "2128107730", "name": "Prague Hair Salon", "other_tags": "\"shop\"=>\"hairdresser\"" }, "geometry": { "type": "Point", "coordinates": [ -1.5401195, 53.7970888 ] } },
	{ "type": "Feature", "properties": { "osm_id": "2138746302", "name": "Hair", "other_tags": "\"shop\"=>\"hairdresser\"" }, "geometry": { "type": "Point", "coordinates": [ -1.5413191, 53.7974686 ] } },
	{ "type": "Feature", "properties": { "osm_id": "2144729451", "name": "Remedy", "other_tags": "\"addr:city\"=>\"Leeds\",\"addr:housenumber\"=>\"16\",\"addr:postcode\"=>\"LS1 6NU\",\"addr:street\"=>\"New Briggate\",\"shop\"=>\"hairdresser\"" }, "geometry": { "type": "Point", "coordinates": [ -1.5416596, 53.7994476 ] } },
	{ "type": "Feature", "properties": { "osm_id": "2353519756", "name": "Steca's Barber Shop", "other_tags": "\"shop\"=>\"hairdresser\",\"addr:street\"=>\"New Inn Court\",\"hairdresser\"=>\"men\"" }, "geometry": { "type": "Point", "coordinates": [ -1.6938876, 53.9049909 ] } },
	{ "type": "Feature", "properties": { "osm_id": "2353558014", "name": "In Dimensions", "other_tags": "\"shop\"=>\"hairdresser\",\"addr:street\"=>\"Kirkgate\",\"hairdresser\"=>\"unisex\"" }, "geometry": { "type": "Point", "coordinates": [ -1.693893, 53.9043652 ] } },
	{ "type": "Feature", "properties": { "osm_id": "2353725351", "name": "Debutante", "other_tags": "\"shop\"=>\"hairdresser\",\"addr:city\"=>\"Otley\",\"telephone\"=>\"01943 462996\",\"is_in:town\"=>\"Otley\",\"addr:street\"=>\"Newmarket\"" }, "geometry": { "type": "Point", "coordinates": [ -1.6930776, 53.9048013 ] } },
	{ "type": "Feature", "properties": { "osm_id": "2353725354", "name": "Daniyal Baig", "other_tags": "\"shop\"=>\"hairdresser\",\"addr:city\"=>\"Otley\",\"is_in:town\"=>\"Otley\",\"addr:street\"=>\"Newmarket\",\"addr:postcode\"=>\"LS21 3AE\",\"addr:housenumber\"=>\"26\"" }, "geometry": { "type": "Point", "coordinates": [ -1.6930829, 53.9048393 ] } },
	{ "type": "Feature", "properties": { "osm_id": "2408752468", "name": "Scissor Sisters", "other_tags": "\"shop\"=>\"hairdresser\"" }, "geometry": { "type": "Point", "coordinates": [ -1.5673558, 53.8292784 ] } },
	{ "type": "Feature", "properties": { "osm_id": "2408752499", "name": "Chaplins", "other_tags": "\"shop\"=>\"hairdresser\"" }, "geometry": { "type": "Point", "coordinates": [ -1.5665768, 53.8285538 ] } },
	{ "type": "Feature", "properties": { "osm_id": "2430356591", "name": "Tonic", "other_tags": "\"addr:city\"=>\"Leeds\",\"addr:housenumber\"=>\"12B\",\"addr:postcode\"=>\"LS18 4RJ\",\"addr:street\"=>\"Town Street\",\"addr:suburb\"=>\"Horsforth\",\"opening_hours\"=>\"Mo-Fr 10:00-19:00; Sa 10:00-18:00\",\"phone\"=>\"+44 113 258 8841\",\"shop\"=>\"hairdresser\"" }, "geometry": { "type": "Point", "coordinates": [ -1.641932, 53.8369739 ] } },
	{ "type": "Feature", "properties": { "osm_id": "2556966316", "name": "Chris Wallbank Hairdressing", "other_tags": "\"shop\"=>\"hairdresser\"" }, "geometry": { "type": "Point", "coordinates": [ -1.7124433, 53.873898 ] } },
	{ "type": "Feature", "properties": { "osm_id": "2952382428", "name": "Cissis Barbers", "other_tags": "\"shop\"=>\"hairdresser\"" }, "geometry": { "type": "Point", "coordinates": [ -1.5695163, 53.8271596 ] } },
	{ "type": "Feature", "properties": { "osm_id": "3057112834", "name": "Yazz Number One Hair Studio", "other_tags": "\"addr:city\"=>\"Yeadon\",\"addr:housename\"=>\"LA Fitness Health Club\",\"addr:postcode\"=>\"LS19 7EN\",\"addr:street\"=>\"Haworth Lane\",\"opening_hours\"=>\"Mo,Su off; Tu,Fr 09:00-18:00; We,Th 09:00-20:00; Sa 09:00-16:00\",\"phone\"=>\"+44 113 391 0888\",\"shop\"=>\"hairdresser\",\"website\"=>\"http:\/\/www.yazzhair.co\/yazz-yeadon-salon\/\",\"wheelchair\"=>\"no\"" }, "geometry": { "type": "Point", "coordinates": [ -1.6887141, 53.8669423 ] } },
	{ "type": "Feature", "properties": { "osm_id": "3057247698", "name": "Yazz Number One Hair Salon", "other_tags": "\"addr:city\"=>\"Guiseley\",\"addr:housenumber\"=>\"14\",\"addr:postcode\"=>\"LS20 8AH\",\"addr:street\"=>\"Otley Road\",\"opening_hours\"=>\"Monday: Closed, Tuesday: 9:00 to 6:00, Wednesday: 9:00 to 6:00, Thursday: 9:00 to 8:00, Friday: 9:00 to 6:00, Saturday: 9:00 to 4:00, Sunday: Closed\",\"phone\"=>\"+44 1943 870 333\",\"shop\"=>\"hairdresser\",\"website\"=>\"http:\/\/www.yazzhair.co\/yazz-guiseley-salon\/\"" }, "geometry": { "type": "Point", "coordinates": [ -1.7096025, 53.8727231 ] } },
	{ "type": "Feature", "properties": { "osm_id": "3073182158", "name": "Verity's Hair Salon", "other_tags": "\"addr:city\"=>\"Farsley\",\"addr:housenumber\"=>\"1\",\"addr:street\"=>\"Town Street\",\"shop\"=>\"hairdresser\"" }, "geometry": { "type": "Point", "coordinates": [ -1.6723754, 53.8112178 ] } },
	{ "type": "Feature", "properties": { "osm_id": "3191671108", "name": "The Salon", "other_tags": "\"shop\"=>\"hairdresser\"" }, "geometry": { "type": "Point", "coordinates": [ -1.7252432, 53.87655 ] } },
	{ "type": "Feature", "properties": { "osm_id": "3222634963", "name": "Silver", "other_tags": "\"shop\"=>\"hairdresser\"" }, "geometry": { "type": "Point", "coordinates": [ -1.5610983, 53.8147955 ] } },
	{ "type": "Feature", "properties": { "osm_id": "3222635461", "name": "Hair Angels", "other_tags": "\"shop\"=>\"hairdresser\",\"opening_hours\"=>\"Mo - Fr 10:00 - 18:00, Sa 10:00 - 16:00\"" }, "geometry": { "type": "Point", "coordinates": [ -1.5611638, 53.8145648 ] } },
	{ "type": "Feature", "properties": { "osm_id": "3225905507", "name": "Hair Creative Cutting", "other_tags": "\"shop\"=>\"hairdresser\"" }, "geometry": { "type": "Point", "coordinates": [ -1.5759844, 53.8120772 ] } },
	{ "type": "Feature", "properties": { "osm_id": "3225929666", "name": "Kiren's Hair & Beauty", "other_tags": "\"shop\"=>\"hairdresser\"" }, "geometry": { "type": "Point", "coordinates": [ -1.5735376, 53.8111902 ] } },
	{ "type": "Feature", "properties": { "osm_id": "3225929772", "name": "Philip Jons", "other_tags": "\"shop\"=>\"hairdresser\"" }, "geometry": { "type": "Point", "coordinates": [ -1.5758715, 53.8118885 ] } },
	{ "type": "Feature", "properties": { "osm_id": "3300696422", "name": "Regis", "other_tags": "\"shop\"=>\"hairdresser\"" }, "geometry": { "type": "Point", "coordinates": [ -1.5454856, 53.7959256 ] } },
	{ "type": "Feature", "properties": { "osm_id": "3600588639", "name": "C02 Beauty", "other_tags": "\"addr:city\"=>\"Leeds\",\"addr:housenumber\"=>\"8\",\"addr:postcode\"=>\"LS8 1LW\",\"addr:street\"=>\"Chandos Gardens\",\"phone\"=>\"+44 113 269 5392\",\"shop\"=>\"hairdresser\"" }, "geometry": { "type": "Point", "coordinates": [ -1.5208875, 53.8345825 ] } },
	{ "type": "Feature", "properties": { "osm_id": "3626078174", "name": "Mirror Mirror", "other_tags": "\"shop\"=>\"hairdresser\"" }, "geometry": { "type": "Point", "coordinates": [ -1.6164603, 53.8284395 ] } },
	{ "type": "Feature", "properties": { "osm_id": "3715263091", "name": "Limeys Barber Shop", "other_tags": "\"addr:city\"=>\"Rawdon\",\"addr:housenumber\"=>\"28\",\"addr:postcode\"=>\"LS19 6HJ\",\"addr:street\"=>\"Harrogate Road\",\"phone\"=>\"+44 7834 317 282\",\"shop\"=>\"hairdresser\"" }, "geometry": { "type": "Point", "coordinates": [ -1.6842263, 53.8543839 ] } },
	{ "type": "Feature", "properties": { "osm_id": "3715263115", "name": "Samantha Hair Beauty Nails", "other_tags": "\"addr:city\"=>\"Rawdon\",\"addr:housenumber\"=>\"14\",\"addr:postcode\"=>\"LS19 6HJ\",\"addr:street\"=>\"Harrogate Road\",\"phone\"=>\"+44 113 250 9500\",\"shop\"=>\"hairdresser\"" }, "geometry": { "type": "Point", "coordinates": [ -1.684458, 53.8537029 ] } },
	{ "type": "Feature", "properties": { "osm_id": "3715292793", "name": "Definition Hair Design", "other_tags": "\"addr:city\"=>\"Rawdon\",\"addr:housenumber\"=>\"3\",\"addr:postcode\"=>\"LS19 6HW\",\"addr:street\"=>\"Harrogate Road\",\"phone\"=>\"+44 113 250 7139\",\"shop\"=>\"hairdresser\",\"website\"=>\"www.definitionhairdesign.co.uk\"" }, "geometry": { "type": "Point", "coordinates": [ -1.684889, 53.8535926 ] } },
	{ "type": "Feature", "properties": { "osm_id": "3715344951", "name": "Bijou Hair", "other_tags": "\"addr:city\"=>\"Rawdon\",\"addr:postcode\"=>\"LS19 6AX\",\"addr:street\"=>\"Leeds Road\",\"phone\"=>\"+44 113 250 4428\",\"shop\"=>\"hairdresser\"" }, "geometry": { "type": "Point", "coordinates": [ -1.6846622, 53.8524805 ] } },
	{ "type": "Feature", "properties": { "osm_id": "3716749538", "name": "Stiff Hairdressers", "other_tags": "\"addr:city\"=>\"Yeadon\",\"addr:housenumber\"=>\"131\",\"addr:postcode\"=>\"LS19 7TA\",\"addr:street\"=>\"High Street\",\"phone\"=>\"+44 113 250 5516\",\"shop\"=>\"hairdresser\"" }, "geometry": { "type": "Point", "coordinates": [ -1.6771306, 53.8653923 ] } },
	{ "type": "Feature", "properties": { "osm_id": "3716749539", "name": "John Ollen", "other_tags": "\"shop\"=>\"hairdresser\",\"addr:city\"=>\"Yeadon\",\"addr:street\"=>\"High Street\",\"addr:postcode\"=>\"LS19 7TA\"" }, "geometry": { "type": "Point", "coordinates": [ -1.6771773, 53.8654295 ] } },
	{ "type": "Feature", "properties": { "osm_id": "3716852675", "name": "Tribe Hairdressing", "other_tags": "\"addr:city\"=>\"Yeadon\",\"addr:housenumber\"=>\"107\",\"addr:postcode\"=>\"LS19 7TA\",\"addr:street\"=>\"High Street\",\"phone\"=>\"+44 113 250 3105\",\"shop\"=>\"hairdresser\",\"website\"=>\"www.tribeleeds.co.uk\"" }, "geometry": { "type": "Point", "coordinates": [ -1.6787622, 53.8660839 ] } },
	{ "type": "Feature", "properties": { "osm_id": "3716852687", "name": "Gary's Barber Shop", "other_tags": "\"addr:city\"=>\"Yeadon\",\"addr:housenumber\"=>\"99\",\"addr:postcode\"=>\"LS19 7TA\",\"addr:street\"=>\"High Street\",\"phone\"=>\"+44 7795 088068\",\"shop\"=>\"hairdresser\"" }, "geometry": { "type": "Point", "coordinates": [ -1.6791214, 53.8661486 ] } },
	{ "type": "Feature", "properties": { "osm_id": "3716852689", "name": "A.L.F. Hair Design", "other_tags": "\"addr:city\"=>\"Yeadon\",\"addr:housenumber\"=>\"91\",\"addr:postcode\"=>\"LS19 7TA\",\"addr:street\"=>\"High Street\",\"phone\"=>\"+44 113 250 6757\",\"shop\"=>\"hairdresser\"" }, "geometry": { "type": "Point", "coordinates": [ -1.6793426, 53.8661904 ] } },
	{ "type": "Feature", "properties": { "osm_id": "3716870616", "other_tags": "\"addr:city\"=>\"Yeadon\",\"addr:housenumber\"=>\"83a\",\"addr:street\"=>\"High Street\",\"phone\"=>\"+44 7538 101507\",\"shop\"=>\"hairdresser\"" }, "geometry": { "type": "Point", "coordinates": [ -1.6799195, 53.8662958 ] } },
	{ "type": "Feature", "properties": { "osm_id": "3716883310", "name": "Red", "other_tags": "\"addr:city\"=>\"Yeadon\",\"addr:housenumber\"=>\"58\",\"addr:postcode\"=>\"LS19 7PP\",\"addr:street\"=>\"High Street\",\"phone\"=>\"+44 113 250 9479\",\"shop\"=>\"hairdresser\",\"website\"=>\"www.red-hair.co.uk\"" }, "geometry": { "type": "Point", "coordinates": [ -1.6805193, 53.8661471 ] } },
	{ "type": "Feature", "properties": { "osm_id": "3716915900", "name": "LA's Hair Studios", "other_tags": "\"addr:city\"=>\"Yeadon\",\"addr:housenumber\"=>\"10\",\"addr:postcode\"=>\"LS19 7QP\",\"addr:street\"=>\"Harper Lane\",\"phone\"=>\"+44 113 250 2460\",\"shop\"=>\"hairdresser\"" }, "geometry": { "type": "Point", "coordinates": [ -1.6819906, 53.8656718 ] } },
	{ "type": "Feature", "properties": { "osm_id": "3716946417", "name": "Yeadon Barber", "other_tags": "\"shop\"=>\"hairdresser\"" }, "geometry": { "type": "Point", "coordinates": [ -1.6825865, 53.8662322 ] } },
	{ "type": "Feature", "properties": { "osm_id": "3716946418", "name": "Salon 65", "other_tags": "\"addr:city\"=>\"Yeadon\",\"addr:housenumber\"=>\"65\",\"addr:postcode\"=>\"LS19 7SP\",\"addr:street\"=>\"High Street\",\"phone\"=>\"+44 113 250 9498\",\"shop\"=>\"hairdresser\"" }, "geometry": { "type": "Point", "coordinates": [ -1.6826577, 53.8662214 ] } },
	{ "type": "Feature", "properties": { "osm_id": "3718205542", "name": "Nu Style Unisex Hair Salon", "other_tags": "\"addr:city\"=>\"Yeadon\",\"addr:housenumber\"=>\"33\",\"addr:postcode\"=>\"LS19 7SP\",\"addr:street\"=>\"High Street\",\"phone\"=>\"+44 113 210 2731\",\"shop\"=>\"hairdresser\"" }, "geometry": { "type": "Point", "coordinates": [ -1.6843011, 53.8662407 ] } },
	{ "type": "Feature", "properties": { "osm_id": "3718213175", "name": "Room 11", "other_tags": "\"addr:city\"=>\"Yeadon\",\"addr:housenumber\"=>\"11\",\"addr:postcode\"=>\"LS19 7SP\",\"addr:street\"=>\"High Street\",\"phone\"=>\"+44 113 250 2342\",\"shop\"=>\"hairdresser\"" }, "geometry": { "type": "Point", "coordinates": [ -1.6851065, 53.8661319 ] } },
	{ "type": "Feature", "properties": { "osm_id": "3718231086", "name": "Kirsty's Hair Diffusione", "other_tags": "\"addr:city\"=>\"Yeadon\",\"addr:housenumber\"=>\"6\",\"addr:postcode\"=>\"LS19 7PP\",\"addr:street\"=>\"High Street\",\"phone\"=>\"+44 113 250 3822\",\"shop\"=>\"hairdresser\"" }, "geometry": { "type": "Point", "coordinates": [ -1.6852742, 53.8659342 ] } },
	{ "type": "Feature", "properties": { "osm_id": "3718444414", "name": "Big Al's Barber Shop", "other_tags": "\"shop\"=>\"hairdresser\",\"addr:city\"=>\"Yeadon\",\"addr:street\"=>\"High Street\",\"addr:postcode\"=>\"LS19 7PP\",\"addr:housenumber\"=>\"18\"" }, "geometry": { "type": "Point", "coordinates": [ -1.683695, 53.8660399 ] } },
	{ "type": "Feature", "properties": { "osm_id": "3718469497", "name": "Originals Hair Salon", "other_tags": "\"addr:city\"=>\"Yeadon\",\"addr:housenumber\"=>\"8\",\"addr:postcode\"=>\"LS19 7EQ\",\"addr:street\"=>\"Town Street\",\"phone\"=>\"+44 113 202 9493\",\"shop\"=>\"hairdresser\"" }, "geometry": { "type": "Point", "coordinates": [ -1.6859775, 53.8660379 ] } },
	{ "type": "Feature", "properties": { "osm_id": "3718469500", "name": "Mirror Mirror", "other_tags": "\"addr:city\"=>\"Yeadon\",\"addr:housenumber\"=>\"15\",\"addr:postcode\"=>\"LS19 7EQ\",\"addr:street\"=>\"Town Street\",\"phone\"=>\"+44 7585 807091\",\"shop\"=>\"hairdresser\"" }, "geometry": { "type": "Point", "coordinates": [ -1.6863395, 53.8658672 ] } },
	{ "type": "Feature", "properties": { "osm_id": "3718505648", "name": "Hair La Mode", "other_tags": "\"addr:city\"=>\"Yeadon\",\"addr:housenumber\"=>\"12\",\"addr:postcode\"=>\"LS19 7EW\",\"addr:street\"=>\"Sandy Way\",\"phone\"=>\"+44 113 250 8512\",\"shop\"=>\"hairdresser\"" }, "geometry": { "type": "Point", "coordinates": [ -1.6865021, 53.8656907 ] } },
	{ "type": "Feature", "properties": { "osm_id": "3777443923", "name": "The Barbers Shop", "other_tags": "\"shop\"=>\"hairdresser\"" }, "geometry": { "type": "Point", "coordinates": [ -1.6633405, 53.7965556 ] } },
	{ "type": "Feature", "properties": { "osm_id": "3813294644", "name": "City Smart", "other_tags": "\"female\"=>\"no\",\"male\"=>\"yes\",\"phone\"=>\"+44 113 274 3366\",\"shop\"=>\"hairdresser\"" }, "geometry": { "type": "Point", "coordinates": [ -1.5664753, 53.8278449 ] } },
	{ "type": "Feature", "properties": { "osm_id": "3832991733", "name": "La Boutique", "other_tags": "\"shop\"=>\"hairdresser\",\"telephone\"=>\"01132842607\"" }, "geometry": { "type": "Point", "coordinates": [ -1.622798, 53.8850599 ] } },
	{ "type": "Feature", "properties": { "osm_id": "3887784698", "name": "Stacey Wright", "other_tags": "\"addr:city\"=>\"Leeds\",\"addr:housenumber\"=>\"94\",\"addr:postcode\"=>\"LS18 4AP\",\"addr:street\"=>\"Town Street\",\"addr:suburb\"=>\"Horsforth\",\"phone\"=>\"+44 113 258 9186\",\"shop\"=>\"hairdresser\",\"website\"=>\"https:\/\/www.facebook.com\/Stacey-Wright-Hair-by-Design-horsforth-town-street-115230598576226\/\"" }, "geometry": { "type": "Point", "coordinates": [ -1.6384627, 53.839284 ] } },
	{ "type": "Feature", "properties": { "osm_id": "3887830123", "name": "Auriole Hair Salon", "other_tags": "\"addr:city\"=>\"Leeds\",\"addr:housenumber\"=>\"85D\",\"addr:postcode\"=>\"LS18 5BP\",\"addr:street\"=>\"Town Street\",\"addr:suburb\"=>\"Horsforth\",\"opening_hours\"=>\"Tu-Fr 09:30-18:00; Sa 08:00-16:00; Su-Mo Closed\",\"phone\"=>\"+44 113 259 0912\",\"shop\"=>\"hairdresser\",\"website\"=>\"http:\/\/www.auriolehair.co.uk\/\"" }, "geometry": { "type": "Point", "coordinates": [ -1.6393935, 53.8389018 ] } },
	{ "type": "Feature", "properties": { "osm_id": "3887830144", "name": "Squire", "other_tags": "\"addr:city\"=>\"Leeds\",\"addr:housenumber\"=>\"91\",\"addr:postcode\"=>\"LS18 5BP\",\"addr:street\"=>\"Town Street\",\"addr:suburb\"=>\"Horsforth\",\"phone\"=>\"+44 113 259 0605\",\"shop\"=>\"hairdresser\"" }, "geometry": { "type": "Point", "coordinates": [ -1.6389405, 53.8391902 ] } },
	{ "type": "Feature", "properties": { "osm_id": "3887830146", "name": "Esquire", "other_tags": "\"addr:city\"=>\"Leeds\",\"addr:housenumber\"=>\"95\",\"addr:postcode\"=>\"LS18 5BP\",\"addr:street\"=>\"Town Street\",\"addr:suburb\"=>\"Horsforth\",\"phone\"=>\"+44 113 281 9043\",\"shop\"=>\"hairdresser\"" }, "geometry": { "type": "Point", "coordinates": [ -1.6388078, 53.8392643 ] } },
	{ "type": "Feature", "properties": { "osm_id": "3892020073", "name": "R & A Fuller Hair World", "other_tags": "\"addr:city\"=>\"Leeds\",\"addr:housenumber\"=>\"111\",\"addr:postcode\"=>\"LS18 5BL\",\"addr:street\"=>\"Town Street\",\"addr:suburb\"=>\"Horsforth\",\"phone\"=>\"+44 113 281 8141\",\"shop\"=>\"hairdresser\"" }, "geometry": { "type": "Point", "coordinates": [ -1.6375507, 53.8400077 ] } },
	{ "type": "Feature", "properties": { "osm_id": "3898525377", "name": "Mr Jay's Barbershop", "other_tags": "\"addr:city\"=>\"Leeds\",\"addr:housenumber\"=>\"11\",\"addr:postcode\"=>\"LS18 5PA\",\"addr:street\"=>\"Station Road\",\"addr:suburb\"=>\"Horsforth\",\"opening_hours\"=>\"Tu-Fr 09:00-17:30; Sa 09:00-15:30; Su-Mo Closed\",\"phone\"=>\"+44 7717 368511\",\"shop\"=>\"hairdresser\"" }, "geometry": { "type": "Point", "coordinates": [ -1.6334172, 53.8466474 ] } },
	{ "type": "Feature", "properties": { "osm_id": "3898601892", "name": "Platform 1", "other_tags": "\"addr:city\"=>\"Horsforth\",\"addr:housenumber\"=>\"29\",\"addr:postcode\"=>\"LS18 5PA\",\"addr:street\"=>\"Station Road\",\"phone\"=>\"+44 113 258 4453\",\"shop\"=>\"hairdresser\"" }, "geometry": { "type": "Point", "coordinates": [ -1.631825, 53.8469724 ] } },
	{ "type": "Feature", "properties": { "osm_id": "3900180356", "name": "Anthony James", "other_tags": "\"shop\"=>\"hairdresser\",\"addr:city\"=>\"Horsforth\",\"addr:street\"=>\"New Road Side\",\"addr:postcode\"=>\"LS18 4DR\",\"opening_hours\"=>\"Tu-Fr 09:30-18:00; Sa 08:30-17:00; Su Closed\",\"addr:housenumber\"=>\"255\"" }, "geometry": { "type": "Point", "coordinates": [ -1.6480122, 53.8333059 ] } },
	{ "type": "Feature", "properties": { "osm_id": "3902978494", "name": "Jefferson Hair & Beauty", "other_tags": "\"addr:city\"=>\"Horsforth\",\"addr:housenumber\"=>\"147\",\"addr:postcode\"=>\"LS18 4QD\",\"addr:street\"=>\"New Road Side\",\"opening_hours\"=>\"Tu,We,Fr 09:00-18:00; Th 09:00-19:00; Sa 09:00-17:00; Su-Mo Closed\",\"phone\"=>\"+44 113 259 1531\",\"shop\"=>\"hairdresser\",\"website\"=>\"http:\/\/www.jeffersonhairdressing.co.uk\/\"" }, "geometry": { "type": "Point", "coordinates": [ -1.6441926, 53.8321079 ] } },
	{ "type": "Feature", "properties": { "osm_id": "3902978505", "name": "Vie Hair & Beauty", "other_tags": "\"addr:city\"=>\"Horsforth\",\"addr:housenumber\"=>\"129\",\"addr:postcode\"=>\"LS18 4QD\",\"addr:street\"=>\"New Road Side\",\"phone\"=>\"+44 113 258 6420\",\"shop\"=>\"hairdresser\"" }, "geometry": { "type": "Point", "coordinates": [ -1.6434821, 53.8320666 ] } },
	{ "type": "Feature", "properties": { "osm_id": "3904761988", "name": "Bev @ Michael Laurence", "other_tags": "\"addr:city\"=>\"Horsforth\",\"addr:housenumber\"=>\"95\",\"addr:postcode\"=>\"LS18 4QD\",\"addr:street\"=>\"New Road Side\",\"phone\"=>\"+44 113 258 3365\",\"shop\"=>\"hairdresser\"" }, "geometry": { "type": "Point", "coordinates": [ -1.6417326, 53.831991 ] } },
	{ "type": "Feature", "properties": { "osm_id": "3916676792", "name": "John Scott Hairdressing", "other_tags": "\"shop\"=>\"hairdresser\",\"phone\"=>\"+44 113 2584732\",\"addr:city\"=>\"Horsforth\",\"addr:street\"=>\"New Road Side\",\"addr:postcode\"=>\"LS18 4QB\",\"addr:housenumber\"=>\"90\"" }, "geometry": { "type": "Point", "coordinates": [ -1.6410439, 53.8321928 ] } },
	{ "type": "Feature", "properties": { "osm_id": "3916676794", "name": "Top Mens Barbers", "other_tags": "\"shop\"=>\"hairdresser\"" }, "geometry": { "type": "Point", "coordinates": [ -1.6408955, 53.8322744 ] } },
	{ "type": "Feature", "properties": { "osm_id": "3942727564", "name": "Solo Hair Team", "other_tags": "\"shop\"=>\"hairdresser\"" }, "geometry": { "type": "Point", "coordinates": [ -1.6948573, 53.9062519 ] } },
	{ "type": "Feature", "properties": { "osm_id": "4009429010", "name": "Head Office Salon", "other_tags": "\"shop\"=>\"hairdresser\",\"website\"=>\"http:\/\/headofficesalons.co.uk\/\",\"addr:city\"=>\"Leeds\",\"addr:street\"=>\"Cross Gates Road\",\"addr:postcode\"=>\"LS15 7PB\",\"addr:housenumber\"=>\"125\"" }, "geometry": { "type": "Point", "coordinates": [ -1.4546849, 53.8085548 ] } },
	{ "type": "Feature", "properties": { "osm_id": "4131484806", "name": "Yazz", "other_tags": "\"shop\"=>\"hairdresser\"" }, "geometry": { "type": "Point", "coordinates": [ -1.6870987, 53.8557515 ] } },
	{ "type": "Feature", "properties": { "osm_id": "4149119852", "name": "Alpha Male", "other_tags": "\"shop\"=>\"hairdresser\"" }, "geometry": { "type": "Point", "coordinates": [ -1.6934601, 53.9043619 ] } },
	{ "type": "Feature", "properties": { "osm_id": "4202206074", "name": "Technicolour", "other_tags": "\"shop\"=>\"hairdresser\"" }, "geometry": { "type": "Point", "coordinates": [ -1.388558, 53.7924619 ] } },
	{ "type": "Feature", "properties": { "osm_id": "4211277961", "name": "Follicle", "other_tags": "\"shop\"=>\"hairdresser\"" }, "geometry": { "type": "Point", "coordinates": [ -1.6682005, 53.7928076 ] } },
	{ "type": "Feature", "properties": { "osm_id": "4346027282", "name": "The Agyeboats Barbers", "other_tags": "\"shop\"=>\"hairdresser\",\"addr:city\"=>\"Leeds\",\"addr:unit\"=>\"4\",\"addr:street\"=>\"Byron Street\",\"addr:postcode\"=>\"LS2 7QJ\",\"addr:housenumber\"=>\"45\"" }, "geometry": { "type": "Point", "coordinates": [ -1.5336965, 53.8024661 ] } },
	{ "type": "Feature", "properties": { "osm_id": "4362482325", "name": "The Barbers Leeds", "other_tags": "\"addr:city\"=>\"Leeds\",\"addr:housenumber\"=>\"76\",\"addr:postcode\"=>\"LS2 7DJ\",\"addr:street\"=>\"Kirkgate\",\"phone\"=>\"+44 113 245 7526\",\"shop\"=>\"hairdresser\",\"website\"=>\"www.thebarbersleeds.co.uk\"" }, "geometry": { "type": "Point", "coordinates": [ -1.5374409, 53.7955722 ] } },
	{ "type": "Feature", "properties": { "osm_id": "4362485981", "name": "The Salon Leeds", "other_tags": "\"addr:city\"=>\"Leeds\",\"addr:street\"=>\"Wharf Street\",\"shop\"=>\"hairdresser\"" }, "geometry": { "type": "Point", "coordinates": [ -1.5375724, 53.7955492 ] } },
	{ "type": "Feature", "properties": { "osm_id": "4384356300", "name": "Sue's", "other_tags": "\"shop\"=>\"hairdresser\",\"name:en\"=>\"Sue's\"" }, "geometry": { "type": "Point", "coordinates": [ -1.5888629, 53.7613191 ] } },
	{ "type": "Feature", "properties": { "osm_id": "4392669292", "name": "Just Men", "other_tags": "\"shop\"=>\"hairdresser\"" }, "geometry": { "type": "Point", "coordinates": [ -1.5990995, 53.7431117 ] } },
	{ "type": "Feature", "properties": { "osm_id": "4471283674", "name": "Super Cuts", "other_tags": "\"shop\"=>\"hairdresser\",\"wheelchair\"=>\"yes\"" }, "geometry": { "type": "Point", "coordinates": [ -1.4506673, 53.8060913 ] } },
	{ "type": "Feature", "properties": { "osm_id": "4488841940", "name": "Piranha Hair Studio", "other_tags": "\"addr:city\"=>\"Leeds\",\"addr:housenumber\"=>\"60\",\"addr:postcode\"=>\"LS2 7PN\",\"addr:street\"=>\"North Street\",\"shop\"=>\"hairdresser\"" }, "geometry": { "type": "Point", "coordinates": [ -1.5382629, 53.8014405 ] } },
	{ "type": "Feature", "properties": { "osm_id": "4488841941", "name": "Tint", "other_tags": "\"addr:city\"=>\"Leeds\",\"addr:housenumber\"=>\"70\",\"addr:postcode\"=>\"LS2 7PN\",\"addr:street\"=>\"North Street\",\"shop\"=>\"hairdresser\"" }, "geometry": { "type": "Point", "coordinates": [ -1.5380296, 53.8015989 ] } },
	{ "type": "Feature", "properties": { "osm_id": "4583122235", "name": "Jans Hairdressing", "other_tags": "\"addr:city\"=>\"Leeds\",\"addr:housenumber\"=>\"28\",\"addr:postcode\"=>\"LS26 0RD\",\"addr:street\"=>\"Manor Road\",\"addr:suburb\"=>\"Rothwell\",\"shop\"=>\"hairdresser\"" }, "geometry": { "type": "Point", "coordinates": [ -1.4864208, 53.7527457 ] } },
	{ "type": "Feature", "properties": { "osm_id": "4602768927", "name": "Rodley Barbers", "other_tags": "\"shop\"=>\"hairdresser\"" }, "geometry": { "type": "Point", "coordinates": [ -1.6627807, 53.823108 ] } },
	{ "type": "Feature", "properties": { "osm_id": "4653490137", "name": "Hair Station", "other_tags": "\"shop\"=>\"hairdresser\"" }, "geometry": { "type": "Point", "coordinates": [ -1.4506285, 53.8072235 ] } },
	{ "type": "Feature", "properties": { "osm_id": "4778563850", "name": "Headonist", "other_tags": "\"addr:city\"=>\"Leeds\",\"addr:housenumber\"=>\"1\",\"addr:postcode\"=>\"LS6 1GH\",\"addr:street\"=>\"Stott Road\",\"male\"=>\"yes\",\"opening_hours\"=>\"Mo-Sa 09:00-18:00\",\"phone\"=>\"+44 113 4405 499\",\"shop\"=>\"hairdresser\",\"website\"=>\"http:\/\/headonist.co.uk\/\"" }, "geometry": { "type": "Point", "coordinates": [ -1.5741199, 53.8147693 ] } },
	{ "type": "Feature", "properties": { "osm_id": "4846648970", "name": "Religion Hair & Beauty", "other_tags": "\"shop\"=>\"hairdresser\"" }, "geometry": { "type": "Point", "coordinates": [ -1.6016677, 53.751729 ] } },
	{ "type": "Feature", "properties": { "osm_id": "4885695953", "name": "Supercuts", "other_tags": "\"shop\"=>\"hairdresser\"" }, "geometry": { "type": "Point", "coordinates": [ -1.5446075, 53.8018501 ] } },
	{ "type": "Feature", "properties": { "osm_id": "4885695958", "name": "JRs Barbershop", "other_tags": "\"shop\"=>\"hairdresser\"" }, "geometry": { "type": "Point", "coordinates": [ -1.5442416, 53.8023208 ] } },
	{ "type": "Feature", "properties": { "osm_id": "4964806674", "name": "The Cutting Room", "other_tags": "\"shop\"=>\"hairdresser\"" }, "geometry": { "type": "Point", "coordinates": [ -1.5936318, 53.7473991 ] } },
	{ "type": "Feature", "properties": { "osm_id": "4986256621", "name": "Matthew's Barber shop", "other_tags": "\"addr:housenumber\"=>\"40\",\"addr:postcode\"=>\"LS16 5LX\",\"addr:street\"=>\"Weetwood Lane\",\"name:en\"=>\"Matthew's Barber shop\",\"opening_hours\"=>\"Mo-Fr 08:30-18:00; Sa 08:30-17:00\",\"phone\"=>\"+44 113 274 1555\",\"shop\"=>\"hairdresser\",\"website\"=>\"http:\/\/www.matthewsbarbers.com\/\"" }, "geometry": { "type": "Point", "coordinates": [ -1.5817651, 53.8288198 ] } },
	{ "type": "Feature", "properties": { "osm_id": "4999403938", "name": "Blacks", "other_tags": "\"shop\"=>\"hairdresser\"" }, "geometry": { "type": "Point", "coordinates": [ -1.3885519, 53.7923096 ] } },
	{ "type": "Feature", "properties": { "osm_id": "5002599851", "name": "Tracks Hair Design", "other_tags": "\"shop\"=>\"hairdresser\"" }, "geometry": { "type": "Point", "coordinates": [ -1.5435741, 53.7949208 ] } },
	{ "type": "Feature", "properties": { "osm_id": "5022102101", "name": "Tonys Cuts", "other_tags": "\"addr:city\"=>\"Leeds\",\"addr:housenumber\"=>\"78\",\"addr:postcode\"=>\"LS6 1EG\",\"addr:street\"=>\"Brudenell Road\",\"opening_hours\"=>\"Th-Tu 10:00-19:00\",\"operator\"=>\"Tony\",\"shop\"=>\"hairdresser\"" }, "geometry": { "type": "Point", "coordinates": [ -1.5697247, 53.8122333 ] } },
	{ "type": "Feature", "properties": { "osm_id": "5218896688", "name": "Roma", "other_tags": "\"shop\"=>\"hairdresser\"" }, "geometry": { "type": "Point", "coordinates": [ -1.6027325, 53.7453014 ] } },
	{ "type": "Feature", "properties": { "osm_id": "5287544468", "other_tags": "\"shop\"=>\"hairdresser\"" }, "geometry": { "type": "Point", "coordinates": [ -1.4645503, 53.799094 ] } },
	{ "type": "Feature", "properties": { "osm_id": "5296591313", "name": "Smitin Hair", "other_tags": "\"shop\"=>\"hairdresser\"" }, "geometry": { "type": "Point", "coordinates": [ -1.6711798, 53.8130889 ] } },
	{ "type": "Feature", "properties": { "osm_id": "5296592025", "name": "Raahil's Barber Shop", "other_tags": "\"shop\"=>\"hairdresser\"" }, "geometry": { "type": "Point", "coordinates": [ -1.6718651, 53.812073 ] } },
	{ "type": "Feature", "properties": { "osm_id": "5299870169", "name": "The Barbers", "other_tags": "\"shop\"=>\"hairdresser\"" }, "geometry": { "type": "Point", "coordinates": [ -1.4552412, 53.8080103 ] } },
	{ "type": "Feature", "properties": { "osm_id": "5311258595", "name": "unity", "other_tags": "\"shop\"=>\"hairdresser\"" }, "geometry": { "type": "Point", "coordinates": [ -1.6873576, 53.9016439 ] } },
	{ "type": "Feature", "properties": { "osm_id": "5354055960", "name": "Union Barbers Leeds", "other_tags": "\"addr:city\"=>\"Leeds\",\"addr:housenumber\"=>\"21\",\"addr:postcode\"=>\"LS6 1AF\",\"addr:street\"=>\"Hyde Park Corner\",\"opening_hours\"=>\"Mo-Sa 10:00-18:00\",\"phone\"=>\"+44 113 274 3240\",\"reservation\"=>\"recommended\",\"shop\"=>\"hairdresser\",\"website\"=>\"https:\/\/www.facebook.com\/unionbarbersleeds\/\"" }, "geometry": { "type": "Point", "coordinates": [ -1.5613339, 53.8143623 ] } },
	{ "type": "Feature", "properties": { "osm_id": "5407594205", "name": "Select Hairdressing", "other_tags": "\"shop\"=>\"hairdresser\"" }, "geometry": { "type": "Point", "coordinates": [ -1.4838128, 53.7552552 ] } },
	{ "type": "Feature", "properties": { "osm_id": "5407594207", "name": "The Chair", "other_tags": "\"addr:city\"=>\"Leeds\",\"addr:housenumber\"=>\"98\",\"addr:postcode\"=>\"LS26 0LP\",\"addr:street\"=>\"Haigh Road\",\"shop\"=>\"hairdresser\"" }, "geometry": { "type": "Point", "coordinates": [ -1.4778274, 53.7549785 ] } },
	{ "type": "Feature", "properties": { "osm_id": "5407594215", "name": "The Salon", "other_tags": "\"shop\"=>\"hairdresser\"" }, "geometry": { "type": "Point", "coordinates": [ -1.4463557, 53.7526441 ] } },
	{ "type": "Feature", "properties": { "osm_id": "5413294422", "name": "Best Cuts -barbers-", "other_tags": "\"shop\"=>\"hairdresser\"" }, "geometry": { "type": "Point", "coordinates": [ -1.4493913, 53.8074355 ] } },
	{ "type": "Feature", "properties": { "osm_id": "5413294427", "other_tags": "\"shop\"=>\"hairdresser\"" }, "geometry": { "type": "Point", "coordinates": [ -1.4497787, 53.8074599 ] } },
	{ "type": "Feature", "properties": { "osm_id": "5413319841", "name": "The Cutting Shed", "other_tags": "\"shop\"=>\"hairdresser\"" }, "geometry": { "type": "Point", "coordinates": [ -1.4517285, 53.8073909 ] } },
	{ "type": "Feature", "properties": { "osm_id": "5413319844", "name": "65 The Barbers", "other_tags": "\"shop\"=>\"hairdresser\"" }, "geometry": { "type": "Point", "coordinates": [ -1.4520225, 53.8072839 ] } },
	{ "type": "Feature", "properties": { "osm_id": "5422663135", "name": "Hair Xpress", "other_tags": "\"shop\"=>\"hairdresser\"" }, "geometry": { "type": "Point", "coordinates": [ -1.5437146, 53.8010421 ] } },
	{ "type": "Feature", "properties": { "osm_id": "5439861938", "name": "Quiff Salon", "other_tags": "\"addr:city\"=>\"Leeds\",\"addr:housenumber\"=>\"19\",\"addr:postcode\"=>\"LS6 3HW\",\"addr:street\"=>\"North Lane\",\"description\"=>\"additionalvalue for payment: Card, Contactless, Smart Pay\",\"opening_hours\"=>\"Mo 09:30-17:00; We 09:30-19:00; Th 09:30-18:00; Fr 09:30-16:00; Sa 09:00-16:00; Tu, Su off\",\"payment:cash\"=>\"yes\",\"phone\"=>\"+44 113 278 4442\",\"shop\"=>\"hairdresser\",\"website\"=>\"http:\/\/www.quiffsalon.co.uk\"" }, "geometry": { "type": "Point", "coordinates": [ -1.5809555, 53.8200212 ] } },
	{ "type": "Feature", "properties": { "osm_id": "5527199858", "name": "Cutting Edge", "other_tags": "\"shop\"=>\"hairdresser\"" }, "geometry": { "type": "Point", "coordinates": [ -1.5831173, 53.8066435 ] } },
	{ "type": "Feature", "properties": { "osm_id": "5527199863", "name": "The Gentleman's Barber", "other_tags": "\"shop\"=>\"hairdresser\"" }, "geometry": { "type": "Point", "coordinates": [ -1.5836487, 53.806806 ] } },
	{ "type": "Feature", "properties": { "osm_id": "5632863876", "name": "Westrow Academy", "other_tags": "\"addr:city\"=>\"Leeds\",\"addr:housename\"=>\"Westrow House\",\"addr:housenumber\"=>\"161\",\"addr:postcode\"=>\"LS1 6LY\",\"addr:street\"=>\"Briggate\",\"shop\"=>\"hairdresser\"" }, "geometry": { "type": "Point", "coordinates": [ -1.5423332, 53.795457 ] } },
	{ "type": "Feature", "properties": { "osm_id": "5648164608", "name": "Just Men", "other_tags": "\"shop\"=>\"hairdresser\"" }, "geometry": { "type": "Point", "coordinates": [ -1.5433913, 53.8009819 ] } },
	{ "type": "Feature", "properties": { "osm_id": "5912474833", "name": "Head First", "other_tags": "\"addr:city\"=>\"Leeds\",\"addr:housenumber\"=>\"590\",\"addr:postcode\"=>\"LS17 8DP\",\"addr:street\"=>\"Harrogate Road\",\"shop\"=>\"hairdresser\"" }, "geometry": { "type": "Point", "coordinates": [ -1.5304705, 53.8558078 ] } },
	{ "type": "Feature", "properties": { "osm_id": "5916115982", "other_tags": "\"shop\"=>\"hairdresser\"" }, "geometry": { "type": "Point", "coordinates": [ -1.4517611, 53.8061621 ] } },
	{ "type": "Feature", "properties": { "osm_id": "5918770672", "name": "Mod Salons", "other_tags": "\"addr:city\"=>\"Leeds\",\"addr:housenumber\"=>\"98\",\"addr:street\"=>\"Harrogate Road\",\"shop\"=>\"hairdresser\"" }, "geometry": { "type": "Point", "coordinates": [ -1.5374282, 53.8284028 ] } },
	{ "type": "Feature", "properties": { "osm_id": "5918780435", "name": "Cold Bath", "other_tags": "\"addr:city\"=>\"Leeds\",\"addr:housenumber\"=>\"43\",\"addr:postcode\"=>\"LS7 3PD\",\"addr:street\"=>\"Harrogate Road\",\"shop\"=>\"hairdresser\"" }, "geometry": { "type": "Point", "coordinates": [ -1.5377688, 53.8284044 ] } },
	{ "type": "Feature", "properties": { "osm_id": "5940387582", "name": "Lords Barbering", "other_tags": "\"addr:city\"=>\"Leeds\",\"addr:housenumber\"=>\"7\",\"addr:postcode\"=>\"LS1 6PG\",\"addr:street\"=>\"Grand Arcade\",\"shop\"=>\"hairdresser\",\"website\"=>\"http:\/\/www.lordsbarbering.co.uk\/\"" }, "geometry": { "type": "Point", "coordinates": [ -1.5402604, 53.800184 ] } },
	{ "type": "Feature", "properties": { "osm_id": "5941346443", "name": "Allertons", "other_tags": "\"addr:city\"=>\"Leeds\",\"addr:housenumber\"=>\"3\",\"addr:postcode\"=>\"LS1 6LF\",\"addr:street\"=>\"Queens Arcade\",\"shop\"=>\"hairdresser\",\"website\"=>\"https:\/\/allertonsonline.com\/\"" }, "geometry": { "type": "Point", "coordinates": [ -1.5425431, 53.7983911 ] } },
	{ "type": "Feature", "properties": { "osm_id": "5941346460", "name": "Westrow", "other_tags": "\"addr:city\"=>\"Leeds\",\"addr:housenumber\"=>\"4-6\",\"addr:postcode\"=>\"LS1 6LQ\",\"addr:street\"=>\"Thornton's Arcade\",\"shop\"=>\"hairdresser\"" }, "geometry": { "type": "Point", "coordinates": [ -1.542451, 53.7987085 ] } },
	{ "type": "Feature", "properties": { "osm_id": "5941346464", "name": "Westrow", "other_tags": "\"addr:city\"=>\"Leeds\",\"addr:housenumber\"=>\"18\",\"addr:postcode\"=>\"LS1 6LQ\",\"addr:street\"=>\"Thornton's Arcade\",\"shop\"=>\"hairdresser\"" }, "geometry": { "type": "Point", "coordinates": [ -1.5428347, 53.7987435 ] } },
	{ "type": "Feature", "properties": { "osm_id": "5941346469", "name": "Modern Hairdressing For Men", "other_tags": "\"addr:city\"=>\"Leeds\",\"addr:housenumber\"=>\"23\",\"addr:postcode\"=>\"LS1 6LQ\",\"addr:street\"=>\"Thornton's Arcade\",\"shop\"=>\"hairdresser\"" }, "geometry": { "type": "Point", "coordinates": [ -1.5430949, 53.7986606 ] } },
	{ "type": "Feature", "properties": { "osm_id": "5941346475", "name": "Steca", "other_tags": "\"addr:city\"=>\"Leeds\",\"addr:housenumber\"=>\"9\",\"addr:postcode\"=>\"LS1 6LQ\",\"addr:street\"=>\"Thornton's Arcade\",\"shop\"=>\"hairdresser\"" }, "geometry": { "type": "Point", "coordinates": [ -1.5426625, 53.7986188 ] } },
	{ "type": "Feature", "properties": { "osm_id": "5981576295", "name": "Gallery Barbers", "other_tags": "\"addr:city\"=>\"Leeds\",\"addr:housename\"=>\"Kirkgate Market\",\"addr:street\"=>\"Kirkgate\",\"addr:unit\"=>\"10-11\",\"shop\"=>\"hairdresser\"" }, "geometry": { "type": "Point", "coordinates": [ -1.5400222, 53.7972995 ] } },
	{ "type": "Feature", "properties": { "osm_id": "6001482099", "name": "Josephine Hair Braiding", "other_tags": "\"shop\"=>\"hairdresser\"" }, "geometry": { "type": "Point", "coordinates": [ -1.5381141, 53.7972987 ] } },
	{ "type": "Feature", "properties": { "osm_id": "6001482102", "name": "Josephine Hair Braiding", "other_tags": "\"shop\"=>\"hairdresser\"" }, "geometry": { "type": "Point", "coordinates": [ -1.5383542, 53.7975007 ] } },
	{ "type": "Feature", "properties": { "osm_id": "6001482110", "name": "Hair Station", "other_tags": "\"shop\"=>\"hairdresser\"" }, "geometry": { "type": "Point", "coordinates": [ -1.5380381, 53.797426 ] } },
	{ "type": "Feature", "properties": { "osm_id": "6001482111", "name": "Josephine Hair Braiding", "other_tags": "\"shop\"=>\"hairdresser\"" }, "geometry": { "type": "Point", "coordinates": [ -1.5379635, 53.7974234 ] } },
	{ "type": "Feature", "properties": { "osm_id": "6022850191", "name": "Sassoon Salon", "other_tags": "\"addr:city\"=>\"Leeds\",\"addr:housename\"=>\"Pinnacle\",\"addr:housenumber\"=>\"57\",\"addr:postcode\"=>\"LS1 5AA\",\"addr:street\"=>\"Albion Street\",\"shop\"=>\"hairdresser\"" }, "geometry": { "type": "Point", "coordinates": [ -1.5453547, 53.7977291 ] } },
	{ "type": "Feature", "properties": { "osm_id": "6022850394", "name": "Headcase", "other_tags": "\"shop\"=>\"hairdresser\"" }, "geometry": { "type": "Point", "coordinates": [ -1.5472953, 53.7958713 ] } },
	{ "type": "Feature", "properties": { "osm_id": "6033886289", "name": "King Koby Chop Shop", "other_tags": "\"addr:city\"=>\"Leeds\",\"addr:housename\"=>\"Corn Exchange\",\"addr:postcode\"=>\"LS1 7BR\",\"addr:street\"=>\"Call Lane\",\"level\"=>\"0\",\"shop\"=>\"hairdresser\"" }, "geometry": { "type": "Point", "coordinates": [ -1.5400241, 53.7957394 ] } },
	{ "type": "Feature", "properties": { "osm_id": "6033886291", "name": "Hive", "other_tags": "\"addr:city\"=>\"Leeds\",\"addr:housename\"=>\"Corn Exchange\",\"addr:postcode\"=>\"LS1 7BR\",\"addr:street\"=>\"Call Lane\",\"level\"=>\"0\",\"shop\"=>\"hairdresser\",\"website\"=>\"https:\/\/www.hivehairsalon.co.uk\/\"" }, "geometry": { "type": "Point", "coordinates": [ -1.5398435, 53.795868 ] } },
	{ "type": "Feature", "properties": { "osm_id": "6052531508", "name": "Supercuts", "other_tags": "\"shop\"=>\"hairdresser\"" }, "geometry": { "type": "Point", "coordinates": [ -1.5745479, 53.7580327 ] } },
	{ "type": "Feature", "properties": { "osm_id": "6052531617", "name": "Five Barbers", "other_tags": "\"addr:city\"=>\"Leeds\",\"addr:housenumber\"=>\"86\",\"addr:postcode\"=>\"LS10 2AR\",\"addr:street\"=>\"Church Street\",\"addr:suburb\"=>\"Hunslet\",\"shop\"=>\"hairdresser\"" }, "geometry": { "type": "Point", "coordinates": [ -1.5288135, 53.7784144 ] } },
	{ "type": "Feature", "properties": { "osm_id": "6052536859", "name": "Gentlemans Corner", "other_tags": "\"shop\"=>\"hairdresser\"" }, "geometry": { "type": "Point", "coordinates": [ -1.574517, 53.7603588 ] } },
	{ "type": "Feature", "properties": { "osm_id": "6092510506", "name": "Azmara Salon", "other_tags": "\"addr:city\"=>\"Leeds\",\"addr:housename\"=>\"Citispace\",\"addr:housenumber\"=>\"11\",\"addr:postcode\"=>\"LS2 7QN\",\"addr:street\"=>\"Regent Street\",\"addr:unit\"=>\"3\",\"shop\"=>\"hairdresser\"" }, "geometry": { "type": "Point", "coordinates": [ -1.533266, 53.8027909 ] } },
	{ "type": "Feature", "properties": { "osm_id": "6250521975", "name": "Andy's Barbers", "other_tags": "\"level\"=>\"1\",\"shop\"=>\"hairdresser\"" }, "geometry": { "type": "Point", "coordinates": [ -1.541654, 53.7490347 ] } },
	{ "type": "Feature", "properties": { "osm_id": null, "centroid": { "latitude": 53.783308, "longitude": -1.560983 }, "osm_way_id": "130300012", "name": "Hussain Hairdressers", "building": "yes", "shop": "hairdresser", "other_tags": "\"addr:housenumber\"=>\"31\",\"addr:street\"=>\"Brown Lane East\",\"building:cladding\"=>\"brick\",\"building:levels\"=>\"2\",\"building:roof\"=>\"slate\",\"building:roof:shape\"=>\"pitched\"" }, "geometry": { "type": "Polygon", "coordinates": [ [ [ -1.5609488, 53.7832861 ], [ -1.5610226, 53.7832902 ], [ -1.5610165, 53.7833295 ], [ -1.5609427, 53.7833253 ], [ -1.5609488, 53.7832861 ] ] ] } },
	{ "type": "Feature", "properties": { "osm_id": null, "centroid": { "latitude": 53.782974, "longitude": -1.559240 }, "osm_way_id": "130300016", "name": "The Works", "building": "yes", "shop": "hairdresser", "other_tags": "\"addr:street\"=>\"Top Moor Side\",\"building:roof\"=>\"slate\",\"building:levels\"=>\"2\",\"building:cladding\"=>\"brick\",\"building:roof:shape\"=>\"pitched\"" }, "geometry": { "type": "Polygon", "coordinates": [ [ [ -1.5592672, 53.7829915 ], [ -1.5592184, 53.7829944 ], [ -1.559212, 53.7829565 ], [ -1.5592608, 53.7829536 ], [ -1.5592672, 53.7829915 ] ] ] } },
	{ "type": "Feature", "properties": { "osm_id": null, "centroid": { "latitude": 53.828342, "longitude": -1.429681 }, "osm_way_id": "149549443", "name": "Storm", "building": "yes", "shop": "hairdresser" }, "geometry": { "type": "Polygon", "coordinates": [ [ [ -1.4297645, 53.8283629 ], [ -1.429617, 53.8283803 ], [ -1.4295982, 53.8283201 ], [ -1.429747, 53.8283033 ], [ -1.4297645, 53.8283629 ] ] ] } },
	{ "type": "Feature", "properties": { "osm_id": null, "centroid": { "latitude": 53.844524, "longitude": -1.517686 }, "osm_way_id": "149698443", "name": "Salon 145", "building": "commercial", "shop": "hairdresser", "other_tags": "\"phone\"=>\"+44 113 2692555\",\"floors\"=>\"1\",\"addr:street\"=>\"Street Lane\",\"addr:postcode\"=>\"LS8 1AA\",\"source:building\"=>\"bing\",\"addr:housenumber\"=>\"145\"" }, "geometry": { "type": "Polygon", "coordinates": [ [ [ -1.5177287, 53.8445743 ], [ -1.517659, 53.8445779 ], [ -1.5176436, 53.8444742 ], [ -1.5177133, 53.8444706 ], [ -1.5177287, 53.8445743 ] ] ] } },
	{ "type": "Feature", "properties": { "osm_id": null, "centroid": { "latitude": 53.844251, "longitude": -1.509822 }, "osm_way_id": "149702927", "name": "Angels of London", "building": "yes", "shop": "hairdresser", "other_tags": "\"addr:city\"=>\"Leeds\",\"addr:housenumber\"=>\"73\",\"addr:postcode\"=>\"LS8 1AP\",\"addr:street\"=>\"Street Lane\",\"addr:suburb\"=>\"Roundhay\",\"phone\"=>\"+44 113 2666599\",\"source:building\"=>\"bing\"" }, "geometry": { "type": "Polygon", "coordinates": [ [ [ -1.5098079, 53.8443227 ], [ -1.5097368, 53.8443025 ], [ -1.5098369, 53.84418 ], [ -1.5099079, 53.8442002 ], [ -1.5098079, 53.8443227 ] ] ] } },
	{ "type": "Feature", "properties": { "osm_id": null, "centroid": { "latitude": 53.823541, "longitude": -1.579638 }, "osm_way_id": "200170898", "name": "Architect Hair", "building": "retail", "shop": "hairdresser", "other_tags": "\"addr:city\"=>\"Leeds\",\"addr:street\"=>\"Otley Road\",\"addr:country\"=>\"GB\",\"addr:postcode\"=>\"LS6 2AL\",\"addr:housenumber\"=>\"52\"" }, "geometry": { "type": "Polygon", "coordinates": [ [ [ -1.5797112, 53.8234937 ], [ -1.579746, 53.8235372 ], [ -1.5795653, 53.8235882 ], [ -1.5795297, 53.8235428 ], [ -1.5797112, 53.8234937 ] ] ] } },
	{ "type": "Feature", "properties": { "osm_id": null, "centroid": { "latitude": 53.823447, "longitude": -1.580790 }, "osm_way_id": "200439686", "name": "Mutu", "building": "retail", "shop": "hairdresser", "other_tags": "\"addr:city\"=>\"Leeds\",\"addr:street\"=>\"Saint Anne's Road\",\"addr:country\"=>\"GB\",\"addr:postcode\"=>\"LS6 3NX\",\"addr:housenumber\"=>\"10\"" }, "geometry": { "type": "Polygon", "coordinates": [ [ [ -1.5808781, 53.8234735 ], [ -1.5808113, 53.8235043 ], [ -1.5807011, 53.8234209 ], [ -1.5807678, 53.8233901 ], [ -1.5808781, 53.8234735 ] ] ] } },
	{ "type": "Feature", "properties": { "osm_id": null, "centroid": { "latitude": 53.823851, "longitude": -1.580744 }, "osm_way_id": "200439693", "name": "odb", "building": "retail", "shop": "hairdresser", "other_tags": "\"addr:city\"=>\"Leeds\",\"addr:street\"=>\"Otley Road\",\"addr:country\"=>\"GB\",\"addr:postcode\"=>\"LS6 3PX\",\"addr:housenumber\"=>\"109\"" }, "geometry": { "type": "Polygon", "coordinates": [ [ [ -1.580647, 53.8238424 ], [ -1.5808038, 53.8238042 ], [ -1.5808419, 53.8238587 ], [ -1.580685, 53.8238969 ], [ -1.580647, 53.8238424 ] ] ] } },
	{ "type": "Feature", "properties": { "osm_id": null, "centroid": { "latitude": 53.826543, "longitude": -1.581772 }, "osm_way_id": "201424037", "name": "Martin James", "building": "house", "shop": "hairdresser", "other_tags": "\"addr:city\"=>\"Leeds\",\"addr:street\"=>\"Otley Road\",\"addr:country\"=>\"GB\",\"addr:postcode\"=>\"LS6 4BA\",\"addr:housenumber\"=>\"66\"" }, "geometry": { "type": "Polygon", "coordinates": [ [ [ -1.5818941, 53.8264961 ], [ -1.5819179, 53.8265438 ], [ -1.5816492, 53.8265905 ], [ -1.5816254, 53.8265429 ], [ -1.5818941, 53.8264961 ] ] ] } },
	{ "type": "Feature", "properties": { "osm_id": null, "centroid": { "latitude": 53.826231, "longitude": -1.581602 }, "osm_way_id": "201424041", "name": "The Hair Studio", "building": "house", "shop": "hairdresser", "other_tags": "\"addr:city\"=>\"Leeds\",\"addr:street\"=>\"Otley Road\",\"addr:country\"=>\"GB\",\"addr:postcode\"=>\"LS6 4BA\",\"addr:housenumber\"=>\"62a\"" }, "geometry": { "type": "Polygon", "coordinates": [ [ [ -1.5816698, 53.8262724 ], [ -1.5815566, 53.8262822 ], [ -1.5815336, 53.8261888 ], [ -1.5816467, 53.8261791 ], [ -1.5816698, 53.8262724 ] ] ] } },
	{ "type": "Feature", "properties": { "osm_id": null, "centroid": { "latitude": 53.822671, "longitude": -1.579307 }, "osm_way_id": "201604424", "name": "Jam", "building": "retail", "shop": "hairdresser", "other_tags": "\"addr:city\"=>\"Leeds\",\"addr:street\"=>\"Otley Road\",\"addr:country\"=>\"GB\",\"addr:postcode\"=>\"LS6 3PS\",\"addr:housenumber\"=>\"77a\"" }, "geometry": { "type": "Polygon", "coordinates": [ [ [ -1.5793081, 53.8227177 ], [ -1.5792364, 53.8226511 ], [ -1.5793056, 53.8226252 ], [ -1.5793773, 53.8226918 ], [ -1.5793081, 53.8227177 ] ] ] } },
	{ "type": "Feature", "properties": { "osm_id": null, "centroid": { "latitude": 53.820762, "longitude": -1.577038 }, "osm_way_id": "201837061", "name": "The End", "building": "retail", "shop": "hairdresser", "other_tags": "\"addr:city\"=>\"Leeds\",\"addr:street\"=>\"Otley Road\",\"addr:country\"=>\"GB\",\"addr:postcode\"=>\"LS6 2AD\",\"addr:housenumber\"=>\"10a\"" }, "geometry": { "type": "Polygon", "coordinates": [ [ [ -1.5769819, 53.8207484 ], [ -1.5770578, 53.8207379 ], [ -1.577095, 53.8207734 ], [ -1.5769973, 53.820787 ], [ -1.5769819, 53.8207484 ] ] ] } },
	{ "type": "Feature", "properties": { "osm_id": null, "centroid": { "latitude": 53.796316, "longitude": -1.537585 }, "osm_way_id": "203518213", "name": "Rebel Pin Up", "building": "yes", "shop": "hairdresser", "other_tags": "\"levels\"=>\"5\"" }, "geometry": { "type": "Polygon", "coordinates": [ [ [ -1.5374897, 53.7962784 ], [ -1.5375609, 53.7962788 ], [ -1.5375574, 53.7962618 ], [ -1.5376811, 53.7962925 ], [ -1.5376411, 53.7963288 ], [ -1.537601, 53.7963459 ], [ -1.537552, 53.796363 ], [ -1.5374919, 53.7963709 ], [ -1.5374897, 53.7962784 ] ] ] } },
	{ "type": "Feature", "properties": { "osm_id": null, "centroid": { "latitude": 53.820745, "longitude": -1.577379 }, "osm_way_id": "204558180", "name": "City Gent", "building": "retail", "shop": "hairdresser", "other_tags": "\"addr:city\"=>\"Leeds\",\"addr:street\"=>\"Otley Road\",\"addr:country\"=>\"GB\",\"addr:postcode\"=>\"LS6 3AB\",\"addr:housenumber\"=>\"43\"" }, "geometry": { "type": "Polygon", "coordinates": [ [ [ -1.5773406, 53.820779 ], [ -1.5773102, 53.8207512 ], [ -1.5774184, 53.8207101 ], [ -1.5774487, 53.8207378 ], [ -1.5773406, 53.820779 ] ] ] } },
	{ "type": "Feature", "properties": { "osm_id": null, "centroid": { "latitude": 53.820604, "longitude": -1.577236 }, "osm_way_id": "204558183", "name": "Oasis", "building": "retail", "shop": "hairdresser", "other_tags": "\"addr:city\"=>\"Leeds\",\"addr:street\"=>\"Otley Road\",\"addr:country\"=>\"GB\",\"addr:postcode\"=>\"LS6 2AB\",\"addr:housenumber\"=>\"37\"" }, "geometry": { "type": "Polygon", "coordinates": [ [ [ -1.5771876, 53.8206369 ], [ -1.57715, 53.8206004 ], [ -1.5771729, 53.8205801 ], [ -1.5772236, 53.820576 ], [ -1.5773179, 53.8205703 ], [ -1.5773228, 53.8206053 ], [ -1.5772636, 53.8206096 ], [ -1.5771876, 53.8206369 ] ] ] } },
	{ "type": "Feature", "properties": { "osm_id": null, "centroid": { "latitude": 53.800252, "longitude": -1.482448 }, "osm_way_id": "218984950", "building": "yes", "shop": "hairdresser" }, "geometry": { "type": "Polygon", "coordinates": [ [ [ -1.482372, 53.8002737 ], [ -1.4823374, 53.8002615 ], [ -1.4824089, 53.8001906 ], [ -1.482559, 53.8002433 ], [ -1.4824875, 53.8003142 ], [ -1.482372, 53.8002737 ] ] ] } },
	{ "type": "Feature", "properties": { "osm_id": null, "centroid": { "latitude": 53.843072, "longitude": -1.533307 }, "osm_way_id": "219481933", "name": "Unique Hairdresser", "building": "yes", "shop": "hairdresser", "other_tags": "\"phone\"=>\"+44 113 266 6655\",\"addr:street\"=>\"Harrogate Road\",\"addr:postcode\"=>\"LS17 6PY\",\"building:levels\"=>\"2\",\"source:building\"=>\"bing\",\"addr:housenumber\"=>\"376\"" }, "geometry": { "type": "Polygon", "coordinates": [ [ [ -1.533396, 53.843043 ], [ -1.5334, 53.8430953 ], [ -1.5332178, 53.8431001 ], [ -1.5332139, 53.8430477 ], [ -1.533396, 53.843043 ] ] ] } },
	{ "type": "Feature", "properties": { "osm_id": null, "centroid": { "latitude": 53.828102, "longitude": -1.566383 }, "osm_way_id": "250875355", "name": "Moustache", "building": "yes", "shop": "hairdresser" }, "geometry": { "type": "Polygon", "coordinates": [ [ [ -1.5664257, 53.8281312 ], [ -1.5663183, 53.8281098 ], [ -1.5663344, 53.8280734 ], [ -1.5664471, 53.8280956 ], [ -1.5664257, 53.8281312 ] ] ] } },
	{ "type": "Feature", "properties": { "osm_id": null, "centroid": { "latitude": 53.820115, "longitude": -1.576818 }, "osm_way_id": "265766057", "name": "North & South", "building": "retail", "shop": "hairdresser", "other_tags": "\"addr:city\"=>\"Leeds\",\"addr:housenumber\"=>\"19\",\"addr:postcode\"=>\"LS6 3AA\",\"addr:street\"=>\"Otley Road\",\"wheelchair\"=>\"limited\"" }, "geometry": { "type": "Polygon", "coordinates": [ [ [ -1.5767185, 53.8201096 ], [ -1.576879, 53.820069 ], [ -1.576918, 53.8201134 ], [ -1.576762, 53.820161 ], [ -1.5767185, 53.8201096 ] ] ] } },
	{ "type": "Feature", "properties": { "osm_id": null, "centroid": { "latitude": 53.833237, "longitude": -1.604328 }, "osm_way_id": "305717020", "name": "Roys Rolls", "amenity": "cafe", "building": "yes", "shop": "hairdresser", "other_tags": "\"addr:city\"=>\"Leeds\",\"addr:housenumber\"=>\"193\",\"addr:postcode\"=>\"LS16 5BQ\",\"addr:street\"=>\"Butcher Hill\",\"addr:suburb\"=>\"West Park\",\"fhrs:id\"=>\"486661\"" }, "geometry": { "type": "Polygon", "coordinates": [ [ [ -1.6042672, 53.8332575 ], [ -1.6042676, 53.8331881 ], [ -1.6042928, 53.8331881 ], [ -1.6043377, 53.833197 ], [ -1.6043783, 53.8332209 ], [ -1.604389, 53.8332524 ], [ -1.6043676, 53.8332852 ], [ -1.6042672, 53.8332575 ] ] ] } },
	{ "type": "Feature", "properties": { "osm_id": null, "centroid": { "latitude": 53.795816, "longitude": -1.543340 }, "osm_way_id": "337860709", "name": "City Gent", "shop": "hairdresser", "other_tags": "\"addr:city\"=>\"Leeds\",\"addr:housenumber\"=>\"10\",\"addr:postcode\"=>\"LS1 6EN\",\"addr:street\"=>\"Boar Lane\",\"wheelchair\"=>\"yes\"" }, "geometry": { "type": "Polygon", "coordinates": [ [ [ -1.5433027, 53.7958869 ], [ -1.5432573, 53.7957605 ], [ -1.5433777, 53.7957454 ], [ -1.5434231, 53.7958718 ], [ -1.5433027, 53.7958869 ] ] ] } },
	{ "type": "Feature", "properties": { "osm_id": null, "centroid": { "latitude": 53.795821, "longitude": -1.542025 }, "osm_way_id": "337860716", "name": "Pierre Alexandre Colour Bar", "shop": "hairdresser", "other_tags": "\"addr:city\"=>\"Leeds\",\"addr:housenumber\"=>\"12\",\"addr:postcode\"=>\"LS1 6DL\",\"addr:street\"=>\"Duncan Street\"" }, "geometry": { "type": "Polygon", "coordinates": [ [ [ -1.5420568, 53.7958938 ], [ -1.5419776, 53.7958886 ], [ -1.5419976, 53.7957474 ], [ -1.5420721, 53.7957485 ], [ -1.5420568, 53.7958938 ] ] ] } },
	{ "type": "Feature", "properties": { "osm_id": null, "centroid": { "latitude": 53.846430, "longitude": -1.633198 }, "osm_way_id": "372433142", "name": "Total Being", "building": "yes", "shop": "hairdresser", "other_tags": "\"addr:city\"=>\"Horsforth\",\"addr:housenumber\"=>\"16\",\"addr:postcode\"=>\"LS18 5NR\",\"addr:street\"=>\"Station Road\",\"phone\"=>\"+44 113 258 6465\"" }, "geometry": { "type": "Polygon", "coordinates": [ [ [ -1.6332402, 53.8463512 ], [ -1.6332997, 53.8464868 ], [ -1.6331568, 53.8465087 ], [ -1.6330972, 53.8463731 ], [ -1.6332402, 53.8463512 ] ] ] } },
	{ "type": "Feature", "properties": { "osm_id": null, "centroid": { "latitude": 53.836459, "longitude": -1.642502 }, "osm_way_id": "385230902", "name": "No. 2 The Green", "building": "yes", "shop": "hairdresser", "other_tags": "\"addr:city\"=>\"Leeds\",\"addr:housenumber\"=>\"2-3\",\"addr:postcode\"=>\"LS18 4RH\",\"addr:street\"=>\"The Green\",\"addr:suburb\"=>\"Horsforth\",\"opening_hours\"=>\"Su-Mo Closed; Tu-We 09:00-18:00; Th 11:00-20:00; Fr-Sa 09:00-17:00\",\"phone\"=>\"+44 113 258 8895\"" }, "geometry": { "type": "Polygon", "coordinates": [ [ [ -1.642537, 53.836528 ], [ -1.6424566, 53.8364974 ], [ -1.642356, 53.8364591 ], [ -1.6423426, 53.8364548 ], [ -1.6423902, 53.8364097 ], [ -1.6425176, 53.8364595 ], [ -1.6425413, 53.8364386 ], [ -1.6425954, 53.8363907 ], [ -1.6426618, 53.8364211 ], [ -1.642537, 53.836528 ] ] ] } },
	{ "type": "Feature", "properties": { "osm_id": null, "centroid": { "latitude": 53.807517, "longitude": -1.535000 }, "osm_way_id": "433027789", "name": "Little Red's Boutique", "building": "yes", "shop": "hairdresser", "other_tags": "\"addr:city\"=>\"Leeds\",\"addr:street\"=>\"North Street\",\"addr:postcode\"=>\"LS7 2AA\",\"building:levels\"=>\"2\",\"addr:housenumber\"=>\"217\"" }, "geometry": { "type": "Polygon", "coordinates": [ [ [ -1.5350593, 53.8075137 ], [ -1.535061, 53.8075327 ], [ -1.5349385, 53.8075413 ], [ -1.5349478, 53.8074923 ], [ -1.5350593, 53.8075137 ] ] ] } },
	{ "type": "Feature", "properties": { "osm_id": null, "centroid": { "latitude": 53.807562, "longitude": -1.534996 }, "osm_way_id": "433027790", "name": "Hennessy Hair Studio", "building": "yes", "shop": "hairdresser", "other_tags": "\"addr:city\"=>\"Leeds\",\"addr:street\"=>\"North Street\",\"addr:postcode\"=>\"LS7 2AA\",\"building:levels\"=>\"2\",\"addr:housenumber\"=>\"219\"" }, "geometry": { "type": "Polygon", "coordinates": [ [ [ -1.535061, 53.8075327 ], [ -1.5350628, 53.8075518 ], [ -1.5349293, 53.8075903 ], [ -1.5349385, 53.8075413 ], [ -1.535061, 53.8075327 ] ] ] } },
	{ "type": "Feature", "properties": { "osm_id": null, "centroid": { "latitude": 53.807354, "longitude": -1.535096 }, "osm_way_id": "433027791", "name": "Victorious Hair", "building": "yes", "shop": "hairdresser", "other_tags": "\"addr:housenumber\"=>\"209\",\"addr:postcode\"=>\"LS7 2AA\",\"addr:street\"=>\"North Street\",\"building:levels\"=>\"2\"" }, "geometry": { "type": "Polygon", "coordinates": [ [ [ -1.5351648, 53.8073481 ], [ -1.5351371, 53.8073903 ], [ -1.5350269, 53.807364 ], [ -1.5350561, 53.8073167 ], [ -1.5351648, 53.8073481 ] ] ] } },
	{ "type": "Feature", "properties": { "osm_id": null, "centroid": { "latitude": 53.807719, "longitude": -1.534433 }, "osm_way_id": "433276899", "name": "Hair Life", "building": "yes", "shop": "hairdresser", "other_tags": "\"addr:city\"=>\"Leeds\",\"addr:housenumber\"=>\"5\",\"addr:postcode\"=>\"LS7 1AD\",\"addr:street\"=>\"Sheepscar Street South\"" }, "geometry": { "type": "Polygon", "coordinates": [ [ [ -1.5344887, 53.8076948 ], [ -1.5345062, 53.8077322 ], [ -1.534369, 53.8077429 ], [ -1.5343605, 53.8077039 ], [ -1.5344887, 53.8076948 ] ] ] } },
	{ "type": "Feature", "properties": { "osm_id": null, "centroid": { "latitude": 53.809555, "longitude": -1.584026 }, "osm_way_id": "472162363", "name": "The Barbers Shop", "building": "yes", "shop": "hairdresser" }, "geometry": { "type": "Polygon", "coordinates": [ [ [ -1.5840082, 53.809608 ], [ -1.5839284, 53.8095379 ], [ -1.5839797, 53.8095175 ], [ -1.5839909, 53.8095274 ], [ -1.5840558, 53.8095016 ], [ -1.5841245, 53.8095618 ], [ -1.5840082, 53.809608 ] ] ] } },
	{ "type": "Feature", "properties": { "osm_id": null, "centroid": { "latitude": 53.791160, "longitude": -1.661016 }, "osm_way_id": "488711685", "building": "yes", "shop": "hairdresser" }, "geometry": { "type": "Polygon", "coordinates": [ [ [ -1.6609567, 53.7911795 ], [ -1.6609898, 53.7911269 ], [ -1.6610746, 53.7911391 ], [ -1.6610449, 53.7911933 ], [ -1.6609567, 53.7911795 ] ] ] } },
	{ "type": "Feature", "properties": { "osm_id": null, "centroid": { "latitude": 53.791054, "longitude": -1.661073 }, "osm_way_id": "488711687", "building": "yes", "shop": "hairdresser" }, "geometry": { "type": "Polygon", "coordinates": [ [ [ -1.661127, 53.7910434 ], [ -1.6611041, 53.7910853 ], [ -1.6610184, 53.7910749 ], [ -1.6610435, 53.7910223 ], [ -1.661127, 53.7910434 ] ] ] } },
	{ "type": "Feature", "properties": { "osm_id": null, "centroid": { "latitude": 53.796448, "longitude": -1.593842 }, "osm_way_id": "516664443", "name": "Stylelistiks", "building": "yes", "shop": "hairdresser" }, "geometry": { "type": "Polygon", "coordinates": [ [ [ -1.5937824, 53.7965223 ], [ -1.5938327, 53.7963655 ], [ -1.593901, 53.7963778 ], [ -1.5938839, 53.7965302 ], [ -1.5937824, 53.7965223 ] ] ] } },
	{ "type": "Feature", "properties": { "osm_id": null, "centroid": { "latitude": 53.807630, "longitude": -1.448134 }, "osm_way_id": "561380675", "name": "Panache Hair Studio", "building": "yes", "shop": "hairdresser" }, "geometry": { "type": "Polygon", "coordinates": [ [ [ -1.4481653, 53.8075815 ], [ -1.448159, 53.8076288 ], [ -1.4481477, 53.8076801 ], [ -1.4481034, 53.8076756 ], [ -1.4481223, 53.8075801 ], [ -1.4481653, 53.8075815 ] ] ] } },
	{ "type": "Feature", "properties": { "osm_id": null, "centroid": { "latitude": 53.821655, "longitude": -1.596774 }, "osm_way_id": "582528005", "name": "Scissors Palace", "building": "retail", "shop": "hairdresser" }, "geometry": { "type": "Polygon", "coordinates": [ [ [ -1.5967873, 53.8217077 ], [ -1.5966765, 53.8216581 ], [ -1.5967237, 53.8216213 ], [ -1.5967457, 53.8216311 ], [ -1.5967818, 53.8216029 ], [ -1.5968708, 53.8216427 ], [ -1.5968514, 53.8216577 ], [ -1.5967873, 53.8217077 ] ] ] } },
	{ "type": "Feature", "properties": { "osm_id": null, "centroid": { "latitude": 53.763749, "longitude": -1.561604 }, "osm_way_id": "607867965", "name": "Hussain Barber", "building": "retail", "shop": "hairdresser", "other_tags": "\"addr:city\"=>\"Leeds\",\"addr:housenumber\"=>\"17\",\"addr:postcode\"=>\"LS11 5LG\",\"addr:street\"=>\"Ring Road Beeston Park\",\"addr:suburb\"=>\"Hunslet\"" }, "geometry": { "type": "Polygon", "coordinates": [ [ [ -1.5616158, 53.7637768 ], [ -1.5614762, 53.7638179 ], [ -1.5614344, 53.7637683 ], [ -1.5617323, 53.7636806 ], [ -1.5617741, 53.7637302 ], [ -1.5616158, 53.7637768 ] ] ] } },
	{ "type": "Feature", "properties": { "osm_id": null, "centroid": { "latitude": 53.763924, "longitude": -1.561839 }, "osm_way_id": "607867967", "name": "La Rose", "building": "retail", "shop": "hairdresser", "other_tags": "\"addr:city\"=>\"Leeds\",\"addr:housenumber\"=>\"7\",\"addr:postcode\"=>\"LS11 5LG\",\"addr:street\"=>\"Ring Road Beeston Park\",\"addr:suburb\"=>\"Hunslet\"" }, "geometry": { "type": "Polygon", "coordinates": [ [ [ -1.5617805, 53.7639722 ], [ -1.5617394, 53.7639233 ], [ -1.5618976, 53.7638767 ], [ -1.5619388, 53.7639255 ], [ -1.5617805, 53.7639722 ] ] ] } },
	{ "type": "Feature", "properties": { "osm_id": null, "centroid": { "latitude": 53.777986, "longitude": -1.542445 }, "osm_way_id": "617011025", "name": "Just Men", "building": "yes", "shop": "hairdresser", "other_tags": "\"addr:housenumber\"=>\"33\",\"addr:street\"=>\"Fairford Terrace\"" }, "geometry": { "type": "Polygon", "coordinates": [ [ [ -1.5424558, 53.7779385 ], [ -1.5425169, 53.7779624 ], [ -1.5424382, 53.7780327 ], [ -1.542373, 53.7780124 ], [ -1.5424558, 53.7779385 ] ] ] } },
	{ "type": "Feature", "properties": { "osm_id": null, "centroid": { "latitude": 53.776539, "longitude": -1.544746 }, "osm_way_id": "617237596", "name": "Amanda's Unisex Hair Studio", "building": "yes", "shop": "hairdresser", "other_tags": "\"addr:city\"=>\"Leeds\",\"addr:street\"=>\"Dewsbury Road\"" }, "geometry": { "type": "Polygon", "coordinates": [ [ [ -1.544828, 53.776522 ], [ -1.5448203, 53.7765658 ], [ -1.5446633, 53.776556 ], [ -1.5446711, 53.7765123 ], [ -1.544828, 53.776522 ] ] ] } },
	{ "type": "Feature", "properties": { "osm_id": null, "centroid": { "latitude": 53.778486, "longitude": -1.544508 }, "osm_way_id": "625801434", "name": "Elizabeth Salon", "building": "yes", "shop": "hairdresser", "other_tags": "\"addr:city\"=>\"Leeds\",\"addr:housenumber\"=>\"167\",\"addr:postcode\"=>\"LS11 5EG\",\"addr:street\"=>\"Dewsbury Road\"" }, "geometry": { "type": "Polygon", "coordinates": [ [ [ -1.5445848, 53.7784668 ], [ -1.5445807, 53.7785097 ], [ -1.5444319, 53.7785047 ], [ -1.544436, 53.7784619 ], [ -1.5445848, 53.7784668 ] ] ] } },
	{ "type": "Feature", "properties": { "osm_id": null, "centroid": { "latitude": 53.776786, "longitude": -1.545191 }, "osm_way_id": "625983102", "name": "Vision Hair", "building": "yes", "shop": "hairdresser", "other_tags": "\"addr:city\"=>\"Leeds\",\"addr:housenumber\"=>\"228\",\"addr:postcode\"=>\"LS11 6ER\",\"addr:street\"=>\"Dewsbury Road\"" }, "geometry": { "type": "Polygon", "coordinates": [ [ [ -1.5452539, 53.7768128 ], [ -1.5451227, 53.7768055 ], [ -1.5451308, 53.7767588 ], [ -1.5452595, 53.7767667 ], [ -1.5452539, 53.7768128 ] ] ] } },
	{ "type": "Feature", "properties": { "osm_id": null, "centroid": { "latitude": 53.775903, "longitude": -1.544925 }, "osm_way_id": "626477483", "name": "New Look", "building": "yes", "shop": "hairdresser", "other_tags": "\"addr:city\"=>\"Leeds\",\"addr:street\"=>\"Dewsbury Road\"" }, "geometry": { "type": "Polygon", "coordinates": [ [ [ -1.5449853, 53.7759313 ], [ -1.5448504, 53.7759147 ], [ -1.5448657, 53.7758741 ], [ -1.5449995, 53.7758911 ], [ -1.5449853, 53.7759313 ] ] ] } },
	{ "type": "Feature", "properties": { "osm_id": null, "centroid": { "latitude": 53.775876, "longitude": -1.545442 }, "osm_way_id": "628986870", "name": "Salon Prestige", "building": "yes", "shop": "hairdresser", "other_tags": "\"addr:city\"=>\"Leeds\",\"addr:housenumber\"=>\"254\",\"addr:postcode\"=>\"LS11 6JQ\",\"addr:street\"=>\"Dewsbury Road\"" }, "geometry": { "type": "Polygon", "coordinates": [ [ [ -1.5455189, 53.7758504 ], [ -1.5455084, 53.7759099 ], [ -1.5453659, 53.7759011 ], [ -1.5453765, 53.7758416 ], [ -1.5455189, 53.7758504 ] ] ] } },
	{ "type": "Feature", "properties": { "osm_id": null, "centroid": { "latitude": 53.765713, "longitude": -1.529783 }, "osm_way_id": "629231126", "name": "Andy's Barbers", "building": "retail", "shop": "hairdresser", "other_tags": "\"addr:city\"=>\"Leeds\",\"addr:housenumber\"=>\"4\",\"addr:postcode\"=>\"LS10 3AH\",\"addr:street\"=>\"Belle Isle Parade\",\"addr:suburb\"=>\"Belle Isle\"" }, "geometry": { "type": "Polygon", "coordinates": [ [ [ -1.5298676, 53.7656902 ], [ -1.5298351, 53.765758 ], [ -1.5296977, 53.7657349 ], [ -1.5297302, 53.7656671 ], [ -1.5298676, 53.7656902 ] ] ] } },
	{ "type": "Feature", "properties": { "osm_id": null, "centroid": { "latitude": 53.838115, "longitude": -1.543283 }, "osm_way_id": "636017019", "name": "Richard Mann", "building": "residential", "shop": "hairdresser", "other_tags": "\"addr:city\"=>\"Leeds\",\"addr:housenumber\"=>\"4\",\"addr:postcode\"=>\"LS17 5PN\",\"addr:street\"=>\"Whinbrook Crescent\",\"addr:suburb\"=>\"Chapel Allerton\"" }, "geometry": { "type": "Polygon", "coordinates": [ [ [ -1.543338, 53.8381575 ], [ -1.5432483, 53.8381646 ], [ -1.5432272, 53.8380723 ], [ -1.5433169, 53.8380652 ], [ -1.543338, 53.8381575 ] ] ] } },
	{ "type": "Feature", "properties": { "osm_id": null, "centroid": { "latitude": 53.779193, "longitude": -1.544522 }, "osm_way_id": "639779526", "name": "Barber's Shop", "building": "yes", "shop": "hairdresser", "other_tags": "\"addr:city\"=>\"Leeds\",\"addr:housenumber\"=>\"155\",\"addr:postcode\"=>\"LS11 5NW\",\"addr:street\"=>\"Dewsbury Road\"" }, "geometry": { "type": "Polygon", "coordinates": [ [ [ -1.544591, 53.7791877 ], [ -1.5445871, 53.7792133 ], [ -1.5444525, 53.7791977 ], [ -1.5444789, 53.7791734 ], [ -1.544591, 53.7791877 ] ] ] } },
	{ "type": "Feature", "properties": { "osm_id": null, "centroid": { "latitude": 53.748064, "longitude": -1.548813 }, "osm_way_id": "643080928", "name": "Modern Men Hair Design", "building": "retail", "shop": "hairdresser", "other_tags": "\"addr:city\"=>\"Leeds\",\"addr:housenumber\"=>\"24a\",\"addr:postcode\"=>\"LS10 4LX\",\"addr:street\"=>\"Middleton Park Circus\",\"addr:suburb\"=>\"Middleton\",\"website\"=>\"https:\/\/modern-men.co.uk\/\"" }, "geometry": { "type": "Polygon", "coordinates": [ [ [ -1.548838, 53.7480266 ], [ -1.5488709, 53.7480855 ], [ -1.5487883, 53.7481017 ], [ -1.5487553, 53.7480429 ], [ -1.548838, 53.7480266 ] ] ] } },
	{ "type": "Feature", "properties": { "osm_id": null, "centroid": { "latitude": 53.748071, "longitude": -1.549322 }, "osm_way_id": "643080941", "name": "Nova", "building": "retail", "shop": "hairdresser", "other_tags": "\"addr:city\"=>\"Leeds\",\"addr:housenumber\"=>\"101a\",\"addr:postcode\"=>\"LS10 4LS\",\"addr:street\"=>\"Middleton Park Road\",\"addr:suburb\"=>\"Middleton\"" }, "geometry": { "type": "Polygon", "coordinates": [ [ [ -1.5492847, 53.7480277 ], [ -1.5493519, 53.7480257 ], [ -1.5493596, 53.7481148 ], [ -1.5492924, 53.7481168 ], [ -1.5492847, 53.7480277 ] ] ] } },
	{ "type": "Feature", "properties": { "osm_id": null, "centroid": { "latitude": 53.846021, "longitude": -1.605434 }, "osm_way_id": "643082929", "name": "Indigo", "building": "retail", "shop": "hairdresser", "other_tags": "\"addr:city\"=>\"Leeds\",\"addr:housenumber\"=>\"15\",\"addr:postcode\"=>\"LS16 6LJ\",\"addr:street\"=>\"Iveson Approach\",\"addr:suburb\"=>\"Lawnswood\"" }, "geometry": { "type": "Polygon", "coordinates": [ [ [ -1.6054379, 53.8460771 ], [ -1.6053437, 53.8460025 ], [ -1.6054308, 53.8459642 ], [ -1.6055249, 53.8460388 ], [ -1.6054379, 53.8460771 ] ] ] } },
	{ "type": "Feature", "properties": { "osm_id": null, "centroid": { "latitude": 53.822131, "longitude": -1.443045 }, "osm_way_id": "649604844", "name": "Fusion Hair Design", "building": "yes", "shop": "hairdresser", "other_tags": "\"addr:city\"=>\"Leeds\",\"addr:housename\"=>\"Langbar Retail Centre\",\"addr:postcode\"=>\"LS14 5EY\",\"addr:street\"=>\"Swarcliffe Avenue\",\"addr:suburb\"=>\"Swarcliffe\",\"addr:unit\"=>\"3\"" }, "geometry": { "type": "Polygon", "coordinates": [ [ [ -1.4429257, 53.8220853 ], [ -1.4430159, 53.8220491 ], [ -1.4431638, 53.8221773 ], [ -1.4430736, 53.8222135 ], [ -1.4429257, 53.8220853 ] ] ] } },
	{ "type": "Feature", "properties": { "osm_id": null, "centroid": { "latitude": 53.782631, "longitude": -1.585720 }, "osm_way_id": "654538628", "name": "Room 112", "building": "yes", "shop": "hairdresser", "other_tags": "\"addr:city\"=>\"Leeds\",\"addr:housenumber\"=>\"112\",\"addr:postcode\"=>\"LS12 4AD\",\"addr:street\"=>\"Dixon Lane\"" }, "geometry": { "type": "Polygon", "coordinates": [ [ [ -1.5857435, 53.7826864 ], [ -1.5857396, 53.7826916 ], [ -1.5856296, 53.7826625 ], [ -1.5856997, 53.7825699 ], [ -1.5858097, 53.782599 ], [ -1.585793, 53.782621 ], [ -1.5857435, 53.7826864 ] ] ] } }
]
}
