{
"type": "FeatureCollection",
"crs": { "type": "name", "properties": { "name": "urn:ogc:def:crs:OGC:1.3:CRS84" } },
"features": [
	{ "type": "Feature", "properties": { "osm_id": "5331048015", "name": "Al-Qaza", "amenity": "hookah_lounge", "other_tags": "\"phone\"=>\"+44 113 246 0263\",\"website\"=>\"https:\/\/en-gb.facebook.com\/alqazaleedz\/\",\"addr:city\"=>\"Leeds\",\"addr:street\"=>\"Cross Stamford Street\",\"addr:postcode\"=>\"LS7 1BA\",\"addr:housenumber\"=>\"30-36\"" }, "geometry": { "type": "Point", "coordinates": [ -1.5306146, 53.80549 ] } },
	{ "type": "Feature", "properties": { "osm_id": "5465080580", "name": "Rotana Cafe", "amenity": "hookah_lounge", "other_tags": "\"fhrs:id\"=>\"1178983\",\"addr:city\"=>\"Leeds\",\"addr:street\"=>\"Harehills Road\",\"addr:suburb\"=>\"Harehills\",\"addr:postcode\"=>\"LS8 5BW\",\"addr:housenumber\"=>\"149-153\"" }, "geometry": { "type": "Point", "coordinates": [ -1.5167087, 53.8087163 ] } },
	{ "type": "Feature", "properties": { "osm_id": "6586381616", "name": "MYA Lounge", "amenity": "hookah_lounge", "other_tags": "\"fhrs:id\"=>\"738511\",\"addr:city\"=>\"Leeds\",\"addr:unit\"=>\"b5\",\"addr:place\"=>\"Whingate Business Park\",\"addr:street\"=>\"Wortley Road\",\"addr:suburb\"=>\"Armley\",\"addr:postcode\"=>\"LS12 3HT\",\"addr:housename\"=>\"Sunshine Mills\"" }, "geometry": { "type": "Point", "coordinates": [ -1.5993288, 53.7950665 ] } },
	{ "type": "Feature", "properties": { "osm_id": "6769233558", "name": "Casablanca Lounge", "amenity": "hookah_lounge" }, "geometry": { "type": "Point", "coordinates": [ -1.5306683, 53.8044303 ] } },
	{ "type": "Feature", "properties": { "osm_id": "6769233562", "name": "My Sheesh", "amenity": "hookah_lounge" }, "geometry": { "type": "Point", "coordinates": [ -1.5292038, 53.8038775 ] } },
	{ "type": "Feature", "properties": { "osm_id": "6769233564", "name": "Ocean Lounge", "amenity": "hookah_lounge", "other_tags": "\"addr:city\"=>\"Leeds\",\"addr:street\"=>\"Cherry Row\",\"addr:suburb\"=>\"Burmantofts\",\"addr:postcode\"=>\"LS9 7LY\",\"addr:housenumber\"=>\"11\"" }, "geometry": { "type": "Point", "coordinates": [ -1.5293513, 53.8036843 ] } },
	{ "type": "Feature", "properties": { "osm_id": "6863303009", "name": "Q360 Lounge", "amenity": "hookah_lounge", "other_tags": "\"sport\"=>\"billiards\",\"fhrs:id\"=>\"1075886\",\"addr:city\"=>\"Leeds\",\"addr:unit\"=>\"7\",\"addr:street\"=>\"Roundhay Road\",\"addr:postcode\"=>\"LS8 2SH\",\"addr:housename\"=>\"Clock Buildings\"" }, "geometry": { "type": "Point", "coordinates": [ -1.5146344, 53.8184609 ] } }
]
}
