{
"type": "FeatureCollection",
"crs": { "type": "name", "properties": { "name": "urn:ogc:def:crs:OGC:1.3:CRS84" } },
"features": [
	{ "type": "Feature", "properties": { "osm_id": "4364076649", "name": "B & M Fabrics", "other_tags": "\"addr:city\"=>\"Leeds\",\"addr:housenumber\"=>\"21-23\",\"addr:postcode\"=>\"LS2 7DT\",\"addr:street\"=>\"New York Street\",\"shop\"=>\"fabric\"" }, "geometry": { "type": "Point", "coordinates": [ -1.5386959, 53.7966094 ] } },
	{ "type": "Feature", "properties": { "osm_id": "4847310278", "name": "Moon's", "other_tags": "\"check_date\"=>\"2023-03-29\",\"shop\"=>\"fabric\"" }, "geometry": { "type": "Point", "coordinates": [ -1.71471, 53.8762232 ] } },
	{ "type": "Feature", "properties": { "osm_id": "5632863871", "name": "B&M Fabrics", "other_tags": "\"addr:city\"=>\"Leeds\",\"addr:housename\"=>\"Market Buildings\",\"addr:housenumber\"=>\"17\",\"addr:postcode\"=>\"LS2 7HZ\",\"addr:street\"=>\"Ludgate Hill\",\"shop\"=>\"fabric\"" }, "geometry": { "type": "Point", "coordinates": [ -1.5396182, 53.7975941 ] } },
	{ "type": "Feature", "properties": { "osm_id": "6001482109", "name": "Jacks Fabrics", "other_tags": "\"shop\"=>\"fabric\"" }, "geometry": { "type": "Point", "coordinates": [ -1.5381302, 53.7974271 ] } },
	{ "type": "Feature", "properties": { "osm_id": "6001482137", "name": "Fletchers Interior Fabrics", "other_tags": "\"shop\"=>\"fabric\"" }, "geometry": { "type": "Point", "coordinates": [ -1.5385406, 53.7970159 ] } },
	{ "type": "Feature", "properties": { "osm_id": "6001482139", "name": "B&M Fabrics", "other_tags": "\"shop\"=>\"fabric\"" }, "geometry": { "type": "Point", "coordinates": [ -1.5385385, 53.7970983 ] } },
	{ "type": "Feature", "properties": { "osm_way_id": "204309677", "name": "John Louden", "building": "yes", "shop": "fabric" }, "geometry": { "type": "Polygon", "coordinates": [ [ [ -1.5623104, 53.7898995 ], [ -1.5623077, 53.7898705 ], [ -1.5623569, 53.7898656 ], [ -1.5623487, 53.7897946 ], [ -1.5625071, 53.7898108 ], [ -1.5624361, 53.7899786 ], [ -1.5623323, 53.789977 ], [ -1.5623104, 53.7898995 ] ] ] } }
]
}
