{
"type": "FeatureCollection",
"crs": { "type": "name", "properties": { "name": "urn:ogc:def:crs:OGC:1.3:CRS84" } },
"features": [
	{ "type": "Feature", "properties": { "osm_id": "292238532", "name": "The Crop Shop", "other_tags": "\"addr:housenumber\"=>\"7\",\"phone\"=>\"+44 113 772 136\",\"shop\"=>\"hairdresser\"" }, "geometry": { "type": "Point", "coordinates": [ -1.5430904, 53.7770409 ] } },
	{ "type": "Feature", "properties": { "osm_id": "297118271", "name": "Fringes Hair Salon", "other_tags": "\"shop\"=>\"hairdresser\"" }, "geometry": { "type": "Point", "coordinates": [ -1.6492423, 53.8001966 ] } },
	{ "type": "Feature", "properties": { "osm_id": "302737810", "name": "Victoria's Hair and Beauty", "other_tags": "\"old_name\"=>\"Hands On Beauty\",\"shop\"=>\"hairdresser\"" }, "geometry": { "type": "Point", "coordinates": [ -1.61006, 53.8046437 ] } },
	{ "type": "Feature", "properties": { "osm_id": "302868964", "name": "Carl & Paul Barber's", "other_tags": "\"shop\"=>\"hairdresser\"" }, "geometry": { "type": "Point", "coordinates": [ -1.6269417, 53.8057507 ] } },
	{ "type": "Feature", "properties": { "osm_id": "302868965", "name": "Beauty Box", "other_tags": "\"shop\"=>\"hairdresser\"" }, "geometry": { "type": "Point", "coordinates": [ -1.626859, 53.8057492 ] } },
	{ "type": "Feature", "properties": { "osm_id": "306328528", "name": "L Sixty-Five", "other_tags": "\"shop\"=>\"hairdresser\"" }, "geometry": { "type": "Point", "coordinates": [ -1.6088212, 53.7990734 ] } },
	{ "type": "Feature", "properties": { "osm_id": "313246917", "name": "Grades Barber", "other_tags": "\"shop\"=>\"hairdresser\"" }, "geometry": { "type": "Point", "coordinates": [ -1.5876678, 53.7973771 ] } },
	{ "type": "Feature", "properties": { "osm_id": "313246926", "name": "Hair", "other_tags": "\"shop\"=>\"hairdresser\"" }, "geometry": { "type": "Point", "coordinates": [ -1.5875694, 53.7977649 ] } },
	{ "type": "Feature", "properties": { "osm_id": "313246945", "name": "Sloanes Hair Design", "other_tags": "\"shop\"=>\"hairdresser\"" }, "geometry": { "type": "Point", "coordinates": [ -1.6028478, 53.8016519 ] } },
	{ "type": "Feature", "properties": { "osm_id": "319428951", "name": "Fazz's Barber Shop", "other_tags": "\"shop\"=>\"hairdresser\"" }, "geometry": { "type": "Point", "coordinates": [ -1.5678294, 53.8109069 ] } },
	{ "type": "Feature", "properties": { "osm_id": "319428958", "name": "Hussain Barbers", "other_tags": "\"shop\"=>\"hairdresser\"" }, "geometry": { "type": "Point", "coordinates": [ -1.5677153, 53.8118782 ] } },
	{ "type": "Feature", "properties": { "osm_id": "320998068", "name": "Ego", "other_tags": "\"shop\"=>\"hairdresser\"" }, "geometry": { "type": "Point", "coordinates": [ -1.5369688, 53.796211 ] } },
	{ "type": "Feature", "properties": { "osm_id": "330071180", "name": "The Barbers Shop", "other_tags": "\"shop\"=>\"hairdresser\"" }, "geometry": { "type": "Point", "coordinates": [ -1.5911309, 53.7965837 ] } },
	{ "type": "Feature", "properties": { "osm_id": "330089271", "name": "Renato Hair Design", "other_tags": "\"shop\"=>\"hairdresser\"" }, "geometry": { "type": "Point", "coordinates": [ -1.5926947, 53.7966301 ] } },
	{ "type": "Feature", "properties": { "osm_id": "331637215", "name": "Opal Hair & Beauty", "other_tags": "\"shop\"=>\"hairdresser\"" }, "geometry": { "type": "Point", "coordinates": [ -1.5890256, 53.7971597 ] } },
	{ "type": "Feature", "properties": { "osm_id": "331654381", "name": "Kwik Kutz", "other_tags": "\"shop\"=>\"hairdresser\"" }, "geometry": { "type": "Point", "coordinates": [ -1.5982944, 53.7964886 ] } },
	{ "type": "Feature", "properties": { "osm_id": "331654406", "name": "Hair Team", "other_tags": "\"shop\"=>\"hairdresser\"" }, "geometry": { "type": "Point", "coordinates": [ -1.5971802, 53.796843 ] } },
	{ "type": "Feature", "properties": { "osm_id": "331654409", "name": "K's Cuts", "other_tags": "\"shop\"=>\"hairdresser\"" }, "geometry": { "type": "Point", "coordinates": [ -1.6012011, 53.7976797 ] } },
	{ "type": "Feature", "properties": { "osm_id": "332484045", "name": "Spirals", "other_tags": "\"addr:city\"=>\"Leeds\",\"addr:housenumber\"=>\"93\",\"addr:postcode\"=>\"LS7 2PR\",\"addr:street\"=>\"Stainbeck Road\",\"addr:suburb\"=>\"Meanwood\",\"shop\"=>\"hairdresser\"" }, "geometry": { "type": "Point", "coordinates": [ -1.5555962, 53.8310901 ] } },
	{ "type": "Feature", "properties": { "osm_id": "332484046", "name": "RedX Hair & Beauty Studio", "other_tags": "\"addr:city\"=>\"Leeds\",\"addr:housenumber\"=>\"101\",\"addr:postcode\"=>\"LS7 2PR\",\"addr:street\"=>\"Stainbeck Road\",\"addr:suburb\"=>\"Meanwood\",\"shop\"=>\"hairdresser\"" }, "geometry": { "type": "Point", "coordinates": [ -1.5552733, 53.8311632 ] } },
	{ "type": "Feature", "properties": { "osm_id": "334884434", "name": "Charles Lewis", "other_tags": "\"shop\"=>\"hairdresser\"" }, "geometry": { "type": "Point", "coordinates": [ -1.5837866, 53.8068525 ] } },
	{ "type": "Feature", "properties": { "osm_id": "340071334", "name": "Trendline", "other_tags": "\"shop\"=>\"hairdresser\"" }, "geometry": { "type": "Point", "coordinates": [ -1.6325048, 53.8140469 ] } },
	{ "type": "Feature", "properties": { "osm_id": "342579639", "name": "Halo Hair", "other_tags": "\"addr:city\"=>\"Leeds\",\"addr:street\"=>\"Cherry Tree Walk\",\"shop\"=>\"hairdresser\"" }, "geometry": { "type": "Point", "coordinates": [ -1.540457, 53.7951648 ] } },
	{ "type": "Feature", "properties": { "osm_id": "342601289", "other_tags": "\"shop\"=>\"hairdresser\"" }, "geometry": { "type": "Point", "coordinates": [ -1.5396851, 53.8004131 ] } },
	{ "type": "Feature", "properties": { "osm_id": "342601307", "name": "Nicholas Jane Hairdressing", "other_tags": "\"shop\"=>\"hairdresser\"" }, "geometry": { "type": "Point", "coordinates": [ -1.5416613, 53.8002125 ] } },
	{ "type": "Feature", "properties": { "osm_id": "343136577", "name": "Flying Scissors", "other_tags": "\"opening_hours\"=>\"Mo-Su 09:00-21:00\",\"payment:cash\"=>\"yes\",\"shop\"=>\"hairdresser\",\"unisex\"=>\"yes\"" }, "geometry": { "type": "Point", "coordinates": [ -1.6165613, 53.7960765 ] } },
	{ "type": "Feature", "properties": { "osm_id": "349352562", "name": "Short-Topz", "other_tags": "\"shop\"=>\"hairdresser\"" }, "geometry": { "type": "Point", "coordinates": [ -1.6361946, 53.8064764 ] } },
	{ "type": "Feature", "properties": { "osm_id": "349352565", "name": "Luxe", "other_tags": "\"old_name\"=>\"paul michael\",\"shop\"=>\"hairdresser\",\"website\"=>\"https:\/\/www.luxesalon.co.uk\/\"" }, "geometry": { "type": "Point", "coordinates": [ -1.6359624, 53.8065069 ] } },
	{ "type": "Feature", "properties": { "osm_id": "352871293", "name": "Architect Hair", "other_tags": "\"shop\"=>\"hairdresser\"" }, "geometry": { "type": "Point", "coordinates": [ -1.5745416, 53.8146231 ] } },
	{ "type": "Feature", "properties": { "osm_id": "353922332", "name": "Mega City One", "other_tags": "\"shop\"=>\"hairdresser\"" }, "geometry": { "type": "Point", "coordinates": [ -1.5520273, 53.8082314 ] } },
	{ "type": "Feature", "properties": { "osm_id": "356074100", "name": "Rhubarb Hair Design", "other_tags": "\"addr:city\"=>\"Leeds\",\"addr:postcode\"=>\"LS12 5AA\",\"addr:street\"=>\"Cross Lane\",\"shop\"=>\"hairdresser\"" }, "geometry": { "type": "Point", "coordinates": [ -1.6194725, 53.7871703 ] } },
	{ "type": "Feature", "properties": { "osm_id": "357751948", "name": "Box", "other_tags": "\"shop\"=>\"hairdresser\"" }, "geometry": { "type": "Point", "coordinates": [ -1.5424704, 53.7945715 ] } },
	{ "type": "Feature", "properties": { "osm_id": "364458778", "name": "Mr Smiths Barbershop", "other_tags": "\"addr:housenumber\"=>\"154a\",\"addr:postcode\"=>\"LS26 8SF\",\"addr:street\"=>\"Holmesly Lane\",\"shop\"=>\"hairdresser\"" }, "geometry": { "type": "Point", "coordinates": [ -1.4646894, 53.7556447 ] } },
	{ "type": "Feature", "properties": { "osm_id": "382692532", "name": "Beechwood Hair Studio", "other_tags": "\"shop\"=>\"hairdresser\"" }, "geometry": { "type": "Point", "coordinates": [ -1.6758514, 53.8055588 ] } },
	{ "type": "Feature", "properties": { "osm_id": "392007372", "name": "Hussain Hairdresser", "other_tags": "\"shop\"=>\"hairdresser\"" }, "geometry": { "type": "Point", "coordinates": [ -1.5494162, 53.7737286 ] } },
	{ "type": "Feature", "properties": { "osm_id": "392047410", "name": "Denise's", "other_tags": "\"shop\"=>\"hairdresser\"" }, "geometry": { "type": "Point", "coordinates": [ -1.5554434, 53.7774645 ] } },
	{ "type": "Feature", "properties": { "osm_id": "405211386", "other_tags": "\"shop\"=>\"hairdresser\"" }, "geometry": { "type": "Point", "coordinates": [ -1.5528388, 53.7763642 ] } },
	{ "type": "Feature", "properties": { "osm_id": "430953147", "name": "Hair Lounge", "other_tags": "\"shop\"=>\"hairdresser\"" }, "geometry": { "type": "Point", "coordinates": [ -1.6009914, 53.7835957 ] } },
	{ "type": "Feature", "properties": { "osm_id": "538870441", "name": "Chevin Barber", "other_tags": "\"hairdresser\"=>\"men\",\"phone\"=>\"+44 1943 468846\",\"shop\"=>\"hairdresser\"" }, "geometry": { "type": "Point", "coordinates": [ -1.6927884, 53.904489 ] } },
	{ "type": "Feature", "properties": { "osm_id": "886569595", "name": "Trim And Proper", "other_tags": "\"shop\"=>\"hairdresser\"" }, "geometry": { "type": "Point", "coordinates": [ -1.53854, 53.830504 ] } },
	{ "type": "Feature", "properties": { "osm_id": "1251742960", "name": "Prosenium", "other_tags": "\"shop\"=>\"hairdresser\"" }, "geometry": { "type": "Point", "coordinates": [ -1.6521821, 53.8095903 ] } },
	{ "type": "Feature", "properties": { "osm_id": "1406386709", "name": "Lez Robinz", "other_tags": "\"shop\"=>\"hairdresser\"" }, "geometry": { "type": "Point", "coordinates": [ -1.5856825, 53.8074839 ] } },
	{ "type": "Feature", "properties": { "osm_id": "1859541299", "name": "Pure Indulgence", "other_tags": "\"addr:housename\"=>\"Laurel Bank\",\"old_name\"=>\"E.K.One Hairdressing\",\"shop\"=>\"hairdresser\"" }, "geometry": { "type": "Point", "coordinates": [ -1.4512443, 53.8931615 ] } },
	{ "type": "Feature", "properties": { "osm_id": "2072972461", "name": "Martin's", "other_tags": "\"shop\"=>\"hairdresser\"" }, "geometry": { "type": "Point", "coordinates": [ -1.5619478, 53.7641991 ] } },
	{ "type": "Feature", "properties": { "osm_id": "2072972464", "name": "Profile Hair Studio", "other_tags": "\"shop\"=>\"hairdresser\"" }, "geometry": { "type": "Point", "coordinates": [ -1.5617216, 53.7646906 ] } },
	{ "type": "Feature", "properties": { "osm_id": "2073006178", "name": "Razers", "other_tags": "\"shop\"=>\"hairdresser\"" }, "geometry": { "type": "Point", "coordinates": [ -1.5556273, 53.7672792 ] } },
	{ "type": "Feature", "properties": { "osm_id": "2117006487", "other_tags": "\"shop\"=>\"hairdresser\"" }, "geometry": { "type": "Point", "coordinates": [ -1.5286777, 53.778838 ] } },
	{ "type": "Feature", "properties": { "osm_id": "2124265334", "name": "Sketch Hair", "other_tags": "\"shop\"=>\"hairdresser\"" }, "geometry": { "type": "Point", "coordinates": [ -1.5455446, 53.7952958 ] } },
	{ "type": "Feature", "properties": { "osm_id": "2125610521", "name": "Just Men", "other_tags": "\"shop\"=>\"hairdresser\"" }, "geometry": { "type": "Point", "coordinates": [ -1.5379817, 53.7965878 ] } },
	{ "type": "Feature", "properties": { "osm_id": "2128107730", "name": "Atelier", "other_tags": "\"addr:city\"=>\"Leeds\",\"addr:housenumber\"=>\"8\",\"addr:postcode\"=>\"LS2 7JF\",\"addr:street\"=>\"Vicar Lane\",\"old_name\"=>\"Prague Hair Salon\",\"shop\"=>\"hairdresser\",\"website\"=>\"https:\/\/atelier.mytreatwell.co.uk\/\"" }, "geometry": { "type": "Point", "coordinates": [ -1.5401195, 53.7970888 ] } },
	{ "type": "Feature", "properties": { "osm_id": "2134260269", "name": "Unique Gro Hair & Beauty Salon", "other_tags": "\"shop\"=>\"hairdresser\"" }, "geometry": { "type": "Point", "coordinates": [ -1.5398349, 53.7967847 ] } },
	{ "type": "Feature", "properties": { "osm_id": "2138746302", "name": "Hair", "other_tags": "\"shop\"=>\"hairdresser\"" }, "geometry": { "type": "Point", "coordinates": [ -1.5413191, 53.7974686 ] } },
	{ "type": "Feature", "properties": { "osm_id": "2144729451", "name": "Remedy", "amenity": "bar", "other_tags": "\"addr:city\"=>\"Leeds\",\"addr:housenumber\"=>\"16\",\"addr:postcode\"=>\"LS1 6NU\",\"addr:street\"=>\"New Briggate\",\"fhrs:id\"=>\"1018414\",\"shop\"=>\"hairdresser\"" }, "geometry": { "type": "Point", "coordinates": [ -1.5416596, 53.7994476 ] } },
	{ "type": "Feature", "properties": { "osm_id": "2353519756", "name": "Steca's Barber Shop", "other_tags": "\"addr:street\"=>\"New Inn Court\",\"hairdresser\"=>\"men\",\"shop\"=>\"hairdresser\"" }, "geometry": { "type": "Point", "coordinates": [ -1.6938876, 53.9049909 ] } },
	{ "type": "Feature", "properties": { "osm_id": "2353725351", "name": "Debutante", "other_tags": "\"addr:city\"=>\"Otley\",\"addr:street\"=>\"Newmarket\",\"is_in:town\"=>\"Otley\",\"phone\"=>\"+44 1943 462996\",\"shop\"=>\"hairdresser\"" }, "geometry": { "type": "Point", "coordinates": [ -1.6930854, 53.9047932 ] } },
	{ "type": "Feature", "properties": { "osm_id": "2353725354", "name": "Daniyal Baig", "other_tags": "\"addr:city\"=>\"Otley\",\"addr:housenumber\"=>\"26\",\"addr:postcode\"=>\"LS21 3AE\",\"addr:street\"=>\"Newmarket\",\"is_in:town\"=>\"Otley\",\"shop\"=>\"hairdresser\"" }, "geometry": { "type": "Point", "coordinates": [ -1.6930943, 53.9048309 ] } },
	{ "type": "Feature", "properties": { "osm_id": "2353737752", "name": "Westgate Barbers", "other_tags": "\"addr:city\"=>\"Otley\",\"addr:street\"=>\"Westgate\",\"male\"=>\"yes\",\"old_name\"=>\"Tabatha's Trendz\",\"shop\"=>\"hairdresser\"" }, "geometry": { "type": "Point", "coordinates": [ -1.6972294, 53.9044709 ] } },
	{ "type": "Feature", "properties": { "osm_id": "2408752468", "name": "Scissor Sisters", "other_tags": "\"shop\"=>\"hairdresser\"" }, "geometry": { "type": "Point", "coordinates": [ -1.5673558, 53.8292784 ] } },
	{ "type": "Feature", "properties": { "osm_id": "2408752499", "name": "Chaplins", "other_tags": "\"shop\"=>\"hairdresser\"" }, "geometry": { "type": "Point", "coordinates": [ -1.5665768, 53.8285538 ] } },
	{ "type": "Feature", "properties": { "osm_id": "2430356591", "name": "Tonic", "other_tags": "\"addr:city\"=>\"Leeds\",\"addr:housenumber\"=>\"12B\",\"addr:postcode\"=>\"LS18 4RJ\",\"addr:street\"=>\"Town Street\",\"addr:suburb\"=>\"Horsforth\",\"opening_hours\"=>\"Mo-Fr 09:00-16:30; Sa 09:00-12:30\",\"phone\"=>\"+44 113 258 8841\",\"shop\"=>\"hairdresser\"" }, "geometry": { "type": "Point", "coordinates": [ -1.641932, 53.8369739 ] } },
	{ "type": "Feature", "properties": { "osm_id": "2556966316", "name": "Chris Wallbank Hairdressing", "other_tags": "\"shop\"=>\"hairdresser\"" }, "geometry": { "type": "Point", "coordinates": [ -1.7124433, 53.873898 ] } },
	{ "type": "Feature", "properties": { "osm_id": "2952382428", "name": "Cissis Barbers", "other_tags": "\"shop\"=>\"hairdresser\"" }, "geometry": { "type": "Point", "coordinates": [ -1.5695163, 53.8271596 ] } },
	{ "type": "Feature", "properties": { "osm_id": "3057112834", "name": "Yazz Number One Hair Studio", "other_tags": "\"addr:city\"=>\"Yeadon\",\"addr:housename\"=>\"LA Fitness Health Club\",\"addr:postcode\"=>\"LS19 7EN\",\"addr:street\"=>\"Haworth Lane\",\"opening_hours\"=>\"Mo,Su off; Tu,Fr 09:00-18:00; We,Th 09:00-20:00; Sa 09:00-16:00\",\"phone\"=>\"+44 113 391 0888\",\"shop\"=>\"hairdresser\",\"website\"=>\"https:\/\/www.yazzhair.co\/yazz-yeadon-salon\/\",\"wheelchair\"=>\"no\"" }, "geometry": { "type": "Point", "coordinates": [ -1.6887141, 53.8669423 ] } },
	{ "type": "Feature", "properties": { "osm_id": "3057247698", "name": "Yazz Number One Hair Salon", "other_tags": "\"addr:city\"=>\"Leeds\",\"addr:housenumber\"=>\"14\",\"addr:postcode\"=>\"LS20 8AH\",\"addr:street\"=>\"Otley Road\",\"addr:suburb\"=>\"Guiseley\",\"opening_hours\"=>\"Mo off; Tu,We 09:00-18:00; Th 09:00-20:00; Fr 09:00-18:00; Sa 09:00-16:00; Su off\",\"phone\"=>\"+44 1943 870 333\",\"shop\"=>\"hairdresser\",\"website\"=>\"https:\/\/www.yazzhair.co\/yazz-guiseley-salon\/\"" }, "geometry": { "type": "Point", "coordinates": [ -1.7096126, 53.8727282 ] } },
	{ "type": "Feature", "properties": { "osm_id": "3073182158", "name": "Verity's Hair Salon", "other_tags": "\"addr:city\"=>\"Farsley\",\"addr:housenumber\"=>\"1\",\"addr:street\"=>\"Town Street\",\"shop\"=>\"hairdresser\"" }, "geometry": { "type": "Point", "coordinates": [ -1.6723754, 53.8112178 ] } },
	{ "type": "Feature", "properties": { "osm_id": "3191671108", "name": "The Salon", "other_tags": "\"shop\"=>\"hairdresser\"" }, "geometry": { "type": "Point", "coordinates": [ -1.7252432, 53.87655 ] } },
	{ "type": "Feature", "properties": { "osm_id": "3225905507", "name": "Hair Creative Cutting", "other_tags": "\"shop\"=>\"hairdresser\"" }, "geometry": { "type": "Point", "coordinates": [ -1.5759844, 53.8120772 ] } },
	{ "type": "Feature", "properties": { "osm_id": "3225929666", "name": "Kiren's Hair & Beauty", "other_tags": "\"shop\"=>\"hairdresser\"" }, "geometry": { "type": "Point", "coordinates": [ -1.5735376, 53.8111902 ] } },
	{ "type": "Feature", "properties": { "osm_id": "3225929772", "name": "Philip Jons", "other_tags": "\"shop\"=>\"hairdresser\"" }, "geometry": { "type": "Point", "coordinates": [ -1.5758715, 53.8118885 ] } },
	{ "type": "Feature", "properties": { "osm_id": "3300696422", "name": "Regis", "other_tags": "\"shop\"=>\"hairdresser\"" }, "geometry": { "type": "Point", "coordinates": [ -1.5454856, 53.7959256 ] } },
	{ "type": "Feature", "properties": { "osm_id": "3600588639", "name": "C02 Beauty", "other_tags": "\"addr:city\"=>\"Leeds\",\"addr:housenumber\"=>\"8\",\"addr:postcode\"=>\"LS8 1LW\",\"addr:street\"=>\"Chandos Gardens\",\"phone\"=>\"+44 113 269 5392\",\"shop\"=>\"hairdresser\"" }, "geometry": { "type": "Point", "coordinates": [ -1.5208875, 53.8345825 ] } },
	{ "type": "Feature", "properties": { "osm_id": "3625915990", "name": "Rawdon Barber Shop", "other_tags": "\"opening_hours\"=>\"Mo 09:00-18:00; Tu,Th,Fr 09:00-18:00; Sa 08:30-14:00\",\"shop\"=>\"hairdresser\"" }, "geometry": { "type": "Point", "coordinates": [ -1.6714499, 53.8498506 ] } },
	{ "type": "Feature", "properties": { "osm_id": "3626078174", "name": "Mirror Mirror", "other_tags": "\"shop\"=>\"hairdresser\"" }, "geometry": { "type": "Point", "coordinates": [ -1.6164603, 53.8284395 ] } },
	{ "type": "Feature", "properties": { "osm_id": "3715263091", "name": "Limeys Barber Shop", "other_tags": "\"addr:city\"=>\"Rawdon\",\"addr:housenumber\"=>\"28\",\"addr:postcode\"=>\"LS19 6HJ\",\"addr:street\"=>\"Harrogate Road\",\"phone\"=>\"+44 7834 317 282\",\"shop\"=>\"hairdresser\"" }, "geometry": { "type": "Point", "coordinates": [ -1.6842263, 53.8543839 ] } },
	{ "type": "Feature", "properties": { "osm_id": "3715263115", "name": "Samantha Hair Beauty Nails", "other_tags": "\"addr:city\"=>\"Rawdon\",\"addr:housenumber\"=>\"14\",\"addr:postcode\"=>\"LS19 6HJ\",\"addr:street\"=>\"Harrogate Road\",\"phone\"=>\"+44 113 250 9500\",\"shop\"=>\"hairdresser\"" }, "geometry": { "type": "Point", "coordinates": [ -1.684458, 53.8537029 ] } },
	{ "type": "Feature", "properties": { "osm_id": "3715292793", "name": "Definition Hair Design", "other_tags": "\"addr:city\"=>\"Rawdon\",\"addr:housenumber\"=>\"3\",\"addr:postcode\"=>\"LS19 6HW\",\"addr:street\"=>\"Harrogate Road\",\"phone\"=>\"+44 113 250 7139\",\"shop\"=>\"hairdresser\",\"website\"=>\"https:\/\/www.definitionhairdesign.co.uk\/\"" }, "geometry": { "type": "Point", "coordinates": [ -1.684889, 53.8535926 ] } },
	{ "type": "Feature", "properties": { "osm_id": "3715344951", "name": "Bijou Hair", "other_tags": "\"addr:city\"=>\"Rawdon\",\"addr:postcode\"=>\"LS19 6AX\",\"addr:street\"=>\"Leeds Road\",\"phone\"=>\"+44 113 250 4428\",\"shop\"=>\"hairdresser\"" }, "geometry": { "type": "Point", "coordinates": [ -1.6846622, 53.8524805 ] } },
	{ "type": "Feature", "properties": { "osm_id": "3716852675", "name": "Tribe Hairdressing", "other_tags": "\"addr:city\"=>\"Yeadon\",\"addr:housenumber\"=>\"107\",\"addr:postcode\"=>\"LS19 7TA\",\"addr:street\"=>\"High Street\",\"phone\"=>\"+44 113 250 3105\",\"shop\"=>\"hairdresser\",\"website\"=>\"www.tribeleeds.co.uk\"" }, "geometry": { "type": "Point", "coordinates": [ -1.6788191, 53.8660899 ] } },
	{ "type": "Feature", "properties": { "osm_id": "3716852687", "name": "Gary's Barber Shop", "other_tags": "\"addr:city\"=>\"Yeadon\",\"addr:housenumber\"=>\"99\",\"addr:postcode\"=>\"LS19 7TA\",\"addr:street\"=>\"High Street\",\"phone\"=>\"+44 7795 088068\",\"shop\"=>\"hairdresser\"" }, "geometry": { "type": "Point", "coordinates": [ -1.6791214, 53.8661486 ] } },
	{ "type": "Feature", "properties": { "osm_id": "3716852689", "name": "Infinity Hair By Sian", "other_tags": "\"addr:city\"=>\"Yeadon\",\"addr:housenumber\"=>\"91\",\"addr:postcode\"=>\"LS19 7TA\",\"addr:street\"=>\"High Street\",\"phone\"=>\"+44 113 250 6757\",\"shop\"=>\"hairdresser\"" }, "geometry": { "type": "Point", "coordinates": [ -1.6793426, 53.8661904 ] } },
	{ "type": "Feature", "properties": { "osm_id": "3716852691", "name": "Stiff Hair", "other_tags": "\"addr:city\"=>\"Yeadon\",\"addr:housenumber\"=>\"91\",\"addr:postcode\"=>\"LS19 7TA\",\"addr:street\"=>\"High Street\",\"phone\"=>\"+44 1132 507 870\",\"shop\"=>\"hairdresser\"" }, "geometry": { "type": "Point", "coordinates": [ -1.6794936, 53.8662062 ] } },
	{ "type": "Feature", "properties": { "osm_id": "3716870616", "name": "Just Cuts", "other_tags": "\"addr:city\"=>\"Yeadon\",\"addr:housenumber\"=>\"83a\",\"addr:street\"=>\"High Street\",\"phone\"=>\"+44 7538 101507\",\"shop\"=>\"hairdresser\"" }, "geometry": { "type": "Point", "coordinates": [ -1.6799195, 53.8662958 ] } },
	{ "type": "Feature", "properties": { "osm_id": "3716883310", "name": "Red", "other_tags": "\"addr:city\"=>\"Yeadon\",\"addr:housenumber\"=>\"58\",\"addr:postcode\"=>\"LS19 7PP\",\"addr:street\"=>\"High Street\",\"opening_hours\"=>\"Tu,Fr,Sa 09:00-17:00; We 09:00-18:00; Th 09:00-20:00\",\"phone\"=>\"+44 113 250 9479\",\"shop\"=>\"hairdresser\",\"website\"=>\"www.red-hair.co.uk\"" }, "geometry": { "type": "Point", "coordinates": [ -1.6805193, 53.8661471 ] } },
	{ "type": "Feature", "properties": { "osm_id": "3716946396", "name": "Cutsmith", "other_tags": "\"addr:city\"=>\"Yeadon\",\"addr:housenumber\"=>\"71\",\"addr:postcode\"=>\"LS19 7SP\",\"addr:street\"=>\"High Street\",\"phone\"=>\"+44 113 239 1193\",\"shop\"=>\"hairdresser\",\"website\"=>\"www.acorn-leeds.co.uk\"" }, "geometry": { "type": "Point", "coordinates": [ -1.6820938, 53.8662802 ] } },
	{ "type": "Feature", "properties": { "osm_id": "3716946417", "name": "Yeadon Barber", "other_tags": "\"shop\"=>\"hairdresser\"" }, "geometry": { "type": "Point", "coordinates": [ -1.6825436, 53.8662298 ] } },
	{ "type": "Feature", "properties": { "osm_id": "3716946418", "name": "VIP Barber Shop", "other_tags": "\"addr:city\"=>\"Yeadon\",\"addr:housenumber\"=>\"65\",\"addr:postcode\"=>\"LS19 7SP\",\"addr:street\"=>\"High Street\",\"phone\"=>\"+44 113 250 9498\",\"shop\"=>\"hairdresser\"" }, "geometry": { "type": "Point", "coordinates": [ -1.682702, 53.8662135 ] } },
	{ "type": "Feature", "properties": { "osm_id": "3718205542", "name": "Nu Style Unisex Hair Salon", "other_tags": "\"addr:city\"=>\"Yeadon\",\"addr:housenumber\"=>\"33\",\"addr:postcode\"=>\"LS19 7SP\",\"addr:street\"=>\"High Street\",\"phone\"=>\"+44 113 210 2731\",\"shop\"=>\"hairdresser\"" }, "geometry": { "type": "Point", "coordinates": [ -1.6843011, 53.8662407 ] } },
	{ "type": "Feature", "properties": { "osm_id": "3718207675", "name": "Penny Bank Barbers", "other_tags": "\"abandoned:amenity\"=>\"bank\",\"addr:city\"=>\"Yeadon\",\"addr:housenumber\"=>\"17\",\"addr:postcode\"=>\"LS19 7SP\",\"addr:street\"=>\"High Street\",\"old_name\"=>\"Yorkshire Bank\",\"phone\"=>\"+44 800 456 1247\",\"shop\"=>\"hairdresser\"" }, "geometry": { "type": "Point", "coordinates": [ -1.68486, 53.8661691 ] } },
	{ "type": "Feature", "properties": { "osm_id": "3718213175", "name": "Room 11", "other_tags": "\"addr:city\"=>\"Yeadon\",\"addr:housenumber\"=>\"11\",\"addr:postcode\"=>\"LS19 7SP\",\"addr:street\"=>\"High Street\",\"phone\"=>\"+44 113 250 2342\",\"shop\"=>\"hairdresser\"" }, "geometry": { "type": "Point", "coordinates": [ -1.6851481, 53.8661246 ] } },
	{ "type": "Feature", "properties": { "osm_id": "3718231086", "name": "Kirsty's Hair Diffusione", "other_tags": "\"addr:city\"=>\"Yeadon\",\"addr:housenumber\"=>\"6\",\"addr:postcode\"=>\"LS19 7PP\",\"addr:street\"=>\"High Street\",\"phone\"=>\"+44 113 250 3822\",\"shop\"=>\"hairdresser\"" }, "geometry": { "type": "Point", "coordinates": [ -1.6852742, 53.8659342 ] } },
	{ "type": "Feature", "properties": { "osm_id": "3718469497", "name": "Originals Hair Salon", "other_tags": "\"addr:city\"=>\"Yeadon\",\"addr:housenumber\"=>\"8\",\"addr:postcode\"=>\"LS19 7EQ\",\"addr:street\"=>\"Town Street\",\"phone\"=>\"+44 113 202 9493\",\"shop\"=>\"hairdresser\"" }, "geometry": { "type": "Point", "coordinates": [ -1.6859775, 53.8660379 ] } },
	{ "type": "Feature", "properties": { "osm_id": "3718484558", "name": "Hair 2B", "other_tags": "\"addr:city\"=>\"Yeadon\",\"addr:housenumber\"=>\"2B\",\"addr:postcode\"=>\"LS19 7RE\",\"addr:street\"=>\"Ivegate\",\"phone\"=>\"+44 113 239 1139\",\"shop\"=>\"hairdresser\"" }, "geometry": { "type": "Point", "coordinates": [ -1.685469, 53.8658111 ] } },
	{ "type": "Feature", "properties": { "osm_id": "3718505665", "name": "Legend Barbers", "other_tags": "\"addr:city\"=>\"Yeadon\",\"addr:housenumber\"=>\"30\",\"addr:postcode\"=>\"LS19 7EQ\",\"addr:street\"=>\"Town Street\",\"phone\"=>\"+44 113 250 4133\",\"shop\"=>\"hairdresser\"" }, "geometry": { "type": "Point", "coordinates": [ -1.6871003, 53.8659601 ] } },
	{ "type": "Feature", "properties": { "osm_id": "3777443923", "name": "The Barbers Shop", "other_tags": "\"shop\"=>\"hairdresser\"" }, "geometry": { "type": "Point", "coordinates": [ -1.6633405, 53.7965556 ] } },
	{ "type": "Feature", "properties": { "osm_id": "3813294644", "name": "City Smart", "other_tags": "\"female\"=>\"no\",\"male\"=>\"yes\",\"phone\"=>\"+44 113 274 3366\",\"shop\"=>\"hairdresser\"" }, "geometry": { "type": "Point", "coordinates": [ -1.5664753, 53.8278449 ] } },
	{ "type": "Feature", "properties": { "osm_id": "3832991733", "name": "La Boutique", "other_tags": "\"phone\"=>\"+44 113 284 2607\",\"shop\"=>\"hairdresser\"" }, "geometry": { "type": "Point", "coordinates": [ -1.622798, 53.8850599 ] } },
	{ "type": "Feature", "properties": { "osm_id": "3886297907", "name": "Rony's Barbers", "other_tags": "\"addr:city\"=>\"Leeds\",\"addr:housenumber\"=>\"19\",\"addr:postcode\"=>\"LS18 5LJ\",\"addr:street\"=>\"Town Street\",\"addr:suburb\"=>\"Horsforth\",\"check_date:opening_hours\"=>\"2023-01-23\",\"opening_hours\"=>\"Mo-Sa 08:30-17:30; Su 11:00-15:00\",\"shop\"=>\"hairdresser\"" }, "geometry": { "type": "Point", "coordinates": [ -1.6418571, 53.8372496 ] } },
	{ "type": "Feature", "properties": { "osm_id": "3887784698", "name": "Horsforth Town St. Barbers", "other_tags": "\"addr:city\"=>\"Leeds\",\"addr:housenumber\"=>\"94\",\"addr:postcode\"=>\"LS18 4AP\",\"addr:street\"=>\"Town Street\",\"addr:suburb\"=>\"Horsforth\",\"opening_hours\"=>\"Mo 07:30-17:30; Tu,Su off; We-Fr 07:30-17:30; Sa 07:30-16:30\",\"shop\"=>\"hairdresser\"" }, "geometry": { "type": "Point", "coordinates": [ -1.6384627, 53.839284 ] } },
	{ "type": "Feature", "properties": { "osm_id": "3887830123", "name": "Auriole Hair Salon", "other_tags": "\"addr:city\"=>\"Leeds\",\"addr:housenumber\"=>\"85D\",\"addr:postcode\"=>\"LS18 5BP\",\"addr:street\"=>\"Town Street\",\"addr:suburb\"=>\"Horsforth\",\"opening_hours\"=>\"Tu-Fr 09:30-18:00; Sa 08:00-16:00; Su-Mo closed\",\"phone\"=>\"+44 113 259 0912\",\"shop\"=>\"hairdresser\",\"website\"=>\"http:\/\/www.auriolehair.co.uk\/\"" }, "geometry": { "type": "Point", "coordinates": [ -1.6393935, 53.8389018 ] } },
	{ "type": "Feature", "properties": { "osm_id": "3887830144", "name": "Squire", "other_tags": "\"addr:city\"=>\"Leeds\",\"addr:housenumber\"=>\"91\",\"addr:postcode\"=>\"LS18 5BP\",\"addr:street\"=>\"Town Street\",\"addr:suburb\"=>\"Horsforth\",\"opening_hours\"=>\"Mo 08:00-17:00; Tu 08:15-17:00; We 08:15-17:00; Th 08:15-18:00; Fr 08:15-18:00; Sa 07:00-15:00\",\"phone\"=>\"+44 113 259 0605\",\"shop\"=>\"hairdresser\"" }, "geometry": { "type": "Point", "coordinates": [ -1.6389405, 53.8391902 ] } },
	{ "type": "Feature", "properties": { "osm_id": "3892020073", "name": "R & A Fuller Hair World", "other_tags": "\"addr:city\"=>\"Leeds\",\"addr:housenumber\"=>\"111\",\"addr:postcode\"=>\"LS18 5BL\",\"addr:street\"=>\"Town Street\",\"addr:suburb\"=>\"Horsforth\",\"check_date:opening_hours\"=>\"2023-01-16\",\"opening_hours:signed\"=>\"no\",\"phone\"=>\"+44 113 281 8141\",\"shop\"=>\"hairdresser\"" }, "geometry": { "type": "Point", "coordinates": [ -1.6375507, 53.8400077 ] } },
	{ "type": "Feature", "properties": { "osm_id": "3898525377", "name": "Lion & Co. Barbers", "other_tags": "\"addr:city\"=>\"Leeds\",\"addr:housenumber\"=>\"11\",\"addr:postcode\"=>\"LS18 5PA\",\"addr:street\"=>\"Station Road\",\"addr:suburb\"=>\"Horsforth\",\"opening_hours\"=>\"Tu-Fr 09:00-17:30; Sa 09:00-15:30; Su-Mo closed\",\"phone\"=>\"+44 7717 368511\",\"shop\"=>\"hairdresser\"" }, "geometry": { "type": "Point", "coordinates": [ -1.6334172, 53.8466474 ] } },
	{ "type": "Feature", "properties": { "osm_id": "3898601892", "name": "Platform 1", "other_tags": "\"addr:city\"=>\"Horsforth\",\"addr:housenumber\"=>\"29\",\"addr:postcode\"=>\"LS18 5PA\",\"addr:street\"=>\"Station Road\",\"phone\"=>\"+44 113 258 4453\",\"shop\"=>\"hairdresser\"" }, "geometry": { "type": "Point", "coordinates": [ -1.631825, 53.8469724 ] } },
	{ "type": "Feature", "properties": { "osm_id": "3900180356", "name": "Anthony James", "other_tags": "\"addr:city\"=>\"Horsforth\",\"addr:housenumber\"=>\"255\",\"addr:postcode\"=>\"LS18 4DR\",\"addr:street\"=>\"New Road Side\",\"opening_hours\"=>\"Tu-Fr 09:30-18:00; Sa 08:30-17:00; Su closed\",\"shop\"=>\"hairdresser\"" }, "geometry": { "type": "Point", "coordinates": [ -1.6480122, 53.8333059 ] } },
	{ "type": "Feature", "properties": { "osm_id": "3904761974", "name": "Crooked Crown", "other_tags": "\"addr:city\"=>\"Horsforth\",\"addr:housenumber\"=>\"105\",\"addr:postcode\"=>\"LS18 4QD\",\"addr:street\"=>\"New Road Side\",\"check_date:opening_hours\"=>\"2023-01-09\",\"opening_hours:signed\"=>\"no\",\"shop\"=>\"hairdresser\"" }, "geometry": { "type": "Point", "coordinates": [ -1.6421575, 53.8320081 ] } },
	{ "type": "Feature", "properties": { "osm_id": "3904761988", "name": "Bev @ Michael Laurence", "other_tags": "\"addr:city\"=>\"Horsforth\",\"addr:housenumber\"=>\"95\",\"addr:postcode\"=>\"LS18 4QD\",\"addr:street\"=>\"New Road Side\",\"check_date:opening_hours\"=>\"2023-01-09\",\"opening_hours:signed\"=>\"no\",\"phone\"=>\"+44 113 258 3365\",\"shop\"=>\"hairdresser\"" }, "geometry": { "type": "Point", "coordinates": [ -1.6417326, 53.831991 ] } },
	{ "type": "Feature", "properties": { "osm_id": "3904772962", "name": "Epiphany Hair Lounge", "other_tags": "\"addr:city\"=>\"Horsforth\",\"addr:housenumber\"=>\"81\",\"addr:postcode\"=>\"LS18 4QD\",\"addr:street\"=>\"New Road Side\",\"check_date:opening_hours\"=>\"2023-01-09\",\"contact:facebook\"=>\"https:\/\/www.facebook.com\/epiphanyhairlounge\",\"contact:instagram\"=>\"https:\/\/www.instagram.com\/epiphanyhairlounge\/\",\"opening_hours\"=>\"We 09:30-17:30; Th 09:30-19:15; Fr 09:30-18:00; Sa 08:30-16:30\",\"opening_hours:signed\"=>\"no\",\"phone\"=>\"+44 113 258 1521\",\"shop\"=>\"hairdresser\",\"website\"=>\"https:\/\/www.epiphanyhair.co.uk\/\"" }, "geometry": { "type": "Point", "coordinates": [ -1.6409625, 53.8319414 ] } },
	{ "type": "Feature", "properties": { "osm_id": "3916676792", "name": "Fade Station Barber Shop", "other_tags": "\"addr:city\"=>\"Horsforth\",\"addr:housenumber\"=>\"90\",\"addr:postcode\"=>\"LS18 4QB\",\"addr:street\"=>\"New Road Side\",\"shop\"=>\"hairdresser\"" }, "geometry": { "type": "Point", "coordinates": [ -1.6410439, 53.8321932 ] } },
	{ "type": "Feature", "properties": { "osm_id": "3916676794", "name": "Top Mens Barbers", "other_tags": "\"shop\"=>\"hairdresser\"" }, "geometry": { "type": "Point", "coordinates": [ -1.6408929, 53.8322735 ] } },
	{ "type": "Feature", "properties": { "osm_id": "3942727564", "name": "Solo Hair Team", "other_tags": "\"shop\"=>\"hairdresser\"" }, "geometry": { "type": "Point", "coordinates": [ -1.6948573, 53.9062519 ] } },
	{ "type": "Feature", "properties": { "osm_id": "4009429010", "name": "Head Office Salon", "other_tags": "\"addr:city\"=>\"Leeds\",\"addr:housenumber\"=>\"125\",\"addr:postcode\"=>\"LS15 7PB\",\"addr:street\"=>\"Cross Gates Road\",\"shop\"=>\"hairdresser\",\"website\"=>\"https:\/\/headofficesalons.co.uk\/\"" }, "geometry": { "type": "Point", "coordinates": [ -1.4547218, 53.8085774 ] } },
	{ "type": "Feature", "properties": { "osm_id": "4131484806", "name": "Yazz", "other_tags": "\"shop\"=>\"hairdresser\"" }, "geometry": { "type": "Point", "coordinates": [ -1.6870987, 53.8557515 ] } },
	{ "type": "Feature", "properties": { "osm_id": "4202206074", "name": "Technicolour", "other_tags": "\"shop\"=>\"hairdresser\"" }, "geometry": { "type": "Point", "coordinates": [ -1.388558, 53.7924619 ] } },
	{ "type": "Feature", "properties": { "osm_id": "4211277961", "name": "Follicle", "other_tags": "\"shop\"=>\"hairdresser\"" }, "geometry": { "type": "Point", "coordinates": [ -1.6682005, 53.7928076 ] } },
	{ "type": "Feature", "properties": { "osm_id": "4314526119", "name": "Teisha's", "other_tags": "\"addr:city\"=>\"Leeds\",\"addr:housename\"=>\"Merrion Centre\",\"addr:unit\"=>\"82\",\"shop\"=>\"hairdresser\"" }, "geometry": { "type": "Point", "coordinates": [ -1.544055, 53.8022744 ] } },
	{ "type": "Feature", "properties": { "osm_id": "4346027282", "name": "The Agyeboats Barbers", "other_tags": "\"addr:city\"=>\"Leeds\",\"addr:housenumber\"=>\"45\",\"addr:postcode\"=>\"LS2 7QJ\",\"addr:street\"=>\"Byron Street\",\"addr:unit\"=>\"4\",\"shop\"=>\"hairdresser\"" }, "geometry": { "type": "Point", "coordinates": [ -1.5336965, 53.8024661 ] } },
	{ "type": "Feature", "properties": { "osm_id": "4362482325", "name": "The Barbers Leeds", "other_tags": "\"addr:city\"=>\"Leeds\",\"addr:housenumber\"=>\"76\",\"addr:postcode\"=>\"LS2 7DJ\",\"addr:street\"=>\"Kirkgate\",\"phone\"=>\"+44 113 245 7526\",\"shop\"=>\"hairdresser\",\"website\"=>\"www.thebarbersleeds.co.uk\"" }, "geometry": { "type": "Point", "coordinates": [ -1.5374409, 53.7955722 ] } },
	{ "type": "Feature", "properties": { "osm_id": "4362485981", "name": "The Salon Leeds", "other_tags": "\"addr:city\"=>\"Leeds\",\"addr:street\"=>\"Wharf Street\",\"shop\"=>\"hairdresser\"" }, "geometry": { "type": "Point", "coordinates": [ -1.5375724, 53.7955492 ] } },
	{ "type": "Feature", "properties": { "osm_id": "4384356300", "name": "Sue's", "other_tags": "\"name:en\"=>\"Sue's\",\"shop\"=>\"hairdresser\"" }, "geometry": { "type": "Point", "coordinates": [ -1.5888629, 53.7613191 ] } },
	{ "type": "Feature", "properties": { "osm_id": "4392669292", "name": "Just Men", "other_tags": "\"shop\"=>\"hairdresser\"" }, "geometry": { "type": "Point", "coordinates": [ -1.5990995, 53.7431117 ] } },
	{ "type": "Feature", "properties": { "osm_id": "4488841940", "name": "Piranha Hair Studio", "other_tags": "\"addr:city\"=>\"Leeds\",\"addr:housenumber\"=>\"60\",\"addr:postcode\"=>\"LS2 7PN\",\"addr:street\"=>\"North Street\",\"shop\"=>\"hairdresser\"" }, "geometry": { "type": "Point", "coordinates": [ -1.5382629, 53.8014405 ] } },
	{ "type": "Feature", "properties": { "osm_id": "4488841941", "name": "Tint", "other_tags": "\"addr:city\"=>\"Leeds\",\"addr:housenumber\"=>\"70\",\"addr:postcode\"=>\"LS2 7PN\",\"addr:street\"=>\"North Street\",\"shop\"=>\"hairdresser\"" }, "geometry": { "type": "Point", "coordinates": [ -1.5380296, 53.8015989 ] } },
	{ "type": "Feature", "properties": { "osm_id": "4583122235", "name": "Jans Hairdressing", "other_tags": "\"addr:city\"=>\"Leeds\",\"addr:housenumber\"=>\"28\",\"addr:postcode\"=>\"LS26 0RD\",\"addr:street\"=>\"Manor Road\",\"addr:suburb\"=>\"Rothwell\",\"shop\"=>\"hairdresser\"" }, "geometry": { "type": "Point", "coordinates": [ -1.4864208, 53.7527457 ] } },
	{ "type": "Feature", "properties": { "osm_id": "4602768927", "name": "Rodley Barbers", "other_tags": "\"shop\"=>\"hairdresser\"" }, "geometry": { "type": "Point", "coordinates": [ -1.6627807, 53.823108 ] } },
	{ "type": "Feature", "properties": { "osm_id": "4653490137", "name": "Hair Station", "other_tags": "\"shop\"=>\"hairdresser\"" }, "geometry": { "type": "Point", "coordinates": [ -1.4506285, 53.8072235 ] } },
	{ "type": "Feature", "properties": { "osm_id": "4778563850", "name": "Headonist", "other_tags": "\"addr:city\"=>\"Leeds\",\"addr:housenumber\"=>\"1\",\"addr:postcode\"=>\"LS6 1GH\",\"addr:street\"=>\"Stott Road\",\"male\"=>\"yes\",\"opening_hours\"=>\"Mo-Sa 09:00-18:00\",\"phone\"=>\"+44 113 4405 499\",\"shop\"=>\"hairdresser\",\"website\"=>\"http:\/\/headonist.co.uk\/\"" }, "geometry": { "type": "Point", "coordinates": [ -1.5741199, 53.8147693 ] } },
	{ "type": "Feature", "properties": { "osm_id": "4846648970", "name": "Religion Hair & Beauty", "other_tags": "\"shop\"=>\"hairdresser\"" }, "geometry": { "type": "Point", "coordinates": [ -1.6016677, 53.751729 ] } },
	{ "type": "Feature", "properties": { "osm_id": "4885695953", "name": "Supercuts", "other_tags": "\"brand\"=>\"Supercuts\",\"brand:wikidata\"=>\"Q7643239\",\"brand:wikipedia\"=>\"en:Supercuts\",\"shop\"=>\"hairdresser\"" }, "geometry": { "type": "Point", "coordinates": [ -1.5446075, 53.8018501 ] } },
	{ "type": "Feature", "properties": { "osm_id": "4885695958", "name": "JRs Barbershop", "other_tags": "\"shop\"=>\"hairdresser\"" }, "geometry": { "type": "Point", "coordinates": [ -1.5442416, 53.8023208 ] } },
	{ "type": "Feature", "properties": { "osm_id": "4964806674", "name": "The Cutting Room", "other_tags": "\"shop\"=>\"hairdresser\"" }, "geometry": { "type": "Point", "coordinates": [ -1.5936318, 53.7473991 ] } },
	{ "type": "Feature", "properties": { "osm_id": "4986256621", "name": "Matthew's Barber shop", "other_tags": "\"addr:housenumber\"=>\"40\",\"addr:postcode\"=>\"LS16 5LX\",\"addr:street\"=>\"Weetwood Lane\",\"check_date:opening_hours\"=>\"2021-09-21\",\"name:en\"=>\"Matthew's Barber shop\",\"opening_hours\"=>\"Mo-Fr 08:30-18:00; Sa 08:30-17:00\",\"phone\"=>\"+44 113 274 1555\",\"shop\"=>\"hairdresser\",\"website\"=>\"http:\/\/www.matthewsbarbers.com\/\"" }, "geometry": { "type": "Point", "coordinates": [ -1.5817651, 53.8288198 ] } },
	{ "type": "Feature", "properties": { "osm_id": "4999403938", "name": "Blacks", "other_tags": "\"shop\"=>\"hairdresser\"" }, "geometry": { "type": "Point", "coordinates": [ -1.3885519, 53.7923096 ] } },
	{ "type": "Feature", "properties": { "osm_id": "5022102101", "name": "Tonys Cuts", "other_tags": "\"addr:city\"=>\"Leeds\",\"addr:housenumber\"=>\"78\",\"addr:postcode\"=>\"LS6 1EG\",\"addr:street\"=>\"Brudenell Road\",\"opening_hours\"=>\"Mo-Su 10:00-19:00\",\"operator\"=>\"Tony\",\"shop\"=>\"hairdresser\"" }, "geometry": { "type": "Point", "coordinates": [ -1.5697247, 53.8122333 ] } },
	{ "type": "Feature", "properties": { "osm_id": "5218896688", "name": "Roma", "other_tags": "\"shop\"=>\"hairdresser\"" }, "geometry": { "type": "Point", "coordinates": [ -1.6027325, 53.7453014 ] } },
	{ "type": "Feature", "properties": { "osm_id": "5287544468", "name": "Grade One", "other_tags": "\"shop\"=>\"hairdresser\"" }, "geometry": { "type": "Point", "coordinates": [ -1.4645503, 53.799094 ] } },
	{ "type": "Feature", "properties": { "osm_id": "5296591313", "name": "Smitin Hair", "other_tags": "\"shop\"=>\"hairdresser\"" }, "geometry": { "type": "Point", "coordinates": [ -1.6711798, 53.8130889 ] } },
	{ "type": "Feature", "properties": { "osm_id": "5296592025", "name": "Raahil's Barber Shop", "other_tags": "\"shop\"=>\"hairdresser\"" }, "geometry": { "type": "Point", "coordinates": [ -1.6718651, 53.812073 ] } },
	{ "type": "Feature", "properties": { "osm_id": "5299870169", "name": "The Barbers", "other_tags": "\"shop\"=>\"hairdresser\"" }, "geometry": { "type": "Point", "coordinates": [ -1.4552412, 53.8080103 ] } },
	{ "type": "Feature", "properties": { "osm_id": "5311258595", "name": "unity", "other_tags": "\"shop\"=>\"hairdresser\"" }, "geometry": { "type": "Point", "coordinates": [ -1.6873576, 53.9016439 ] } },
	{ "type": "Feature", "properties": { "osm_id": "5354055960", "name": "Union Barbers Leeds", "other_tags": "\"addr:city\"=>\"Leeds\",\"addr:housenumber\"=>\"21\",\"addr:postcode\"=>\"LS6 1AF\",\"addr:street\"=>\"Hyde Park Corner\",\"contact:facebook\"=>\"https:\/\/www.facebook.com\/unionbarbersleeds\/\",\"opening_hours\"=>\"Mo-Sa 10:00-18:00\",\"phone\"=>\"+44 113 274 3240\",\"reservation\"=>\"recommended\",\"shop\"=>\"hairdresser\"" }, "geometry": { "type": "Point", "coordinates": [ -1.5613339, 53.8143623 ] } },
	{ "type": "Feature", "properties": { "osm_id": "5407594205", "name": "Select Hairdressing", "other_tags": "\"shop\"=>\"hairdresser\"" }, "geometry": { "type": "Point", "coordinates": [ -1.4838128, 53.7552552 ] } },
	{ "type": "Feature", "properties": { "osm_id": "5407594207", "name": "The Chair", "other_tags": "\"addr:city\"=>\"Leeds\",\"addr:housenumber\"=>\"98\",\"addr:postcode\"=>\"LS26 0LP\",\"addr:street\"=>\"Haigh Road\",\"shop\"=>\"hairdresser\"" }, "geometry": { "type": "Point", "coordinates": [ -1.4778274, 53.7549785 ] } },
	{ "type": "Feature", "properties": { "osm_id": "5407594215", "name": "The Salon - hair consultants & barbers", "other_tags": "\"shop\"=>\"hairdresser\"" }, "geometry": { "type": "Point", "coordinates": [ -1.4463557, 53.7526441 ] } },
	{ "type": "Feature", "properties": { "osm_id": "5413294422", "name": "Best Cuts -barbers-", "other_tags": "\"shop\"=>\"hairdresser\"" }, "geometry": { "type": "Point", "coordinates": [ -1.4493913, 53.8074355 ] } },
	{ "type": "Feature", "properties": { "osm_id": "5413294427", "name": "Danny's Barbers", "other_tags": "\"shop\"=>\"hairdresser\"" }, "geometry": { "type": "Point", "coordinates": [ -1.4497787, 53.8074599 ] } },
	{ "type": "Feature", "properties": { "osm_id": "5413319841", "name": "Golden Barbers", "other_tags": "\"cuisine\"=>\"turkish\",\"old_name\"=>\"The Cutting Shed\",\"shop\"=>\"hairdresser\"" }, "geometry": { "type": "Point", "coordinates": [ -1.4517285, 53.8073909 ] } },
	{ "type": "Feature", "properties": { "osm_id": "5413319844", "name": "65 The Barbers", "other_tags": "\"shop\"=>\"hairdresser\"" }, "geometry": { "type": "Point", "coordinates": [ -1.4520225, 53.8072839 ] } },
	{ "type": "Feature", "properties": { "osm_id": "5422663135", "name": "Hair Xpress", "other_tags": "\"shop\"=>\"hairdresser\"" }, "geometry": { "type": "Point", "coordinates": [ -1.5437146, 53.8010421 ] } },
	{ "type": "Feature", "properties": { "osm_id": "5439861938", "name": "Quiff Salon", "other_tags": "\"addr:city\"=>\"Leeds\",\"addr:housenumber\"=>\"19\",\"addr:postcode\"=>\"LS6 3HW\",\"addr:street\"=>\"North Lane\",\"description\"=>\"additionalvalue for payment: Card, Contactless, Smart Pay\",\"opening_hours\"=>\"Mo 09:30-17:00; We 09:30-19:00; Th 09:30-18:00; Fr 09:30-16:00; Sa 09:00-16:00; Tu, Su off\",\"payment:cash\"=>\"yes\",\"phone\"=>\"+44 113 278 4442\",\"shop\"=>\"hairdresser\",\"website\"=>\"http:\/\/www.quiffsalon.co.uk\"" }, "geometry": { "type": "Point", "coordinates": [ -1.5809555, 53.8200212 ] } },
	{ "type": "Feature", "properties": { "osm_id": "5527199863", "name": "The Gentleman's Barber", "other_tags": "\"shop\"=>\"hairdresser\"" }, "geometry": { "type": "Point", "coordinates": [ -1.5836487, 53.806806 ] } },
	{ "type": "Feature", "properties": { "osm_id": "5617947504", "name": "Naze Hair And Beauty", "other_tags": "\"addr:city\"=>\"Leeds\",\"addr:housenumber\"=>\"391\",\"addr:postcode\"=>\"LS8 3DD\",\"addr:street\"=>\"Oakwood Lane\",\"addr:suburb\"=>\"Roundhay\",\"beauty\"=>\"nails\",\"shop\"=>\"hairdresser\"" }, "geometry": { "type": "Point", "coordinates": [ -1.4915778, 53.8187437 ] } },
	{ "type": "Feature", "properties": { "osm_id": "5632863876", "name": "Westrow Academy", "other_tags": "\"addr:city\"=>\"Leeds\",\"addr:housename\"=>\"Westrow House\",\"addr:housenumber\"=>\"161\",\"addr:postcode\"=>\"LS1 6LY\",\"addr:street\"=>\"Briggate\",\"shop\"=>\"hairdresser\"" }, "geometry": { "type": "Point", "coordinates": [ -1.5423332, 53.795457 ] } },
	{ "type": "Feature", "properties": { "osm_id": "5648164608", "name": "Just Men", "other_tags": "\"shop\"=>\"hairdresser\"" }, "geometry": { "type": "Point", "coordinates": [ -1.5433913, 53.8009819 ] } },
	{ "type": "Feature", "properties": { "osm_id": "5912474833", "name": "Head First", "other_tags": "\"addr:city\"=>\"Leeds\",\"addr:housenumber\"=>\"590\",\"addr:postcode\"=>\"LS17 8DP\",\"addr:street\"=>\"Harrogate Road\",\"shop\"=>\"hairdresser\"" }, "geometry": { "type": "Point", "coordinates": [ -1.5304705, 53.8558078 ] } },
	{ "type": "Feature", "properties": { "osm_id": "5918770672", "name": "Mod Salons", "other_tags": "\"addr:city\"=>\"Leeds\",\"addr:housenumber\"=>\"98\",\"addr:street\"=>\"Harrogate Road\",\"shop\"=>\"hairdresser\"" }, "geometry": { "type": "Point", "coordinates": [ -1.5374282, 53.8284028 ] } },
	{ "type": "Feature", "properties": { "osm_id": "5918780435", "name": "Cold Bath", "other_tags": "\"addr:city\"=>\"Leeds\",\"addr:housenumber\"=>\"43\",\"addr:postcode\"=>\"LS7 3PD\",\"addr:street\"=>\"Harrogate Road\",\"shop\"=>\"hairdresser\"" }, "geometry": { "type": "Point", "coordinates": [ -1.5377688, 53.8284044 ] } },
	{ "type": "Feature", "properties": { "osm_id": "5940387582", "name": "Lords Barbering", "other_tags": "\"addr:city\"=>\"Leeds\",\"addr:housenumber\"=>\"7\",\"addr:postcode\"=>\"LS1 6PG\",\"addr:street\"=>\"Grand Arcade\",\"shop\"=>\"hairdresser\",\"website\"=>\"https:\/\/www.lordsbarbering.co.uk\/\"" }, "geometry": { "type": "Point", "coordinates": [ -1.5402604, 53.800184 ] } },
	{ "type": "Feature", "properties": { "osm_id": "5941346443", "name": "Allertons", "other_tags": "\"addr:city\"=>\"Leeds\",\"addr:housenumber\"=>\"3\",\"addr:postcode\"=>\"LS1 6LF\",\"addr:street\"=>\"Queens Arcade\",\"shop\"=>\"hairdresser\",\"website\"=>\"https:\/\/allertonsonline.com\/\"" }, "geometry": { "type": "Point", "coordinates": [ -1.5425431, 53.7983911 ] } },
	{ "type": "Feature", "properties": { "osm_id": "5941346460", "name": "Westrow", "other_tags": "\"addr:city\"=>\"Leeds\",\"addr:housenumber\"=>\"4-6\",\"addr:postcode\"=>\"LS1 6LQ\",\"addr:street\"=>\"Thornton's Arcade\",\"shop\"=>\"hairdresser\"" }, "geometry": { "type": "Point", "coordinates": [ -1.542451, 53.7987085 ] } },
	{ "type": "Feature", "properties": { "osm_id": "5941346464", "name": "Westrow", "other_tags": "\"addr:city\"=>\"Leeds\",\"addr:housenumber\"=>\"18\",\"addr:postcode\"=>\"LS1 6LQ\",\"addr:street\"=>\"Thornton's Arcade\",\"shop\"=>\"hairdresser\"" }, "geometry": { "type": "Point", "coordinates": [ -1.5428347, 53.7987435 ] } },
	{ "type": "Feature", "properties": { "osm_id": "5941346469", "name": "Modern Hairdressing For Men", "other_tags": "\"addr:city\"=>\"Leeds\",\"addr:housenumber\"=>\"23\",\"addr:postcode\"=>\"LS1 6LQ\",\"addr:street\"=>\"Thornton's Arcade\",\"shop\"=>\"hairdresser\"" }, "geometry": { "type": "Point", "coordinates": [ -1.5430949, 53.7986606 ] } },
	{ "type": "Feature", "properties": { "osm_id": "5941346475", "name": "Steca", "other_tags": "\"addr:city\"=>\"Leeds\",\"addr:housenumber\"=>\"9\",\"addr:postcode\"=>\"LS1 6LQ\",\"addr:street\"=>\"Thornton's Arcade\",\"shop\"=>\"hairdresser\"" }, "geometry": { "type": "Point", "coordinates": [ -1.5426625, 53.7986188 ] } },
	{ "type": "Feature", "properties": { "osm_id": "5981576295", "name": "Gallery Barbers", "other_tags": "\"addr:city\"=>\"Leeds\",\"addr:housename\"=>\"Kirkgate Market\",\"addr:street\"=>\"Kirkgate\",\"addr:unit\"=>\"10-11\",\"shop\"=>\"hairdresser\"" }, "geometry": { "type": "Point", "coordinates": [ -1.5400222, 53.7972995 ] } },
	{ "type": "Feature", "properties": { "osm_id": "6001482099", "name": "Josephine Hair Braiding", "other_tags": "\"shop\"=>\"hairdresser\"" }, "geometry": { "type": "Point", "coordinates": [ -1.5381141, 53.7972987 ] } },
	{ "type": "Feature", "properties": { "osm_id": "6001482102", "name": "Josephine Hair Braiding", "other_tags": "\"shop\"=>\"hairdresser\"" }, "geometry": { "type": "Point", "coordinates": [ -1.5383542, 53.7975007 ] } },
	{ "type": "Feature", "properties": { "osm_id": "6001482110", "name": "Hair Station", "other_tags": "\"shop\"=>\"hairdresser\"" }, "geometry": { "type": "Point", "coordinates": [ -1.5380381, 53.797426 ] } },
	{ "type": "Feature", "properties": { "osm_id": "6001482111", "name": "Josephine Hair Braiding", "other_tags": "\"shop\"=>\"hairdresser\"" }, "geometry": { "type": "Point", "coordinates": [ -1.5379635, 53.7974234 ] } },
	{ "type": "Feature", "properties": { "osm_id": "6022850191", "name": "Sassoon Salon", "other_tags": "\"addr:city\"=>\"Leeds\",\"addr:housename\"=>\"Pinnacle\",\"addr:housenumber\"=>\"57\",\"addr:postcode\"=>\"LS1 5AA\",\"addr:street\"=>\"Albion Street\",\"brand\"=>\"Sassoon Salon\",\"brand:wikidata\"=>\"Q111356294\",\"shop\"=>\"hairdresser\"" }, "geometry": { "type": "Point", "coordinates": [ -1.5453547, 53.7977291 ] } },
	{ "type": "Feature", "properties": { "osm_id": "6022850231", "name": "King Koby", "other_tags": "\"addr:city\"=>\"Leeds\",\"addr:postcode\"=>\"LS1 6DX\",\"addr:street\"=>\"Central Arcade\",\"addr:unit\"=>\"11\",\"fhrs:id\"=>\"1207194\",\"shop\"=>\"hairdresser\"" }, "geometry": { "type": "Point", "coordinates": [ -1.5415286, 53.7963529 ] } },
	{ "type": "Feature", "properties": { "osm_id": "6022850394", "name": "Headcase", "other_tags": "\"shop\"=>\"hairdresser\"" }, "geometry": { "type": "Point", "coordinates": [ -1.5472953, 53.7958713 ] } },
	{ "type": "Feature", "properties": { "osm_id": "6033886289", "name": "King Koby Chop Shop", "other_tags": "\"addr:city\"=>\"Leeds\",\"addr:housename\"=>\"Corn Exchange\",\"addr:postcode\"=>\"LS1 7BR\",\"addr:street\"=>\"Call Lane\",\"level\"=>\"0\",\"shop\"=>\"hairdresser\"" }, "geometry": { "type": "Point", "coordinates": [ -1.5400241, 53.7957394 ] } },
	{ "type": "Feature", "properties": { "osm_id": "6033886291", "name": "Hive", "other_tags": "\"addr:city\"=>\"Leeds\",\"addr:housename\"=>\"Corn Exchange\",\"addr:postcode\"=>\"LS1 7BR\",\"addr:street\"=>\"Call Lane\",\"level\"=>\"0\",\"shop\"=>\"hairdresser\",\"website\"=>\"https:\/\/www.hivehairsalon.co.uk\/\"" }, "geometry": { "type": "Point", "coordinates": [ -1.5398435, 53.795868 ] } },
	{ "type": "Feature", "properties": { "osm_id": "6052531508", "name": "Supercuts", "other_tags": "\"brand\"=>\"Supercuts\",\"brand:wikidata\"=>\"Q7643239\",\"brand:wikipedia\"=>\"en:Supercuts\",\"shop\"=>\"hairdresser\"" }, "geometry": { "type": "Point", "coordinates": [ -1.5745479, 53.7580327 ] } },
	{ "type": "Feature", "properties": { "osm_id": "6052536859", "name": "Gentlemans Corner", "other_tags": "\"shop\"=>\"hairdresser\"" }, "geometry": { "type": "Point", "coordinates": [ -1.574517, 53.7603588 ] } },
	{ "type": "Feature", "properties": { "osm_id": "6092510506", "name": "Azmara Salon", "other_tags": "\"addr:city\"=>\"Leeds\",\"addr:housename\"=>\"Citispace\",\"addr:housenumber\"=>\"11\",\"addr:postcode\"=>\"LS2 7QN\",\"addr:street\"=>\"Regent Street\",\"addr:unit\"=>\"3\",\"shop\"=>\"hairdresser\"" }, "geometry": { "type": "Point", "coordinates": [ -1.533266, 53.8027909 ] } },
	{ "type": "Feature", "properties": { "osm_id": "6331294899", "name": "Studio 3", "other_tags": "\"addr:city\"=>\"Bradford\",\"addr:housenumber\"=>\"3\",\"addr:postcode\"=>\"BD11 1AS\",\"addr:street\"=>\"Bradford Road\",\"addr:suburb\"=>\"Drighlington\",\"shop\"=>\"hairdresser\",\"wheelchair\"=>\"limited\"" }, "geometry": { "type": "Point", "coordinates": [ -1.6621757, 53.7567704 ] } },
	{ "type": "Feature", "properties": { "osm_id": "6331294925", "name": "Faces Hair", "other_tags": "\"addr:city\"=>\"Leeds\",\"addr:housenumber\"=>\"10\",\"addr:postcode\"=>\"LS27 9EW\",\"addr:street\"=>\"South Queen Street\",\"addr:suburb\"=>\"Morley\",\"shop\"=>\"hairdresser\"" }, "geometry": { "type": "Point", "coordinates": [ -1.5993798, 53.7427729 ] } },
	{ "type": "Feature", "properties": { "osm_id": "6331294927", "name": "The Mens Room", "other_tags": "\"shop\"=>\"hairdresser\"" }, "geometry": { "type": "Point", "coordinates": [ -1.5467575, 53.7215375 ] } },
	{ "type": "Feature", "properties": { "osm_id": "6331294928", "name": "Fusion Hair Studio", "other_tags": "\"shop\"=>\"hairdresser\"" }, "geometry": { "type": "Point", "coordinates": [ -1.5466757, 53.7215367 ] } },
	{ "type": "Feature", "properties": { "osm_id": "6349524087", "name": "Red Door Salon", "other_tags": "\"addr:city\"=>\"Leeds\",\"addr:housenumber\"=>\"25\",\"addr:postcode\"=>\"LS2 8JD\",\"addr:street\"=>\"New Briggate\",\"level\"=>\"1\",\"shop\"=>\"hairdresser\"" }, "geometry": { "type": "Point", "coordinates": [ -1.5417431, 53.7998469 ] } },
	{ "type": "Feature", "properties": { "osm_id": "6349524088", "name": "ISalon", "other_tags": "\"addr:city\"=>\"Leeds\",\"addr:housenumber\"=>\"27\",\"addr:postcode\"=>\"LS2 8JD\",\"addr:street\"=>\"New Briggate\",\"shop\"=>\"hairdresser\"" }, "geometry": { "type": "Point", "coordinates": [ -1.5417297, 53.7998683 ] } },
	{ "type": "Feature", "properties": { "osm_id": "6349524092", "name": "Mr Carter's", "other_tags": "\"addr:city\"=>\"Leeds\",\"addr:housenumber\"=>\"47\",\"addr:postcode\"=>\"LS2 8JD\",\"addr:street\"=>\"New Briggate\",\"shop\"=>\"hairdresser\"" }, "geometry": { "type": "Point", "coordinates": [ -1.5415125, 53.8001209 ] } },
	{ "type": "Feature", "properties": { "osm_id": "6387478655", "other_tags": "\"shop\"=>\"hairdresser\"" }, "geometry": { "type": "Point", "coordinates": [ -1.5402433, 53.7987145 ] } },
	{ "type": "Feature", "properties": { "osm_id": "6391235068", "name": "Prohibition Hair", "other_tags": "\"addr:city\"=>\"Leeds\",\"addr:housenumber\"=>\"41\",\"addr:postcode\"=>\"LS1 6PU\",\"addr:street\"=>\"The Headrow\",\"level\"=>\"1\",\"shop\"=>\"hairdresser\"" }, "geometry": { "type": "Point", "coordinates": [ -1.5416841, 53.7989257 ] } },
	{ "type": "Feature", "properties": { "osm_id": "6486646865", "name": "Istanbul Barber", "other_tags": "\"addr:city\"=>\"Leeds\",\"addr:housenumber\"=>\"4\",\"addr:postcode\"=>\"LS15 7JZ\",\"addr:street\"=>\"Terminus Parade\",\"outdoor_seating\"=>\"yes\",\"shop\"=>\"hairdresser\"" }, "geometry": { "type": "Point", "coordinates": [ -1.4528283, 53.8072436 ] } },
	{ "type": "Feature", "properties": { "osm_id": "6488022084", "name": "Shinx", "other_tags": "\"addr:city\"=>\"Leeds\",\"addr:housenumber\"=>\"131\",\"addr:postcode\"=>\"LS15 7PB\",\"addr:street\"=>\"Cross Gates Road\",\"shop\"=>\"hairdresser\"" }, "geometry": { "type": "Point", "coordinates": [ -1.4544323, 53.808563 ] } },
	{ "type": "Feature", "properties": { "osm_id": "6552414934", "name": "Tranquil Moments", "other_tags": "\"addr:city\"=>\"Yeadon\",\"addr:housenumber\"=>\"9\",\"addr:postcode\"=>\"LS19 7SP\",\"addr:street\"=>\"High Street\",\"fhrs:id\"=>\"1073648\",\"shop\"=>\"hairdresser\"" }, "geometry": { "type": "Point", "coordinates": [ -1.6850536, 53.866131 ] } },
	{ "type": "Feature", "properties": { "osm_id": "6611619545", "name": "Jamnian One1", "other_tags": "\"sells\"=>\"hairdresser;beauty\",\"shop\"=>\"hairdresser\"" }, "geometry": { "type": "Point", "coordinates": [ -1.441359, 53.8179993 ] } },
	{ "type": "Feature", "properties": { "osm_id": "6702943713", "name": "3D Hair Design", "other_tags": "\"addr:city\"=>\"Leeds\",\"addr:housenumber\"=>\"8\",\"addr:postcode\"=>\"LS15 8BQ\",\"addr:street\"=>\"Manston Approach\",\"shop\"=>\"hairdresser\"" }, "geometry": { "type": "Point", "coordinates": [ -1.4476686, 53.8107611 ] } },
	{ "type": "Feature", "properties": { "osm_id": "6767661135", "name": "Brick Mill Barbers", "other_tags": "\"shop\"=>\"hairdresser\"" }, "geometry": { "type": "Point", "coordinates": [ -1.6604587, 53.7916128 ] } },
	{ "type": "Feature", "properties": { "osm_id": "6769233568", "name": "AK Barber", "other_tags": "\"shop\"=>\"hairdresser\"" }, "geometry": { "type": "Point", "coordinates": [ -1.5300232, 53.8028574 ] } },
	{ "type": "Feature", "properties": { "osm_id": "6769292591", "name": "Hair Xchange", "other_tags": "\"shop\"=>\"hairdresser\"" }, "geometry": { "type": "Point", "coordinates": [ -1.4407005, 53.7999812 ] } },
	{ "type": "Feature", "properties": { "osm_id": "6769292593", "name": "Barnet Barbers", "other_tags": "\"shop\"=>\"hairdresser\"" }, "geometry": { "type": "Point", "coordinates": [ -1.4405672, 53.7999044 ] } },
	{ "type": "Feature", "properties": { "osm_id": "6799053517", "name": "Go Cut", "other_tags": "\"shop\"=>\"hairdresser\"" }, "geometry": { "type": "Point", "coordinates": [ -1.561856, 53.8145241 ] } },
	{ "type": "Feature", "properties": { "osm_id": "6814620845", "name": "Sam's Barbers", "other_tags": "\"shop\"=>\"hairdresser\"" }, "geometry": { "type": "Point", "coordinates": [ -1.3852896, 53.9288081 ] } },
	{ "type": "Feature", "properties": { "osm_id": "6814624925", "name": "Unique", "other_tags": "\"shop\"=>\"hairdresser\"" }, "geometry": { "type": "Point", "coordinates": [ -1.3862817, 53.9281216 ] } },
	{ "type": "Feature", "properties": { "osm_id": "6814630561", "name": "Saks", "other_tags": "\"shop\"=>\"hairdresser\"" }, "geometry": { "type": "Point", "coordinates": [ -1.3858383, 53.9279552 ] } },
	{ "type": "Feature", "properties": { "osm_id": "6814634535", "name": "Wetherby Barbers", "other_tags": "\"shop\"=>\"hairdresser\"" }, "geometry": { "type": "Point", "coordinates": [ -1.3861801, 53.927787 ] } },
	{ "type": "Feature", "properties": { "osm_id": "6969267530", "name": "Rothwell Barber Shop", "other_tags": "\"shop\"=>\"hairdresser\"" }, "geometry": { "type": "Point", "coordinates": [ -1.4781466, 53.7484158 ] } },
	{ "type": "Feature", "properties": { "osm_id": "6969267534", "name": "McKenzie Barbers", "other_tags": "\"shop\"=>\"hairdresser\"" }, "geometry": { "type": "Point", "coordinates": [ -1.4802716, 53.748296 ] } },
	{ "type": "Feature", "properties": { "osm_id": "7063672138", "other_tags": "\"shop\"=>\"hairdresser\"" }, "geometry": { "type": "Point", "coordinates": [ -1.4968528, 53.8205142 ] } },
	{ "type": "Feature", "properties": { "osm_id": "7089250818", "name": "Turkish Barber", "other_tags": "\"cuisine\"=>\"cake\",\"shop\"=>\"hairdresser\"" }, "geometry": { "type": "Point", "coordinates": [ -1.4549421, 53.8141291 ] } },
	{ "type": "Feature", "properties": { "osm_id": "7089250819", "name": "Peta Franklin", "other_tags": "\"shop\"=>\"hairdresser\"" }, "geometry": { "type": "Point", "coordinates": [ -1.455138, 53.8139766 ] } },
	{ "type": "Feature", "properties": { "osm_id": "7096633011", "name": "Zeenon Salon", "other_tags": "\"shop\"=>\"hairdresser\"" }, "geometry": { "type": "Point", "coordinates": [ -1.4932873, 53.8019455 ] } },
	{ "type": "Feature", "properties": { "osm_id": "7126021301", "name": "Mousie Browns", "other_tags": "\"addr:city\"=>\"Leeds\",\"addr:housenumber\"=>\"58\",\"addr:postcode\"=>\"LS18 5NR\",\"addr:street\"=>\"Station Road\",\"addr:suburb\"=>\"Horsforth\",\"check_date:opening_hours\"=>\"2023-01-16\",\"opening_hours:signed\"=>\"no\",\"shop\"=>\"hairdresser\"" }, "geometry": { "type": "Point", "coordinates": [ -1.6309229, 53.8469019 ] } },
	{ "type": "Feature", "properties": { "osm_id": "7141864932", "name": "Ash", "other_tags": "\"shop\"=>\"hairdresser\"" }, "geometry": { "type": "Point", "coordinates": [ -1.4696539, 53.7960836 ] } },
	{ "type": "Feature", "properties": { "osm_id": "7141864949", "name": "Barbers 271", "other_tags": "\"shop\"=>\"hairdresser\"" }, "geometry": { "type": "Point", "coordinates": [ -1.4691346, 53.796537 ] } },
	{ "type": "Feature", "properties": { "osm_id": "7141864955", "name": "Cerisse", "other_tags": "\"shop\"=>\"hairdresser\"" }, "geometry": { "type": "Point", "coordinates": [ -1.4702048, 53.7961091 ] } },
	{ "type": "Feature", "properties": { "osm_id": "7141864965", "name": "Lee's Salon", "other_tags": "\"shop\"=>\"hairdresser\"" }, "geometry": { "type": "Point", "coordinates": [ -1.4709075, 53.7960672 ] } },
	{ "type": "Feature", "properties": { "osm_id": "7141868813", "name": "Jack of All Shades", "other_tags": "\"shop\"=>\"hairdresser\"" }, "geometry": { "type": "Point", "coordinates": [ -1.4652075, 53.7990979 ] } },
	{ "type": "Feature", "properties": { "osm_id": "7141868814", "name": "Amour", "other_tags": "\"shop\"=>\"hairdresser\"" }, "geometry": { "type": "Point", "coordinates": [ -1.4652448, 53.7990696 ] } },
	{ "type": "Feature", "properties": { "osm_id": "7141868816", "name": "Kari Anne", "other_tags": "\"shop\"=>\"hairdresser\"" }, "geometry": { "type": "Point", "coordinates": [ -1.4651263, 53.7991587 ] } },
	{ "type": "Feature", "properties": { "osm_id": "7316190091", "other_tags": "\"shop\"=>\"hairdresser\"" }, "geometry": { "type": "Point", "coordinates": [ -1.6024187, 53.7455037 ] } },
	{ "type": "Feature", "properties": { "osm_id": "7549426927", "other_tags": "\"shop\"=>\"hairdresser\"" }, "geometry": { "type": "Point", "coordinates": [ -1.3946601, 53.8312113 ] } },
	{ "type": "Feature", "properties": { "osm_id": "7549426953", "name": "Barwick Barbers", "other_tags": "\"shop\"=>\"hairdresser\"" }, "geometry": { "type": "Point", "coordinates": [ -1.3947437, 53.8310154 ] } },
	{ "type": "Feature", "properties": { "osm_id": "7574984569", "name": "HQ Hair", "other_tags": "\"shop\"=>\"hairdresser\"" }, "geometry": { "type": "Point", "coordinates": [ -1.5497248, 53.845554 ] } },
	{ "type": "Feature", "properties": { "osm_id": "7575101681", "name": "Cest Chic", "other_tags": "\"shop\"=>\"hairdresser\"" }, "geometry": { "type": "Point", "coordinates": [ -1.5205871, 53.8559169 ] } },
	{ "type": "Feature", "properties": { "osm_id": "7699775085", "name": "Max Barbers", "other_tags": "\"shop\"=>\"hairdresser\",\"survey:date\"=>\"2020-07-09\"" }, "geometry": { "type": "Point", "coordinates": [ -1.5813281, 53.8196745 ] } },
	{ "type": "Feature", "properties": { "osm_id": "7699775286", "name": "Cutting Corners Barber Shop", "other_tags": "\"shop\"=>\"hairdresser\",\"survey:date\"=>\"2020-07-09\"" }, "geometry": { "type": "Point", "coordinates": [ -1.5805469, 53.8203038 ] } },
	{ "type": "Feature", "properties": { "osm_id": "7837813421", "name": "Mr Men's", "other_tags": "\"addr:city\"=>\"Leeds\",\"addr:housenumber\"=>\"84\",\"addr:postcode\"=>\"LS20 8BH\",\"addr:street\"=>\"Otley Road\",\"male\"=>\"yes\",\"opening_hours\"=>\"Mo,Tu 09:00-17:30; We 09:00-18:00; Th 09:00-19:00; Fr 09:00-20:00; Sa 08:00-16:00\",\"phone\"=>\"+44 1943 870 131\",\"shop\"=>\"hairdresser\",\"website\"=>\"https:\/\/booksy.com\/en-gb\/40773_mr-mens-barbers-guiseley_barber-shop_1470108_guiseley\"" }, "geometry": { "type": "Point", "coordinates": [ -1.7145564, 53.8745871 ] } },
	{ "type": "Feature", "properties": { "osm_id": "7869213640", "name": "1986 Hair Studio", "other_tags": "\"shop\"=>\"hairdresser\"" }, "geometry": { "type": "Point", "coordinates": [ -1.4450182, 53.8027719 ] } },
	{ "type": "Feature", "properties": { "osm_id": "7869213667", "name": "Station Barbers", "other_tags": "\"shop\"=>\"hairdresser\"" }, "geometry": { "type": "Point", "coordinates": [ -1.4526793, 53.8054812 ] } },
	{ "type": "Feature", "properties": { "osm_id": "7869213693", "name": "Wildest Dreams", "other_tags": "\"shop\"=>\"hairdresser\"" }, "geometry": { "type": "Point", "coordinates": [ -1.4523479, 53.8041552 ] } },
	{ "type": "Feature", "properties": { "osm_id": "7869213695", "name": "The Opposition", "other_tags": "\"shop\"=>\"hairdresser\"" }, "geometry": { "type": "Point", "coordinates": [ -1.4524955, 53.8045592 ] } },
	{ "type": "Feature", "properties": { "osm_id": "7890195152", "name": "Men only", "other_tags": "\"shop\"=>\"hairdresser\"" }, "geometry": { "type": "Point", "coordinates": [ -1.4527396, 53.8069437 ] } },
	{ "type": "Feature", "properties": { "osm_id": "7902894934", "name": "Two's Company", "other_tags": "\"shop\"=>\"hairdresser\"" }, "geometry": { "type": "Point", "coordinates": [ -1.4355339, 53.7959687 ] } },
	{ "type": "Feature", "properties": { "osm_id": "8064950474", "name": "Nova", "other_tags": "\"shop\"=>\"hairdresser\"" }, "geometry": { "type": "Point", "coordinates": [ -1.54731, 53.7477091 ] } },
	{ "type": "Feature", "properties": { "osm_id": "8065478159", "name": "Hair Infinity", "other_tags": "\"shop\"=>\"hairdresser\"" }, "geometry": { "type": "Point", "coordinates": [ -1.5332758, 53.7489001 ] } },
	{ "type": "Feature", "properties": { "osm_id": "8070246008", "name": "Killa", "other_tags": "\"level\"=>\"2\",\"shop\"=>\"hairdresser\",\"steps\"=>\"yes\",\"wheelchair\"=>\"limited\"" }, "geometry": { "type": "Point", "coordinates": [ -1.448882, 53.8074477 ] } },
	{ "type": "Feature", "properties": { "osm_id": "8112004469", "name": "City Barbers", "other_tags": "\"shop\"=>\"hairdresser\"" }, "geometry": { "type": "Point", "coordinates": [ -1.6265852, 53.8113893 ] } },
	{ "type": "Feature", "properties": { "osm_id": "8128526130", "name": "Tangled Hair Salon", "other_tags": "\"shop\"=>\"hairdresser\"" }, "geometry": { "type": "Point", "coordinates": [ -1.3799037, 53.7510552 ] } },
	{ "type": "Feature", "properties": { "osm_id": "8221060600", "name": "Birch & Co", "other_tags": "\"shop\"=>\"hairdresser\"" }, "geometry": { "type": "Point", "coordinates": [ -1.6848132, 53.8661781 ] } },
	{ "type": "Feature", "properties": { "osm_id": "8255620379", "name": "Boutique Hair", "other_tags": "\"shop\"=>\"hairdresser\"" }, "geometry": { "type": "Point", "coordinates": [ -1.6912728, 53.8661235 ] } },
	{ "type": "Feature", "properties": { "osm_id": "8255620380", "name": "Chameleon", "other_tags": "\"shop\"=>\"hairdresser\"" }, "geometry": { "type": "Point", "coordinates": [ -1.693237, 53.8658139 ] } },
	{ "type": "Feature", "properties": { "osm_id": "8257976832", "name": "Capelli Cuts", "other_tags": "\"shop\"=>\"hairdresser\"" }, "geometry": { "type": "Point", "coordinates": [ -1.68632, 53.8658677 ] } },
	{ "type": "Feature", "properties": { "osm_id": "8425747923", "name": "Whitechurch", "other_tags": "\"shop\"=>\"hairdresser\"" }, "geometry": { "type": "Point", "coordinates": [ -1.4507693, 53.7973595 ] } },
	{ "type": "Feature", "properties": { "osm_id": "8494401620", "name": "Baza's Barber", "other_tags": "\"shop\"=>\"hairdresser\"" }, "geometry": { "type": "Point", "coordinates": [ -1.5616399, 53.8145708 ] } },
	{ "type": "Feature", "properties": { "osm_id": "8494401626", "name": "E-Street Barber Co.", "other_tags": "\"shop\"=>\"hairdresser\"" }, "geometry": { "type": "Point", "coordinates": [ -1.562757, 53.81511 ] } },
	{ "type": "Feature", "properties": { "osm_id": "8494401628", "name": "Through the Looking Glass", "other_tags": "\"shop\"=>\"hairdresser\"" }, "geometry": { "type": "Point", "coordinates": [ -1.5628442, 53.815144 ] } },
	{ "type": "Feature", "properties": { "osm_id": "8494401634", "name": "ONE SALON", "other_tags": "\"shop\"=>\"hairdresser\"" }, "geometry": { "type": "Point", "coordinates": [ -1.5713884, 53.8171907 ] } },
	{ "type": "Feature", "properties": { "osm_id": "8494401635", "name": "shrine", "other_tags": "\"shop\"=>\"hairdresser\"" }, "geometry": { "type": "Point", "coordinates": [ -1.5714769, 53.8172018 ] } },
	{ "type": "Feature", "properties": { "osm_id": "8494401647", "name": "Simply Hair", "other_tags": "\"shop\"=>\"hairdresser\"" }, "geometry": { "type": "Point", "coordinates": [ -1.5816934, 53.8197099 ] } },
	{ "type": "Feature", "properties": { "osm_id": "8615021084", "name": "Hair Yes", "other_tags": "\"shop\"=>\"hairdresser\"" }, "geometry": { "type": "Point", "coordinates": [ -1.6556123, 53.7977978 ] } },
	{ "type": "Feature", "properties": { "osm_id": "8615021086", "name": "Creation Cottage", "other_tags": "\"beauty\"=>\"nails\",\"shop\"=>\"hairdresser\"" }, "geometry": { "type": "Point", "coordinates": [ -1.65683, 53.7977209 ] } },
	{ "type": "Feature", "properties": { "osm_id": "8636354970", "name": "The Cutting Crew", "other_tags": "\"addr:city\"=>\"Leeds\",\"addr:housenumber\"=>\"13\",\"addr:postcode\"=>\"LS20 9BT\",\"addr:street\"=>\"The Green\",\"addr:suburb\"=>\"Guiseley\",\"phone\"=>\"+44 1943 870 250\",\"shop\"=>\"hairdresser\"" }, "geometry": { "type": "Point", "coordinates": [ -1.7069981, 53.8722655 ] } },
	{ "type": "Feature", "properties": { "osm_id": "8645325103", "name": "Belfield Hair & Beauty", "other_tags": "\"beauty\"=>\"yes\",\"shop\"=>\"hairdresser\"" }, "geometry": { "type": "Point", "coordinates": [ -1.6619034, 53.7963719 ] } },
	{ "type": "Feature", "properties": { "osm_id": "8659447933", "name": "Queen's Unisex Salon", "other_tags": "\"shop\"=>\"hairdresser\"" }, "geometry": { "type": "Point", "coordinates": [ -1.5424851, 53.8446908 ] } },
	{ "type": "Feature", "properties": { "osm_id": "8677530040", "name": "Salon 65", "other_tags": "\"shop\"=>\"hairdresser\"" }, "geometry": { "type": "Point", "coordinates": [ -1.6826301, 53.8662196 ] } },
	{ "type": "Feature", "properties": { "osm_id": "8691611329", "name": "Dee's Barbers", "other_tags": "\"shop\"=>\"hairdresser\"" }, "geometry": { "type": "Point", "coordinates": [ -1.4472637, 53.8124101 ] } },
	{ "type": "Feature", "properties": { "osm_id": "8696633005", "name": "LEFTFIELD HAIR", "other_tags": "\"addr:city\"=>\"Leeds\",\"addr:housename\"=>\"LEFTFIELD HAIR\",\"addr:housenumber\"=>\"25\",\"addr:postcode\"=>\"LS18 5PP\",\"addr:street\"=>\"Brownberrie Drive\",\"brand\"=>\"LEFTFIELD HAIR\",\"email\"=>\"steve@leftfieldhair.co.uk\",\"internet_access\"=>\"wlan\",\"opening_hours\"=>\"Mo-Sa 08:00-18:00\",\"operator\"=>\"Steven Haggerty\",\"payment:cash\"=>\"yes\",\"payment:coins\"=>\"yes\",\"payment:credit_cards\"=>\"yes\",\"payment:debit_cards\"=>\"yes\",\"payment:electronic_purses\"=>\"yes\",\"payment:maestro\"=>\"yes\",\"payment:notes\"=>\"yes\",\"phone\"=>\"+44 7976212485\",\"shop\"=>\"hairdresser\",\"website\"=>\"https:\/\/www.leftfieldhair.co.uk\"" }, "geometry": { "type": "Point", "coordinates": [ -1.635416, 53.8493119 ] } },
	{ "type": "Feature", "properties": { "osm_id": "8793288633", "name": "Cut 'n' Curls", "other_tags": "\"payment:cards\"=>\"yes\",\"payment:cash\"=>\"yes\",\"shop\"=>\"hairdresser\",\"wheelchair\"=>\"limited\"" }, "geometry": { "type": "Point", "coordinates": [ -1.6160063, 53.8276117 ] } },
	{ "type": "Feature", "properties": { "osm_id": "8928430214", "name": "Bottega Hairdressing", "other_tags": "\"phone\"=>\"+44 1943 876666\",\"shop\"=>\"hairdresser\",\"website\"=>\"www.bottegahairdressing.co.uk\"" }, "geometry": { "type": "Point", "coordinates": [ -1.7082265, 53.8758275 ] } },
	{ "type": "Feature", "properties": { "osm_id": "9064205664", "name": "House 101 Barbers", "other_tags": "\"shop\"=>\"hairdresser\"" }, "geometry": { "type": "Point", "coordinates": [ -1.468185, 53.8079698 ] } },
	{ "type": "Feature", "properties": { "osm_id": "9239652429", "name": "Tegan Hair", "other_tags": "\"shop\"=>\"hairdresser\"" }, "geometry": { "type": "Point", "coordinates": [ -1.3885754, 53.7965507 ] } },
	{ "type": "Feature", "properties": { "osm_id": "9356627353", "name": "Brian's Barbers", "other_tags": "\"addr:city\"=>\"Leeds\",\"addr:housename\"=>\"Kirkgate Market\",\"addr:street\"=>\"Kirkgate\",\"addr:unit\"=>\"26 B\",\"shop\"=>\"hairdresser\"" }, "geometry": { "type": "Point", "coordinates": [ -1.5396445, 53.7968009 ] } },
	{ "type": "Feature", "properties": { "osm_id": "9442379439", "name": "Gosh!", "other_tags": "\"opening_hours\"=>\"Mo-We,Fr 09:00-18:00; Th 09:00-19:00; Sa 08:00-16:00; Su off\",\"shop\"=>\"hairdresser\"" }, "geometry": { "type": "Point", "coordinates": [ -1.7083317, 53.8759942 ] } },
	{ "type": "Feature", "properties": { "osm_id": "9482440258", "name": "North For Men", "other_tags": "\"addr:city\"=>\"Leeds\",\"addr:housenumber\"=>\"16\",\"addr:postcode\"=>\"LS20 9JA\",\"addr:street\"=>\"Town Gate\",\"addr:suburb\"=>\"Guiseley\",\"male\"=>\"yes\",\"opening_hours\"=>\"Mo 09:00-17:45; Tu-Th 09:00-18:15; Fr 08:30-18:15; Sa 08:00-16:30; Su 10:30-16:00\",\"phone\"=>\"+44 1943 879490\",\"shop\"=>\"hairdresser\",\"website\"=>\"https:\/\/www.northformen.co.uk\"" }, "geometry": { "type": "Point", "coordinates": [ -1.7066438, 53.8756747 ] } },
	{ "type": "Feature", "properties": { "osm_id": "9482440259", "name": "Lee & Friends", "other_tags": "\"addr:city\"=>\"Leeds\",\"addr:housenumber\"=>\"14\",\"addr:postcode\"=>\"LS20 9JA\",\"addr:street\"=>\"Town Gate\",\"addr:suburb\"=>\"Guiseley\",\"female\"=>\"yes\",\"shop\"=>\"hairdresser\"" }, "geometry": { "type": "Point", "coordinates": [ -1.7066669, 53.8756139 ] } },
	{ "type": "Feature", "properties": { "osm_id": "9490847331", "name": "Hair Station", "other_tags": "\"shop\"=>\"hairdresser\"" }, "geometry": { "type": "Point", "coordinates": [ -1.5010695, 53.8570473 ] } },
	{ "type": "Feature", "properties": { "osm_id": "9522646555", "name": "Yazz Barbers", "other_tags": "\"male\"=>\"yes\",\"shop\"=>\"hairdresser\",\"website\"=>\"https:\/\/yazzhair.co\/our-salons\/yazz-barbers\/\"" }, "geometry": { "type": "Point", "coordinates": [ -1.7096511, 53.8727445 ] } },
	{ "type": "Feature", "properties": { "osm_id": "9556053402", "name": "Top Fades", "other_tags": "\"addr:city\"=>\"Leeds\",\"addr:housenumber\"=>\"52\",\"addr:postcode\"=>\"LS20 8AH\",\"addr:street\"=>\"Otley Road\",\"addr:suburb\"=>\"Guiseley\",\"description\"=>\"Traditional Turkish barber\",\"male\"=>\"yes\",\"phone\"=>\"+44 7594 055585\",\"shop\"=>\"hairdresser\"" }, "geometry": { "type": "Point", "coordinates": [ -1.7118604, 53.8736479 ] } },
	{ "type": "Feature", "properties": { "osm_id": "9556578701", "name": "H And Co", "other_tags": "\"addr:city\"=>\"Leeds\",\"addr:housenumber\"=>\"1\",\"addr:postcode\"=>\"LS20 8AL\",\"addr:street\"=>\"Springfield Road\",\"addr:suburb\"=>\"Guiseley\",\"email\"=>\"shine@handcohairdressing.co.uk\",\"opening_hours\"=>\"Tu 09:00-18:00; We-Th 09:00-20:00; Fr 09:00-18:00; Sa 09:00-17:00\",\"phone\"=>\"+44 1943 879533\",\"shop\"=>\"hairdresser\",\"website\"=>\"https:\/\/www.handcohairdressing.co.uk\/\"" }, "geometry": { "type": "Point", "coordinates": [ -1.7114226, 53.8735712 ] } },
	{ "type": "Feature", "properties": { "osm_id": "9580697261", "name": "Top Cutz Barber", "other_tags": "\"shop\"=>\"hairdresser\"" }, "geometry": { "type": "Point", "coordinates": [ -1.5996977, 53.7429483 ] } },
	{ "type": "Feature", "properties": { "osm_id": "9580697262", "name": "Parees Hair Studio", "other_tags": "\"shop\"=>\"hairdresser\"" }, "geometry": { "type": "Point", "coordinates": [ -1.5999632, 53.7429467 ] } },
	{ "type": "Feature", "properties": { "osm_id": "9580697264", "name": "Istanbul Barbers", "other_tags": "\"shop\"=>\"hairdresser\"" }, "geometry": { "type": "Point", "coordinates": [ -1.5998276, 53.743349 ] } },
	{ "type": "Feature", "properties": { "osm_id": "9580750246", "name": "Sleek & Unique", "other_tags": "\"shop\"=>\"hairdresser\"" }, "geometry": { "type": "Point", "coordinates": [ -1.6016815, 53.7462389 ] } },
	{ "type": "Feature", "properties": { "osm_id": "9580750251", "name": "Hair & Beauty Co.", "other_tags": "\"shop\"=>\"hairdresser\"" }, "geometry": { "type": "Point", "coordinates": [ -1.6021636, 53.7465028 ] } },
	{ "type": "Feature", "properties": { "osm_id": "9590925147", "name": "NJC Hair", "other_tags": "\"addr:city\"=>\"Leeds\",\"addr:housenumber\"=>\"1a\",\"addr:postcode\"=>\"LS20 9AX\",\"addr:street\"=>\"Oxford Street\",\"addr:suburb\"=>\"Guiseley\",\"level\"=>\"0\",\"opening_hours\"=>\"Mo,We 09:00-17:00; Th-Fr 09:00-19:00; Sa 09:00-16:00; Tu,Su closed\",\"phone\"=>\"+44 7939 948115;+44 7769 357367\",\"shop\"=>\"hairdresser\",\"unisex\"=>\"yes\",\"website\"=>\"https:\/\/njc-hair.com\/\"" }, "geometry": { "type": "Point", "coordinates": [ -1.7077556, 53.8759954 ] } },
	{ "type": "Feature", "properties": { "osm_id": "9659308763", "name": "Timeless Hair Salon", "other_tags": "\"addr:street\"=>\"Weston Lane\",\"shop\"=>\"hairdresser\"" }, "geometry": { "type": "Point", "coordinates": [ -1.7005936, 53.911386 ] } },
	{ "type": "Feature", "properties": { "osm_id": "9707879054", "name": "King Barber", "other_tags": "\"shop\"=>\"hairdresser\"" }, "geometry": { "type": "Point", "coordinates": [ -1.6214274, 53.7959118 ] } },
	{ "type": "Feature", "properties": { "osm_id": "9740263967", "name": "Afro  - Euro Hair & Beauity Salon", "other_tags": "\"shop\"=>\"hairdresser\"" }, "geometry": { "type": "Point", "coordinates": [ -1.5384399, 53.7966338 ] } },
	{ "type": "Feature", "properties": { "osm_id": "9985832444", "name": "Rapport", "other_tags": "\"shop\"=>\"hairdresser\"" }, "geometry": { "type": "Point", "coordinates": [ -1.4694055, 53.807609 ] } },
	{ "type": "Feature", "properties": { "osm_id": "10025669581", "name": "Paragon Hair and Beauty", "other_tags": "\"shop\"=>\"hairdresser\"" }, "geometry": { "type": "Point", "coordinates": [ -1.4415013, 53.7986706 ] } },
	{ "type": "Feature", "properties": { "osm_id": "10109990182", "name": "Salon Cabello", "other_tags": "\"female\"=>\"no\",\"shop\"=>\"hairdresser\",\"unisex\"=>\"yes\",\"website\"=>\"https:\/\/www.fresha.com\/a\/salon-cabello-otley-uk-27-manor-square-rmuel0dc\"" }, "geometry": { "type": "Point", "coordinates": [ -1.6939498, 53.9062331 ] } },
	{ "type": "Feature", "properties": { "osm_id": "10130434115", "name": "Mister Gee", "other_tags": "\"shop\"=>\"hairdresser\"" }, "geometry": { "type": "Point", "coordinates": [ -1.6004783, 53.744248 ] } },
	{ "type": "Feature", "properties": { "osm_id": "10130461018", "name": "Signature Hair & Beauty", "other_tags": "\"shop\"=>\"hairdresser\"" }, "geometry": { "type": "Point", "coordinates": [ -1.6000854, 53.7442568 ] } },
	{ "type": "Feature", "properties": { "osm_id": "10697262895", "name": "Horsforth Hair Lounge", "other_tags": "\"addr:city\"=>\"Horsforth\",\"addr:housename\"=>\"Unit 8 Park Centre\",\"addr:street\"=>\"Station Road\",\"phone\"=>\"+44 1132 590300\",\"shop\"=>\"hairdresser\"" }, "geometry": { "type": "Point", "coordinates": [ -1.631811, 53.8465061 ] } },
	{ "type": "Feature", "properties": { "osm_way_id": "78500849", "name": "Five Barbers", "building": "yes", "shop": "hairdresser", "other_tags": "\"addr:city\"=>\"Leeds\",\"addr:postcode\"=>\"LS10 2AR\",\"addr:street\"=>\"Church Street\"" }, "geometry": { "type": "Polygon", "coordinates": [ [ [ -1.5288289, 53.7784686 ], [ -1.5287778, 53.778495 ], [ -1.5286962, 53.7784398 ], [ -1.5287473, 53.7784134 ], [ -1.5288289, 53.7784686 ] ] ] } },
	{ "type": "Feature", "properties": { "osm_way_id": "130300012", "name": "Hussain Hairdressers", "building": "yes", "shop": "hairdresser", "other_tags": "\"addr:housenumber\"=>\"31\",\"addr:street\"=>\"Brown Lane East\",\"building:levels\"=>\"2\",\"building:material\"=>\"brick\",\"roof:material\"=>\"slate\",\"roof:shape\"=>\"pitched\"" }, "geometry": { "type": "Polygon", "coordinates": [ [ [ -1.5609488, 53.7832861 ], [ -1.5610226, 53.7832902 ], [ -1.5610165, 53.7833295 ], [ -1.5609427, 53.7833253 ], [ -1.5609488, 53.7832861 ] ] ] } },
	{ "type": "Feature", "properties": { "osm_way_id": "130300016", "name": "Mani's Clipper's", "building": "yes", "shop": "hairdresser", "other_tags": "\"addr:street\"=>\"Top Moor Side\",\"building:levels\"=>\"2\",\"building:material\"=>\"brick\",\"roof:material\"=>\"slate\",\"roof:shape\"=>\"pitched\"" }, "geometry": { "type": "Polygon", "coordinates": [ [ [ -1.5592672, 53.7829915 ], [ -1.5592184, 53.7829944 ], [ -1.559212, 53.7829565 ], [ -1.5592608, 53.7829536 ], [ -1.5592672, 53.7829915 ] ] ] } },
	{ "type": "Feature", "properties": { "osm_way_id": "149549443", "name": "Storm", "building": "yes", "shop": "hairdresser" }, "geometry": { "type": "Polygon", "coordinates": [ [ [ -1.4297518, 53.8283127 ], [ -1.4297696, 53.828372 ], [ -1.4296111, 53.8283886 ], [ -1.4295932, 53.8283293 ], [ -1.4297518, 53.8283127 ] ] ] } },
	{ "type": "Feature", "properties": { "osm_way_id": "149698443", "name": "Salon 145", "building": "commercial", "shop": "hairdresser", "other_tags": "\"addr:housenumber\"=>\"145\",\"addr:postcode\"=>\"LS8 1AA\",\"addr:street\"=>\"Street Lane\",\"floors\"=>\"1\",\"phone\"=>\"+44 113 2692555\",\"source:building\"=>\"bing\"" }, "geometry": { "type": "Polygon", "coordinates": [ [ [ -1.5177287, 53.8445743 ], [ -1.517659, 53.8445779 ], [ -1.5176436, 53.8444742 ], [ -1.5177133, 53.8444706 ], [ -1.5177287, 53.8445743 ] ] ] } },
	{ "type": "Feature", "properties": { "osm_way_id": "149702927", "name": "Angels of London", "building": "yes", "shop": "hairdresser", "other_tags": "\"addr:city\"=>\"Leeds\",\"addr:housenumber\"=>\"73\",\"addr:postcode\"=>\"LS8 1AP\",\"addr:street\"=>\"Street Lane\",\"addr:suburb\"=>\"Roundhay\",\"phone\"=>\"+44 113 2666599\",\"source:building\"=>\"bing\"" }, "geometry": { "type": "Polygon", "coordinates": [ [ [ -1.5098079, 53.8443227 ], [ -1.5097368, 53.8443025 ], [ -1.5098369, 53.84418 ], [ -1.5099079, 53.8442002 ], [ -1.5098079, 53.8443227 ] ] ] } },
	{ "type": "Feature", "properties": { "osm_way_id": "200170898", "name": "Architect Hair", "building": "retail", "shop": "hairdresser", "other_tags": "\"addr:city\"=>\"Leeds\",\"addr:country\"=>\"GB\",\"addr:housenumber\"=>\"52\",\"addr:postcode\"=>\"LS6 2AL\",\"addr:street\"=>\"Otley Road\"" }, "geometry": { "type": "Polygon", "coordinates": [ [ [ -1.5797112, 53.8234937 ], [ -1.579746, 53.8235372 ], [ -1.5795653, 53.8235882 ], [ -1.5795297, 53.8235428 ], [ -1.5797112, 53.8234937 ] ] ] } },
	{ "type": "Feature", "properties": { "osm_way_id": "200439684", "name": "The LEGEND BARBERS", "building": "retail", "shop": "hairdresser", "other_tags": "\"addr:city\"=>\"Leeds\",\"addr:country\"=>\"GB\",\"addr:housenumber\"=>\"8\",\"addr:postcode\"=>\"LS6 3NX\",\"addr:street\"=>\"Saint Anne's Road\",\"description\"=>\"formerly Moo Frozen Yogurt\",\"opening_hours\"=>\"Mo-Sa 09:00-18:00\"" }, "geometry": { "type": "Polygon", "coordinates": [ [ [ -1.5808113, 53.8235043 ], [ -1.5807663, 53.8235248 ], [ -1.5806076, 53.8234618 ], [ -1.5807011, 53.8234209 ], [ -1.5808113, 53.8235043 ] ] ] } },
	{ "type": "Feature", "properties": { "osm_way_id": "200439686", "name": "Mutu", "building": "retail", "shop": "hairdresser", "other_tags": "\"addr:city\"=>\"Leeds\",\"addr:country\"=>\"GB\",\"addr:housenumber\"=>\"10\",\"addr:postcode\"=>\"LS6 3NX\",\"addr:street\"=>\"Saint Anne's Road\"" }, "geometry": { "type": "Polygon", "coordinates": [ [ [ -1.5808781, 53.8234735 ], [ -1.5808113, 53.8235043 ], [ -1.5807011, 53.8234209 ], [ -1.5807678, 53.8233901 ], [ -1.5808781, 53.8234735 ] ] ] } },
	{ "type": "Feature", "properties": { "osm_way_id": "200439687", "name": "Hairworks", "building": "retail", "shop": "hairdresser", "other_tags": "\"addr:city\"=>\"Leeds\",\"addr:country\"=>\"GB\",\"addr:housenumber\"=>\"16\",\"addr:postcode\"=>\"LS6 3NX\",\"addr:street\"=>\"Saint Anne's Road\"" }, "geometry": { "type": "Polygon", "coordinates": [ [ [ -1.5810798, 53.8233806 ], [ -1.5810125, 53.8234116 ], [ -1.5809023, 53.8233282 ], [ -1.5809696, 53.8232972 ], [ -1.5810798, 53.8233806 ] ] ] } },
	{ "type": "Feature", "properties": { "osm_way_id": "201424037", "name": "Martin James", "building": "house", "shop": "hairdresser", "other_tags": "\"addr:city\"=>\"Leeds\",\"addr:country\"=>\"GB\",\"addr:housenumber\"=>\"66\",\"addr:postcode\"=>\"LS6 4BA\",\"addr:street\"=>\"Otley Road\"" }, "geometry": { "type": "Polygon", "coordinates": [ [ [ -1.5818941, 53.8264961 ], [ -1.5819179, 53.8265438 ], [ -1.5816492, 53.8265905 ], [ -1.5816254, 53.8265429 ], [ -1.5818941, 53.8264961 ] ] ] } },
	{ "type": "Feature", "properties": { "osm_way_id": "201424041", "name": "The Hair Studio", "building": "house", "shop": "hairdresser", "other_tags": "\"addr:city\"=>\"Leeds\",\"addr:country\"=>\"GB\",\"addr:housenumber\"=>\"62a\",\"addr:postcode\"=>\"LS6 4BA\",\"addr:street\"=>\"Otley Road\"" }, "geometry": { "type": "Polygon", "coordinates": [ [ [ -1.5816698, 53.8262724 ], [ -1.5815566, 53.8262822 ], [ -1.5815336, 53.8261888 ], [ -1.5816467, 53.8261791 ], [ -1.5816698, 53.8262724 ] ] ] } },
	{ "type": "Feature", "properties": { "osm_way_id": "201604424", "name": "Jam", "building": "retail", "shop": "hairdresser", "other_tags": "\"addr:city\"=>\"Leeds\",\"addr:country\"=>\"GB\",\"addr:housenumber\"=>\"77a\",\"addr:postcode\"=>\"LS6 3PS\",\"addr:street\"=>\"Otley Road\"" }, "geometry": { "type": "Polygon", "coordinates": [ [ [ -1.5793081, 53.8227177 ], [ -1.5792364, 53.8226511 ], [ -1.5793056, 53.8226252 ], [ -1.5793773, 53.8226918 ], [ -1.5793081, 53.8227177 ] ] ] } },
	{ "type": "Feature", "properties": { "osm_way_id": "201837061", "name": "Jax", "building": "retail", "shop": "hairdresser", "other_tags": "\"addr:city\"=>\"Leeds\",\"addr:country\"=>\"GB\",\"addr:housenumber\"=>\"10a\",\"addr:postcode\"=>\"LS6 2AD\",\"addr:street\"=>\"Otley Road\"" }, "geometry": { "type": "Polygon", "coordinates": [ [ [ -1.5769819, 53.8207484 ], [ -1.5770578, 53.8207379 ], [ -1.577095, 53.8207734 ], [ -1.5769973, 53.820787 ], [ -1.5769819, 53.8207484 ] ] ] } },
	{ "type": "Feature", "properties": { "osm_way_id": "203518213", "name": "Rebel Pin Up", "building": "yes", "shop": "hairdresser", "other_tags": "\"building:levels\"=>\"5\"" }, "geometry": { "type": "Polygon", "coordinates": [ [ [ -1.5374897, 53.7962784 ], [ -1.5375609, 53.7962788 ], [ -1.5375574, 53.7962618 ], [ -1.5376811, 53.7962925 ], [ -1.5376411, 53.7963288 ], [ -1.537601, 53.7963459 ], [ -1.537552, 53.796363 ], [ -1.5374919, 53.7963709 ], [ -1.5374897, 53.7962784 ] ] ] } },
	{ "type": "Feature", "properties": { "osm_way_id": "204558180", "name": "Best Look", "building": "retail", "shop": "hairdresser", "other_tags": "\"addr:city\"=>\"Leeds\",\"addr:country\"=>\"GB\",\"addr:housenumber\"=>\"43\",\"addr:postcode\"=>\"LS6 3AB\",\"addr:street\"=>\"Otley Road\"" }, "geometry": { "type": "Polygon", "coordinates": [ [ [ -1.5773406, 53.820779 ], [ -1.5773102, 53.8207512 ], [ -1.5774184, 53.8207101 ], [ -1.5774487, 53.8207378 ], [ -1.5773406, 53.820779 ] ] ] } },
	{ "type": "Feature", "properties": { "osm_way_id": "204558183", "name": "Oasis", "building": "retail", "shop": "hairdresser", "other_tags": "\"addr:city\"=>\"Leeds\",\"addr:country\"=>\"GB\",\"addr:housenumber\"=>\"37\",\"addr:postcode\"=>\"LS6 2AB\",\"addr:street\"=>\"Otley Road\"" }, "geometry": { "type": "Polygon", "coordinates": [ [ [ -1.5771876, 53.8206369 ], [ -1.57715, 53.8206004 ], [ -1.5771729, 53.8205801 ], [ -1.5772236, 53.820576 ], [ -1.5773179, 53.8205703 ], [ -1.5773228, 53.8206053 ], [ -1.5772636, 53.8206096 ], [ -1.5771876, 53.8206369 ] ] ] } },
	{ "type": "Feature", "properties": { "osm_way_id": "218984950", "building": "yes", "shop": "hairdresser" }, "geometry": { "type": "Polygon", "coordinates": [ [ [ -1.4823723, 53.8002736 ], [ -1.4823375, 53.8002617 ], [ -1.4824076, 53.8001903 ], [ -1.4825587, 53.800242 ], [ -1.4824886, 53.8003134 ], [ -1.4823723, 53.8002736 ] ] ] } },
	{ "type": "Feature", "properties": { "osm_way_id": "219481933", "name": "Unique Hairdresser", "building": "yes", "shop": "hairdresser", "other_tags": "\"addr:housenumber\"=>\"376\",\"addr:postcode\"=>\"LS17 6PY\",\"addr:street\"=>\"Harrogate Road\",\"building:levels\"=>\"2\",\"phone\"=>\"+44 113 266 6655\",\"source:building\"=>\"bing\"" }, "geometry": { "type": "Polygon", "coordinates": [ [ [ -1.533396, 53.843043 ], [ -1.5333993, 53.8430855 ], [ -1.5334, 53.8430953 ], [ -1.533331, 53.8430971 ], [ -1.5332178, 53.8431001 ], [ -1.5332139, 53.8430477 ], [ -1.533396, 53.843043 ] ] ] } },
	{ "type": "Feature", "properties": { "osm_way_id": "250875355", "name": "Moustache", "building": "yes", "shop": "hairdresser" }, "geometry": { "type": "Polygon", "coordinates": [ [ [ -1.5664257, 53.8281312 ], [ -1.5663183, 53.8281098 ], [ -1.5663344, 53.8280734 ], [ -1.5664471, 53.8280956 ], [ -1.5664257, 53.8281312 ] ] ] } },
	{ "type": "Feature", "properties": { "osm_way_id": "265766057", "name": "North & South", "building": "retail", "shop": "hairdresser", "other_tags": "\"addr:city\"=>\"Leeds\",\"addr:housenumber\"=>\"19\",\"addr:postcode\"=>\"LS6 3AA\",\"addr:street\"=>\"Otley Road\",\"wheelchair\"=>\"limited\"" }, "geometry": { "type": "Polygon", "coordinates": [ [ [ -1.5767185, 53.8201096 ], [ -1.576879, 53.820069 ], [ -1.5768865, 53.8200776 ], [ -1.576918, 53.8201134 ], [ -1.576762, 53.820161 ], [ -1.5767185, 53.8201096 ] ] ] } },
	{ "type": "Feature", "properties": { "osm_way_id": "305717020", "name": "Roys Rolls", "amenity": "cafe", "building": "yes", "shop": "hairdresser", "other_tags": "\"addr:city\"=>\"Leeds\",\"addr:housenumber\"=>\"193\",\"addr:postcode\"=>\"LS16 5BQ\",\"addr:street\"=>\"Butcher Hill\",\"addr:suburb\"=>\"West Park\",\"fhrs:id\"=>\"486661\"" }, "geometry": { "type": "Polygon", "coordinates": [ [ [ -1.6042672, 53.8332575 ], [ -1.6042676, 53.8331881 ], [ -1.6042928, 53.8331881 ], [ -1.6043377, 53.833197 ], [ -1.6043783, 53.8332209 ], [ -1.604389, 53.8332524 ], [ -1.6043676, 53.8332852 ], [ -1.6042672, 53.8332575 ] ] ] } },
	{ "type": "Feature", "properties": { "osm_way_id": "372433142", "name": "Total Being", "building": "yes", "shop": "hairdresser", "other_tags": "\"addr:city\"=>\"Horsforth\",\"addr:housenumber\"=>\"16\",\"addr:postcode\"=>\"LS18 5NR\",\"addr:street\"=>\"Station Road\",\"phone\"=>\"+44 113 258 6465\"" }, "geometry": { "type": "Polygon", "coordinates": [ [ [ -1.6332402, 53.8463512 ], [ -1.6332997, 53.8464868 ], [ -1.6331568, 53.8465087 ], [ -1.6330972, 53.8463731 ], [ -1.6332402, 53.8463512 ] ] ] } },
	{ "type": "Feature", "properties": { "osm_way_id": "385230902", "name": "No. 2 The Green", "building": "yes", "shop": "hairdresser", "other_tags": "\"addr:city\"=>\"Leeds\",\"addr:housenumber\"=>\"2-3\",\"addr:postcode\"=>\"LS18 4RH\",\"addr:street\"=>\"The Green\",\"addr:suburb\"=>\"Horsforth\",\"check_date:opening_hours\"=>\"2023-01-15\",\"opening_hours\"=>\"Su-Mo closed; Tu-We 09:00-18:00; Th 11:00-20:00; Fr-Sa 09:00-17:00\",\"opening_hours:signed\"=>\"no\",\"phone\"=>\"+44 113 258 8895\"" }, "geometry": { "type": "Polygon", "coordinates": [ [ [ -1.642537, 53.836528 ], [ -1.6424566, 53.8364974 ], [ -1.642356, 53.8364591 ], [ -1.6423426, 53.8364548 ], [ -1.6423902, 53.8364097 ], [ -1.6425176, 53.8364595 ], [ -1.6425413, 53.8364386 ], [ -1.6425954, 53.8363907 ], [ -1.6426618, 53.8364211 ], [ -1.642537, 53.836528 ] ] ] } },
	{ "type": "Feature", "properties": { "osm_way_id": "433027789", "name": "Little Red's Boutique", "building": "yes", "shop": "hairdresser", "other_tags": "\"addr:city\"=>\"Leeds\",\"addr:housenumber\"=>\"217\",\"addr:postcode\"=>\"LS7 2AA\",\"addr:street\"=>\"North Street\",\"building:levels\"=>\"2\"" }, "geometry": { "type": "Polygon", "coordinates": [ [ [ -1.5350593, 53.8075137 ], [ -1.535061, 53.8075327 ], [ -1.5349385, 53.8075413 ], [ -1.5349478, 53.8074923 ], [ -1.5350593, 53.8075137 ] ] ] } },
	{ "type": "Feature", "properties": { "osm_way_id": "433027790", "name": "Hennessy Hair Studio", "building": "yes", "shop": "hairdresser", "other_tags": "\"addr:city\"=>\"Leeds\",\"addr:housenumber\"=>\"219\",\"addr:postcode\"=>\"LS7 2AA\",\"addr:street\"=>\"North Street\",\"building:levels\"=>\"2\"" }, "geometry": { "type": "Polygon", "coordinates": [ [ [ -1.535061, 53.8075327 ], [ -1.5350628, 53.8075518 ], [ -1.5349293, 53.8075903 ], [ -1.5349385, 53.8075413 ], [ -1.535061, 53.8075327 ] ] ] } },
	{ "type": "Feature", "properties": { "osm_way_id": "433027791", "name": "Si Sanches", "building": "yes", "shop": "hairdresser", "other_tags": "\"addr:housenumber\"=>\"209\",\"addr:postcode\"=>\"LS7 2AA\",\"addr:street\"=>\"North Street\",\"building:levels\"=>\"2\",\"old_name\"=>\"Victorious Hair\"" }, "geometry": { "type": "Polygon", "coordinates": [ [ [ -1.5351648, 53.8073481 ], [ -1.5351371, 53.8073903 ], [ -1.5350269, 53.807364 ], [ -1.5350561, 53.8073167 ], [ -1.5351648, 53.8073481 ] ] ] } },
	{ "type": "Feature", "properties": { "osm_way_id": "433276899", "name": "Hair Life", "building": "yes", "shop": "hairdresser", "other_tags": "\"addr:city\"=>\"Leeds\",\"addr:housenumber\"=>\"5\",\"addr:postcode\"=>\"LS7 1AD\",\"addr:street\"=>\"Sheepscar Street South\"" }, "geometry": { "type": "Polygon", "coordinates": [ [ [ -1.5344887, 53.8076948 ], [ -1.5345062, 53.8077322 ], [ -1.534369, 53.8077429 ], [ -1.5343605, 53.8077039 ], [ -1.5344887, 53.8076948 ] ] ] } },
	{ "type": "Feature", "properties": { "osm_way_id": "455727035", "name": "Valerie's", "building": "yes", "shop": "hairdresser", "other_tags": "\"addr:housenumber\"=>\"31\"" }, "geometry": { "type": "Polygon", "coordinates": [ [ [ -1.5210041, 53.846301 ], [ -1.5209833, 53.8462315 ], [ -1.521274, 53.8462012 ], [ -1.5212838, 53.8462342 ], [ -1.5211566, 53.8462474 ], [ -1.5211677, 53.846284 ], [ -1.5210041, 53.846301 ] ] ] } },
	{ "type": "Feature", "properties": { "osm_way_id": "464451839", "name": "Reds Barbers", "building": "yes", "shop": "hairdresser", "other_tags": "\"addr:city\"=>\"Leeds\",\"addr:housenumber\"=>\"408\",\"addr:postcode\"=>\"LS9 0HH\",\"addr:street\"=>\"York Road\",\"website\"=>\"https:\/\/reds-barbers.business.site\/\"" }, "geometry": { "type": "Polygon", "coordinates": [ [ [ -1.4980395, 53.8012124 ], [ -1.4980454, 53.8012671 ], [ -1.4978957, 53.8012728 ], [ -1.4978898, 53.801218 ], [ -1.4980395, 53.8012124 ] ] ] } },
	{ "type": "Feature", "properties": { "osm_way_id": "472162363", "name": "The Barbers Shop", "building": "yes", "shop": "hairdresser" }, "geometry": { "type": "Polygon", "coordinates": [ [ [ -1.5840082, 53.809608 ], [ -1.5839284, 53.8095379 ], [ -1.5839797, 53.8095175 ], [ -1.5839909, 53.8095274 ], [ -1.5840558, 53.8095016 ], [ -1.5841245, 53.8095618 ], [ -1.5840082, 53.809608 ] ] ] } },
	{ "type": "Feature", "properties": { "osm_way_id": "487509637", "building": "house", "shop": "hairdresser", "other_tags": "\"addr:city\"=>\"Leeds\",\"addr:housenumber\"=>\"793\",\"addr:postcode\"=>\"LS28 6LS\",\"addr:street\"=>\"Leeds & Bradford Road\",\"addr:suburb\"=>\"Bramley\",\"not:addr:postcode\"=>\"LS28 6LJ\"" }, "geometry": { "type": "Polygon", "coordinates": [ [ [ -1.6544327, 53.808872 ], [ -1.6545826, 53.8088384 ], [ -1.6546348, 53.8089197 ], [ -1.654485, 53.8089533 ], [ -1.6544327, 53.808872 ] ] ] } },
	{ "type": "Feature", "properties": { "osm_way_id": "488711685", "building": "yes", "shop": "hairdresser" }, "geometry": { "type": "Polygon", "coordinates": [ [ [ -1.6609567, 53.7911795 ], [ -1.6609898, 53.7911269 ], [ -1.6610746, 53.7911391 ], [ -1.6610449, 53.7911933 ], [ -1.6609567, 53.7911795 ] ] ] } },
	{ "type": "Feature", "properties": { "osm_way_id": "488711687", "building": "yes", "shop": "hairdresser" }, "geometry": { "type": "Polygon", "coordinates": [ [ [ -1.661127, 53.7910434 ], [ -1.6611041, 53.7910853 ], [ -1.6610184, 53.7910749 ], [ -1.6610435, 53.7910223 ], [ -1.661127, 53.7910434 ] ] ] } },
	{ "type": "Feature", "properties": { "osm_way_id": "516664443", "name": "Stylelistiks", "building": "yes", "shop": "hairdresser" }, "geometry": { "type": "Polygon", "coordinates": [ [ [ -1.5937824, 53.7965223 ], [ -1.5938327, 53.7963655 ], [ -1.593901, 53.7963778 ], [ -1.5938839, 53.7965302 ], [ -1.5937824, 53.7965223 ] ] ] } },
	{ "type": "Feature", "properties": { "osm_way_id": "545810857", "name": "Lynne Priestley Hair", "building": "commercial", "shop": "hairdresser" }, "geometry": { "type": "Polygon", "coordinates": [ [ [ -1.4767882, 53.7484506 ], [ -1.4767936, 53.748355 ], [ -1.4769049, 53.7483546 ], [ -1.4769031, 53.7483861 ], [ -1.4768995, 53.7484569 ], [ -1.4767882, 53.7484506 ] ] ] } },
	{ "type": "Feature", "properties": { "osm_way_id": "561380675", "name": "Panache Hair Studio", "building": "yes", "shop": "hairdresser" }, "geometry": { "type": "Polygon", "coordinates": [ [ [ -1.4481653, 53.8075815 ], [ -1.448159, 53.8076288 ], [ -1.4481477, 53.8076801 ], [ -1.4481034, 53.8076756 ], [ -1.4481223, 53.8075801 ], [ -1.4481653, 53.8075815 ] ] ] } },
	{ "type": "Feature", "properties": { "osm_way_id": "566754981", "name": "Malcolms Gents Hairstyles", "building": "yes", "shop": "hairdresser", "other_tags": "\"addr:city\"=>\"Leeds\",\"addr:housenumber\"=>\"79\",\"addr:postcode\"=>\"LS15 8HN\",\"addr:street\"=>\"Pendas Way\",\"addr:suburb\"=>\"Stanks\",\"layer\"=>\"0\"" }, "geometry": { "type": "Polygon", "coordinates": [ [ [ -1.4394512, 53.810787 ], [ -1.4395201, 53.8107476 ], [ -1.4395646, 53.8107747 ], [ -1.439541, 53.8107881 ], [ -1.4395951, 53.810821 ], [ -1.4395496, 53.810847 ], [ -1.4394512, 53.810787 ] ] ] } },
	{ "type": "Feature", "properties": { "osm_way_id": "566754982", "name": "Strand HD", "building": "yes", "shop": "hairdresser", "other_tags": "\"addr:city\"=>\"Leeds\",\"addr:housenumber\"=>\"81\",\"addr:postcode\"=>\"LS15 8HN\",\"addr:street\"=>\"Pendas Way\",\"addr:suburb\"=>\"Stanks\"" }, "geometry": { "type": "Polygon", "coordinates": [ [ [ -1.4393835, 53.8108259 ], [ -1.4394512, 53.810787 ], [ -1.4395496, 53.810847 ], [ -1.4395087, 53.8108703 ], [ -1.4395399, 53.8108893 ], [ -1.439513, 53.8109047 ], [ -1.4393835, 53.8108259 ] ] ] } },
	{ "type": "Feature", "properties": { "osm_way_id": "566754985", "name": "The Salon 87", "building": "yes", "shop": "hairdresser", "other_tags": "\"addr:city\"=>\"Leeds\",\"addr:housenumber\"=>\"87\",\"addr:postcode\"=>\"LS15 8HN\",\"addr:street\"=>\"Pendas Way\",\"addr:suburb\"=>\"Stanks\"" }, "geometry": { "type": "Polygon", "coordinates": [ [ [ -1.439176, 53.8109451 ], [ -1.4392455, 53.8109051 ], [ -1.4393734, 53.8109827 ], [ -1.4393597, 53.8109906 ], [ -1.4393321, 53.8109737 ], [ -1.4392756, 53.8110059 ], [ -1.439176, 53.8109451 ] ] ] } },
	{ "type": "Feature", "properties": { "osm_way_id": "566754991", "name": "The Helen Paul Hair Studio", "building": "yes", "shop": "hairdresser", "other_tags": "\"addr:city\"=>\"Leeds\",\"addr:housenumber\"=>\"75\",\"addr:postcode\"=>\"LS15 8HU\",\"addr:street\"=>\"Pendas Way\",\"addr:suburb\"=>\"Stanks\"" }, "geometry": { "type": "Polygon", "coordinates": [ [ [ -1.4397424, 53.8103223 ], [ -1.4396942, 53.8102758 ], [ -1.4398099, 53.810234 ], [ -1.4398581, 53.8102805 ], [ -1.4397424, 53.8103223 ] ] ] } },
	{ "type": "Feature", "properties": { "osm_way_id": "582528005", "name": "Scissors Palace", "building": "retail", "shop": "hairdresser" }, "geometry": { "type": "Polygon", "coordinates": [ [ [ -1.5967873, 53.8217077 ], [ -1.5966765, 53.8216581 ], [ -1.5967237, 53.8216213 ], [ -1.5967457, 53.8216311 ], [ -1.5967818, 53.8216029 ], [ -1.5968708, 53.8216427 ], [ -1.5968514, 53.8216577 ], [ -1.5967873, 53.8217077 ] ] ] } },
	{ "type": "Feature", "properties": { "osm_way_id": "590809712", "name": "Options Hair", "building": "commercial", "shop": "hairdresser" }, "geometry": { "type": "Polygon", "coordinates": [ [ [ -1.4783591, 53.7484343 ], [ -1.4783617, 53.7483038 ], [ -1.4784867, 53.7483047 ], [ -1.4784841, 53.7484352 ], [ -1.4783591, 53.7484343 ] ] ] } },
	{ "type": "Feature", "properties": { "osm_way_id": "607867965", "name": "Hussain Barber", "building": "retail", "shop": "hairdresser", "other_tags": "\"addr:city\"=>\"Leeds\",\"addr:housenumber\"=>\"17\",\"addr:postcode\"=>\"LS11 5LG\",\"addr:street\"=>\"Ring Road Beeston Park\",\"addr:suburb\"=>\"Hunslet\"" }, "geometry": { "type": "Polygon", "coordinates": [ [ [ -1.5616158, 53.7637768 ], [ -1.5614762, 53.7638179 ], [ -1.5614344, 53.7637683 ], [ -1.5617323, 53.7636806 ], [ -1.5617741, 53.7637302 ], [ -1.5616158, 53.7637768 ] ] ] } },
	{ "type": "Feature", "properties": { "osm_way_id": "607867967", "name": "La Rose", "building": "retail", "shop": "hairdresser", "other_tags": "\"addr:city\"=>\"Leeds\",\"addr:housenumber\"=>\"7\",\"addr:postcode\"=>\"LS11 5LG\",\"addr:street\"=>\"Ring Road Beeston Park\",\"addr:suburb\"=>\"Hunslet\"" }, "geometry": { "type": "Polygon", "coordinates": [ [ [ -1.5617805, 53.7639722 ], [ -1.5617394, 53.7639233 ], [ -1.5618976, 53.7638767 ], [ -1.5619388, 53.7639255 ], [ -1.5617805, 53.7639722 ] ] ] } },