{
"type": "FeatureCollection",
"crs": { "type": "name", "properties": { "name": "urn:ogc:def:crs:OGC:1.3:CRS84" } },
"features": [
	{ "type": "Feature", "properties": { "osm_id": "5071335228", "name": "Fragrance Shop", "other_tags": "\"addr:city\"=>\"Huddersfield\",\"addr:postcode\"=>\"HD1 2QB\",\"addr:street\"=>\"Kingsgate Centre\",\"shop\"=>\"perfumery\"" }, "geometry": { "type": "Point", "coordinates": [ -1.7786878, 53.6457342 ] } },
	{ "type": "Feature", "properties": { "osm_id": "5071335234", "name": "Perfume Shop", "other_tags": "\"addr:city\"=>\"Huddersfield\",\"addr:street\"=>\"Kingsgate\",\"shop\"=>\"perfumery\"" }, "geometry": { "type": "Point", "coordinates": [ -1.780214, 53.6458208 ] } },
	{ "type": "Feature", "properties": { "osm_id": "5648164604", "name": "The Perfume Shop", "other_tags": "\"addr:city\"=>\"Leeds\",\"addr:housename\"=>\"St Johns Centre\",\"addr:housenumber\"=>\"110-118\",\"addr:postcode\"=>\"LS2 8LQ\",\"addr:street\"=>\"Albion Street\",\"level\"=>\"0\",\"shop\"=>\"perfumery\"" }, "geometry": { "type": "Point", "coordinates": [ -1.5437548, 53.8003079 ] } },
	{ "type": "Feature", "properties": { "osm_id": "5754417066", "name": "The Perfume Shop", "other_tags": "\"addr:city\"=>\"Wakefield\",\"addr:postcode\"=>\"WF1 1YB\",\"addr:street\"=>\"Bishopgate Walk The Ridings Centre\",\"addr:unit\"=>\"50\",\"level\"=>\"1\",\"shop\"=>\"perfumery\"" }, "geometry": { "type": "Point", "coordinates": [ -1.4972469, 53.681871 ] } },
	{ "type": "Feature", "properties": { "osm_id": "5941346409", "name": "Jo Malone", "other_tags": "\"addr:city\"=>\"Leeds\",\"addr:housenumber\"=>\"15-17\",\"addr:postcode\"=>\"LS1 6BD\",\"addr:street\"=>\"Queen Victoria Street\",\"shop\"=>\"perfumery\"" }, "geometry": { "type": "Point", "coordinates": [ -1.5412563, 53.7980679 ] } },
	{ "type": "Feature", "properties": { "osm_id": "5941346425", "name": "Penhaligon's", "other_tags": "\"addr:city\"=>\"Leeds\",\"addr:housenumber\"=>\"4\",\"addr:postcode\"=>\"LS1 6BE\",\"addr:street\"=>\"Queen Victoria Street\",\"shop\"=>\"perfumery\",\"website\"=>\"https:\/\/www.penhaligons.com\/\"" }, "geometry": { "type": "Point", "coordinates": [ -1.5417874, 53.798296 ] } },
	{ "type": "Feature", "properties": { "osm_id": "5941346427", "name": "Molton Brown", "other_tags": "\"addr:city\"=>\"Leeds\",\"addr:housenumber\"=>\"41-43\",\"addr:postcode\"=>\"LS1 6BH\",\"addr:street\"=>\"County Arcade\",\"shop\"=>\"perfumery\",\"website\"=>\"https:\/\/www.moltonbrown.co.uk\/\"" }, "geometry": { "type": "Point", "coordinates": [ -1.5402626, 53.79822 ] } },
	{ "type": "Feature", "properties": { "osm_id": "6001482125", "name": "Zest Perfumes & Cosmetics", "other_tags": "\"shop\"=>\"perfumery\"" }, "geometry": { "type": "Point", "coordinates": [ -1.5378955, 53.7973391 ] } },
	{ "type": "Feature", "properties": { "osm_id": "6001596335", "name": "Neom", "other_tags": "\"addr:city\"=>\"Leeds\",\"addr:housename\"=>\"Victoria Gate\",\"addr:postcode\"=>\"LS2 7AR\",\"addr:street\"=>\"Harewood Street\",\"addr:unit\"=>\"22\",\"level\"=>\"0\",\"shop\"=>\"perfumery\"" }, "geometry": { "type": "Point", "coordinates": [ -1.5381181, 53.7981336 ] } },
	{ "type": "Feature", "properties": { "osm_id": "6052531570", "name": "The Perfume Shop", "other_tags": "\"level\"=>\"0\",\"shop\"=>\"perfumery\"" }, "geometry": { "type": "Point", "coordinates": [ -1.5739042, 53.7571716 ] } },
	{ "type": "Feature", "properties": { "osm_id": "6052531608", "name": "The Fragrance Shop", "other_tags": "\"level\"=>\"0\",\"shop\"=>\"perfumery\"" }, "geometry": { "type": "Point", "coordinates": [ -1.5741442, 53.7597737 ] } },
	{ "type": "Feature", "properties": { "osm_id": null, "centroid": { "latitude": 53.684474, "longitude": -1.496077 }, "osm_way_id": "331251058", "name": "The Look", "building": "yes", "shop": "perfumery" }, "geometry": { "type": "MultiPolygon", "coordinates": [ [ [ [ -1.4961892, 53.6844593 ], [ -1.4961802, 53.6845047 ], [ -1.4959657, 53.6844886 ], [ -1.4959741, 53.6844433 ], [ -1.4961892, 53.6844593 ] ] ] ] } },
	{ "type": "Feature", "properties": { "osm_id": null, "centroid": { "latitude": 53.645687, "longitude": -1.781840 }, "osm_way_id": "334181467", "shop": "perfumery" }, "geometry": { "type": "MultiPolygon", "coordinates": [ [ [ [ -1.7817537, 53.6457567 ], [ -1.7817991, 53.6456071 ], [ -1.7819266, 53.6456266 ], [ -1.7818741, 53.6457666 ], [ -1.7817537, 53.6457567 ] ] ] ] } }
]
}
