{
"type": "FeatureCollection",
"crs": { "type": "name", "properties": { "name": "urn:ogc:def:crs:OGC:1.3:CRS84" } },
"features": [
	{ "type": "Feature", "properties": { "osm_id": "52841969", "amenity": "car_wash" }, "geometry": { "type": "Point", "coordinates": [ -1.551492, 53.8181282 ] } },
	{ "type": "Feature", "properties": { "osm_id": "301022564", "name": "All Hand Car Wash", "amenity": "car_wash" }, "geometry": { "type": "Point", "coordinates": [ -1.5980733, 53.8116806 ] } },
	{ "type": "Feature", "properties": { "osm_id": "301022571", "name": "Bruce's Drive-Through Hand Car Wash", "amenity": "car_wash" }, "geometry": { "type": "Point", "coordinates": [ -1.6003857, 53.8139346 ] } },
	{ "type": "Feature", "properties": { "osm_id": "336233972", "amenity": "car_wash" }, "geometry": { "type": "Point", "coordinates": [ -1.7711396, 53.806713 ] } },
	{ "type": "Feature", "properties": { "osm_id": "349349936", "name": "Hand Car Wash", "amenity": "car_wash" }, "geometry": { "type": "Point", "coordinates": [ -1.6435729, 53.8069198 ] } },
	{ "type": "Feature", "properties": { "osm_id": "363870414", "amenity": "car_wash", "other_tags": "\"operator\"=>\"Sainsburys\"" }, "geometry": { "type": "Point", "coordinates": [ -1.6238135, 53.687777 ] } },
	{ "type": "Feature", "properties": { "osm_id": "374406326", "amenity": "car_wash", "other_tags": "\"operator\"=>\"arc\"" }, "geometry": { "type": "Point", "coordinates": [ -1.7787717, 53.7162403 ] } },
	{ "type": "Feature", "properties": { "osm_id": "639286259", "name": "arc", "amenity": "car_wash" }, "geometry": { "type": "Point", "coordinates": [ -1.6395471, 53.7190092 ] } },
	{ "type": "Feature", "properties": { "osm_id": "747521373", "amenity": "car_wash" }, "geometry": { "type": "Point", "coordinates": [ -1.7435653, 53.9071104 ] } },
	{ "type": "Feature", "properties": { "osm_id": "831582026", "amenity": "car_wash" }, "geometry": { "type": "Point", "coordinates": [ -1.9116841, 53.8647787 ] } },
	{ "type": "Feature", "properties": { "osm_id": "1379363052", "name": "Car Spa", "amenity": "car_wash" }, "geometry": { "type": "Point", "coordinates": [ -1.7830454, 53.926251 ] } },
	{ "type": "Feature", "properties": { "osm_id": "1574294026", "name": "Rainbow", "amenity": "car_wash" }, "geometry": { "type": "Point", "coordinates": [ -1.4731455, 53.6686667 ] } },
	{ "type": "Feature", "properties": { "osm_id": "1643687496", "amenity": "car_wash", "other_tags": "\"operator\"=>\"Morrisons\"" }, "geometry": { "type": "Point", "coordinates": [ -1.9074217, 53.8630205 ] } },
	{ "type": "Feature", "properties": { "osm_id": "1873300019", "name": "Morley Hand Carwash", "amenity": "car_wash" }, "geometry": { "type": "Point", "coordinates": [ -1.6189449, 53.7410722 ] } },
	{ "type": "Feature", "properties": { "osm_id": "2358527884", "name": "5 Star", "amenity": "car_wash" }, "geometry": { "type": "Point", "coordinates": [ -1.7797641, 53.8351034 ] } },
	{ "type": "Feature", "properties": { "osm_id": "2390385817", "amenity": "car_wash" }, "geometry": { "type": "Point", "coordinates": [ -1.7934329, 53.634082 ] } },
	{ "type": "Feature", "properties": { "osm_id": "2881824666", "amenity": "car_wash" }, "geometry": { "type": "Point", "coordinates": [ -1.6224174, 53.7968753 ] } },
	{ "type": "Feature", "properties": { "osm_id": "3294487843", "amenity": "car_wash" }, "geometry": { "type": "Point", "coordinates": [ -1.9860589, 53.7325381 ] } },
	{ "type": "Feature", "properties": { "osm_id": "3786773395", "amenity": "car_wash" }, "geometry": { "type": "Point", "coordinates": [ -1.6383478, 53.804203 ] } },
	{ "type": "Feature", "properties": { "osm_id": "3801400074", "amenity": "car_wash", "other_tags": "\"operator\"=>\"Morrisons\"" }, "geometry": { "type": "Point", "coordinates": [ -1.6031734, 53.8147984 ] } },
	{ "type": "Feature", "properties": { "osm_id": "3985365073", "name": "Tong Road Hand Car Wash", "amenity": "car_wash" }, "geometry": { "type": "Point", "coordinates": [ -1.5932184, 53.7938491 ] } },
	{ "type": "Feature", "properties": { "osm_id": "4474318125", "name": "Crossgates Hand Car Wash", "amenity": "car_wash" }, "geometry": { "type": "Point", "coordinates": [ -1.4537761, 53.8080011 ] } },
	{ "type": "Feature", "properties": { "osm_id": "4628496995", "name": "Starhands", "amenity": "car_wash" }, "geometry": { "type": "Point", "coordinates": [ -1.3681071, 53.6755983 ] } }
]
}
