{
"type": "FeatureCollection",
"crs": { "type": "name", "properties": { "name": "urn:ogc:def:crs:OGC:1.3:CRS84" } },
"features": [
	{ "type": "Feature", "properties": { "osm_id": "998439558", "name": "K&F", "other_tags": "\"shop\"=>\"kitchen\"" }, "geometry": { "type": "Point", "coordinates": [ -1.6564555, 53.7347658 ] } },
	{ "type": "Feature", "properties": { "osm_id": "2390385816", "name": "Expressions", "other_tags": "\"shop\"=>\"kitchen\"" }, "geometry": { "type": "Point", "coordinates": [ -1.7956577, 53.6330969 ] } },
	{ "type": "Feature", "properties": { "osm_id": "3715344954", "name": "AKA interiors", "other_tags": "\"addr:city\"=>\"Rawdon\",\"addr:housename\"=>\"Realtex House\",\"addr:housenumber\"=>\"8\",\"addr:postcode\"=>\"LS19 6AX\",\"addr:street\"=>\"Leeds Road\",\"phone\"=>\"+44 113 391 0179\",\"shop\"=>\"kitchen\",\"website\"=>\"www.akainteriors.co.uk\"" }, "geometry": { "type": "Point", "coordinates": [ -1.6845389, 53.8523405 ] } },
	{ "type": "Feature", "properties": { "osm_id": "3716704505", "name": "Hugel Designer Kitchen", "other_tags": "\"addr:city\"=>\"Yeadon\",\"addr:housenumber\"=>\"5\",\"addr:postcode\"=>\"LS19 7BN\",\"addr:street\"=>\"Moorfield Road\",\"phone\"=>\"+44 113 250 6767\",\"shop\"=>\"kitchen\",\"website\"=>\"https:\/\/www.hugel.co.uk\/\"" }, "geometry": { "type": "Point", "coordinates": [ -1.6738951, 53.8651348 ] } },
	{ "type": "Feature", "properties": { "osm_id": "3916647756", "name": "Drummond's Kitchens", "other_tags": "\"addr:city\"=>\"Horsforth\",\"addr:housenumber\"=>\"116\",\"addr:postcode\"=>\"LS18 4QB\",\"addr:street\"=>\"New Road Side\",\"opening_hours\"=>\"Mo-Fr 09:00-17:00; Sa 10:00-16:30; Su Closed\",\"phone\"=>\"+44 113 2588588\",\"shop\"=>\"kitchen\",\"website\"=>\"https:\/\/www.drummondskitchens.co.uk\/\"" }, "geometry": { "type": "Point", "coordinates": [ -1.6429184, 53.8322904 ] } },
	{ "type": "Feature", "properties": { "osm_id": "4622772473", "name": "Wren Kitchens", "other_tags": "\"shop\"=>\"kitchen\",\"access\"=>\"customers\",\"entrance\"=>\"yes\",\"addr:city\"=>\"Huddersfield\",\"addr:street\"=>\"Leeds Road\",\"addr:postcode\"=>\"HD1 6PF\"" }, "geometry": { "type": "Point", "coordinates": [ -1.7678098, 53.6577199 ] } }
]
}
