{
"type": "FeatureCollection",
"crs": { "type": "name", "properties": { "name": "urn:ogc:def:crs:OGC:1.3:CRS84" } },
"features": [
	{ "type": "Feature", "properties": { "osm_id": "292238581", "other_tags": "\"shop\"=>\"erotic\"" }, "geometry": { "type": "Point", "coordinates": [ -1.5501768, 53.7707916 ] } },
	{ "type": "Feature", "properties": { "osm_id": "313197511", "name": "Pulse and Cocktails", "other_tags": "\"shop\"=>\"erotic\",\"brand\"=>\"Pulse and Cocktails\",\"brand:wikidata\"=>\"Q7259672\",\"brand:wikipedia\"=>\"en:Pulse and Cocktails\"" }, "geometry": { "type": "Point", "coordinates": [ -1.5685682, 53.7956908 ] } },
	{ "type": "Feature", "properties": { "osm_id": "357751953", "name": "Simply Pleasure", "other_tags": "\"shop\"=>\"erotic\",\"addr:city\"=>\"Leeds\",\"addr:street\"=>\"Briggate\",\"addr:postcode\"=>\"LS1 4AF\",\"addr:housenumber\"=>\"5\"" }, "geometry": { "type": "Point", "coordinates": [ -1.5425725, 53.7947461 ] } },
	{ "type": "Feature", "properties": { "osm_id": "5941346467", "name": "Ann Summers", "other_tags": "\"addr:city\"=>\"Leeds\",\"addr:housenumber\"=>\"36\",\"addr:postcode\"=>\"LS1 6LB\",\"addr:street\"=>\"Lands Lane\",\"brand\"=>\"Ann Summers\",\"brand:wikidata\"=>\"Q579524\",\"brand:wikipedia\"=>\"en:Ann Summers\",\"shop\"=>\"erotic\"" }, "geometry": { "type": "Point", "coordinates": [ -1.5431674, 53.798776 ] } },
	{ "type": "Feature", "properties": { "osm_id": "6052531555", "name": "Ann Summers", "other_tags": "\"shop\"=>\"erotic\",\"brand\"=>\"Ann Summers\",\"level\"=>\"0\",\"brand:wikidata\"=>\"Q579524\",\"brand:wikipedia\"=>\"en:Ann Summers\"" }, "geometry": { "type": "Point", "coordinates": [ -1.5744148, 53.7577625 ] } },
	{ "type": "Feature", "properties": { "osm_id": "7750414750", "name": "Ann Summers", "other_tags": "\"addr:city\"=>\"Castleford\",\"addr:housename\"=>\"Junction 32 Outlet Shopping Village\",\"addr:housenumber\"=>\"Unit 60\",\"addr:postcode\"=>\"WF10 4FR\",\"addr:street\"=>\"Tomahawk Trail\",\"brand\"=>\"Ann Summers\",\"brand:wikidata\"=>\"Q579524\",\"brand:wikipedia\"=>\"en:Ann Summers\",\"min_age\"=>\"18\",\"opening_hours:covid19\"=>\"closed\",\"shop\"=>\"erotic\"" }, "geometry": { "type": "Point", "coordinates": [ -1.3394037, 53.7118708 ] } },
	{ "type": "Feature", "properties": { "osm_id": "7992676721", "name": "Utopia Adult Store", "other_tags": "\"shop\"=>\"erotic\"" }, "geometry": { "type": "Point", "coordinates": [ -1.3610411, 53.7271726 ] } },
	{ "type": "Feature", "properties": { "osm_id": null, "centroid": { "latitude": 53.625915, "longitude": -1.238172 }, "osm_way_id": "927081126", "name": "Pulse and Cocktails", "building": "yes", "shop": "erotic", "other_tags": "\"brand\"=>\"Pulse and Cocktails\",\"brand:wikidata\"=>\"Q7259672\",\"brand:wikipedia\"=>\"en:Pulse and Cocktails\"" }, "geometry": { "type": "MultiPolygon", "coordinates": [ [ [ [ -1.2381511, 53.6260088 ], [ -1.2379975, 53.6258845 ], [ -1.238163, 53.6258126 ], [ -1.2383472, 53.6259617 ], [ -1.2382181, 53.6260178 ], [ -1.2381875, 53.625993 ], [ -1.2381511, 53.6260088 ] ] ] ] } }
]
}
