{
"type": "FeatureCollection",
"crs": { "type": "name", "properties": { "name": "urn:ogc:def:crs:OGC:1.3:CRS84" } },
"features": [
	{ "type": "Feature", "properties": { "osm_id": "29457184", "name": "Badger Stone", "other_tags": "\"natural\"=>\"stone\",\"historic\"=>\"archaeological_site\",\"description\"=>\"Bronze Age carved rock. 95 cuup markings on south-west face of 3m by 1m tall rock.\"" }, "geometry": { "type": "Point", "coordinates": [ -1.8329354, 53.9105192 ] } },
	{ "type": "Feature", "properties": { "osm_id": "541436945", "name": "Stinking Stone", "other_tags": "\"natural\"=>\"stone\"" }, "geometry": { "type": "Point", "coordinates": [ -1.9761953, 53.8787663 ] } },
	{ "type": "Feature", "properties": { "osm_id": "699912963", "name": "Robin Hoods Penny Stone", "other_tags": "\"natural\"=>\"stone\"" }, "geometry": { "type": "Point", "coordinates": [ -1.9737063, 53.7523094 ] } },
	{ "type": "Feature", "properties": { "osm_id": "703400107", "name": "Sheep Stones", "other_tags": "\"natural\"=>\"stone\",\"source:name\"=>\"OS_OpenData_StreetView\"" }, "geometry": { "type": "Point", "coordinates": [ -1.9786739, 53.7487395 ] } },
	{ "type": "Feature", "properties": { "osm_id": "1997841357", "name": "Round Stone", "other_tags": "\"natural\"=>\"stone\"" }, "geometry": { "type": "Point", "coordinates": [ -2.0987011, 53.7881931 ] } },
	{ "type": "Feature", "properties": { "osm_id": "1997841385", "other_tags": "\"natural\"=>\"stone\"" }, "geometry": { "type": "Point", "coordinates": [ -2.1042522, 53.789317 ] } },
	{ "type": "Feature", "properties": { "osm_id": "1997841387", "other_tags": "\"natural\"=>\"stone\"" }, "geometry": { "type": "Point", "coordinates": [ -2.104492, 53.7894124 ] } },
	{ "type": "Feature", "properties": { "osm_id": "1997841390", "other_tags": "\"natural\"=>\"stone\"" }, "geometry": { "type": "Point", "coordinates": [ -2.1042679, 53.7894186 ] } },
	{ "type": "Feature", "properties": { "osm_id": "1997841392", "other_tags": "\"natural\"=>\"stone\"" }, "geometry": { "type": "Point", "coordinates": [ -2.1042522, 53.789511 ] } },
	{ "type": "Feature", "properties": { "osm_id": "1997841396", "other_tags": "\"natural\"=>\"stone\"" }, "geometry": { "type": "Point", "coordinates": [ -2.1043304, 53.7896773 ] } },
	{ "type": "Feature", "properties": { "osm_id": "2807904392", "name": "Sepulchre Stone", "other_tags": "\"natural\"=>\"stone\"" }, "geometry": { "type": "Point", "coordinates": [ -1.8626974, 53.9189167 ] } },
	{ "type": "Feature", "properties": { "osm_id": "2807912478", "name": "Noon Stone", "other_tags": "\"description\"=>\"Natural millstone grit erratic, first described in a boundary preambulation as the 'None' stone in 1579. Possibly used for time keeping, sun appeared over stone at noon\",\"natural\"=>\"stone\",\"website\"=>\"https:\/\/www.megalithic.co.uk\/article.php?sid=7398\"" }, "geometry": { "type": "Point", "coordinates": [ -1.8789312, 53.9200417 ] } },
	{ "type": "Feature", "properties": { "osm_id": "4988454517", "name": "Grey Stone", "other_tags": "\"natural\"=>\"stone\"" }, "geometry": { "type": "Point", "coordinates": [ -1.8343518, 53.9166176 ] } },
	{ "type": "Feature", "properties": { "osm_id": "4988454723", "name": "Neb Stone", "other_tags": "\"natural\"=>\"stone\"" }, "geometry": { "type": "Point", "coordinates": [ -1.8432782, 53.9135402 ] } },
	{ "type": "Feature", "properties": { "osm_id": "5070396404", "other_tags": "\"natural\"=>\"stone\"" }, "geometry": { "type": "Point", "coordinates": [ -1.6625497, 53.6850463 ] } },
	{ "type": "Feature", "properties": { "osm_id": "7489445066", "other_tags": "\"natural\"=>\"stone\"" }, "geometry": { "type": "Point", "coordinates": [ -1.5338027, 53.8484194 ] } },
	{ "type": "Feature", "properties": { "osm_id": "744634187", "barrier": "kerb", "z_order": 0, "other_tags": "\"area\"=>\"no\",\"natural\"=>\"stone\"" }, "geometry": { "type": "LineString", "coordinates": [ [ -1.4771252, 53.7907688 ], [ -1.4771397, 53.7907733 ], [ -1.4771507, 53.7907804 ], [ -1.4771571, 53.7907893 ], [ -1.477158, 53.790799 ], [ -1.4771532, 53.7908082 ], [ -1.4771435, 53.790816 ], [ -1.4771311, 53.790821 ], [ -1.4771166, 53.7908235 ], [ -1.4771016, 53.7908232 ], [ -1.4770874, 53.7908202 ], [ -1.4770756, 53.7908147 ], [ -1.4770673, 53.7908073 ], [ -1.4770633, 53.7907987 ], [ -1.477064, 53.7907898 ], [ -1.4770695, 53.7907815 ], [ -1.477079, 53.7907746 ], [ -1.4770929, 53.7907695 ], [ -1.4771089, 53.7907675 ], [ -1.4771252, 53.7907688 ] ] } },
	{ "type": "Feature", "properties": { "osm_id": "766534114", "z_order": 0, "other_tags": "\"area\"=>\"no\",\"crossing\"=>\"yes\",\"informal\"=>\"yes\",\"natural\"=>\"stone\"" }, "geometry": { "type": "LineString", "coordinates": [ [ -1.4647644, 53.8023191 ], [ -1.4647351, 53.8022359 ], [ -1.4647208, 53.8022083 ] ] } },
	{ "type": "Feature", "properties": { "osm_id": null, "centroid": { "latitude": 53.871517, "longitude": -2.021794 }, "osm_way_id": "746337854", "name": "Hitching Stone", "natural": "stone" }, "geometry": { "type": "MultiPolygon", "coordinates": [ [ [ [ -2.0217365, 53.8715563 ], [ -2.0217204, 53.8714864 ], [ -2.0218386, 53.8714769 ], [ -2.021867, 53.8715478 ], [ -2.0218125, 53.8715502 ], [ -2.0217365, 53.8715563 ] ] ] ] } }
]
}
