{
"type": "FeatureCollection",
"crs": { "type": "name", "properties": { "name": "urn:ogc:def:crs:OGC:1.3:CRS84" } },
"features": [
	{ "type": "Feature", "properties": { "osm_id": "963201576", "name": "Nigel Hirst", "other_tags": "\"shop\"=>\"fishing\"" }, "geometry": { "type": "Point", "coordinates": [ -1.667267, 53.677748 ] } },
	{ "type": "Feature", "properties": { "osm_id": "1584075252", "name": "K.K.Tackle", "other_tags": "\"shop\"=>\"fishing\"" }, "geometry": { "type": "Point", "coordinates": [ -1.9097865, 53.8695935 ] } },
	{ "type": "Feature", "properties": { "osm_id": "2353394453", "name": "Agars", "other_tags": "\"shop\"=>\"fishing\"" }, "geometry": { "type": "Point", "coordinates": [ -1.6884213, 53.9062645 ] } },
	{ "type": "Feature", "properties": { "osm_id": "3203462087", "other_tags": "\"shop\"=>\"fishing\"" }, "geometry": { "type": "Point", "coordinates": [ -1.6437443, 53.7184118 ] } },
	{ "type": "Feature", "properties": { "osm_id": "3903000730", "name": "Supreme Angling Ltd", "other_tags": "\"addr:city\"=>\"Horsforth\",\"addr:housenumber\"=>\"125\",\"addr:postcode\"=>\"LS18 4QD\",\"addr:street\"=>\"New Road Side\",\"opening_hours\"=>\"Mo-Fr 08:30-17:30; Sa 08:30-16:30\",\"phone\"=>\"+44 113 281 8539\",\"shop\"=>\"fishing\",\"website\"=>\"https:\/\/www.supremeangling.co.uk\/\"" }, "geometry": { "type": "Point", "coordinates": [ -1.643163, 53.8320344 ] } }
]
}
