{
"type": "FeatureCollection",
"crs": { "type": "name", "properties": { "name": "urn:ogc:def:crs:OGC:1.3:CRS84" } },
"features": [
	{ "type": "Feature", "properties": { "osm_id": "292238581", "other_tags": "\"shop\"=>\"erotic\"" }, "geometry": { "type": "Point", "coordinates": [ -1.5501768, 53.7707916 ] } },
	{ "type": "Feature", "properties": { "osm_id": "313197511", "name": "Pulse and Cocktails", "other_tags": "\"shop\"=>\"erotic\",\"brand\"=>\"Pulse and Cocktails\",\"brand:wikidata\"=>\"Q7259672\",\"brand:wikipedia\"=>\"en:Pulse and Cocktails\"" }, "geometry": { "type": "Point", "coordinates": [ -1.5685682, 53.7956908 ] } },
	{ "type": "Feature", "properties": { "osm_id": "357751953", "name": "Simply Pleasure", "other_tags": "\"shop\"=>\"erotic\",\"addr:city\"=>\"Leeds\",\"addr:street\"=>\"Briggate\",\"addr:postcode\"=>\"LS1 4AF\",\"addr:housenumber\"=>\"5\"" }, "geometry": { "type": "Point", "coordinates": [ -1.5425725, 53.7947461 ] } },
	{ "type": "Feature", "properties": { "osm_id": "5941346467", "name": "Ann Sumers", "other_tags": "\"shop\"=>\"erotic\",\"addr:city\"=>\"Leeds\",\"addr:street\"=>\"Lands Lane\",\"addr:postcode\"=>\"LS1 6LB\",\"addr:housenumber\"=>\"36\"" }, "geometry": { "type": "Point", "coordinates": [ -1.5431674, 53.798776 ] } },
	{ "type": "Feature", "properties": { "osm_id": "6052531555", "name": "Ann Summers", "other_tags": "\"shop\"=>\"erotic\",\"brand\"=>\"Ann Summers\",\"level\"=>\"0\",\"brand:wikidata\"=>\"Q579524\",\"brand:wikipedia\"=>\"en:Ann Summers\"" }, "geometry": { "type": "Point", "coordinates": [ -1.5744148, 53.7577625 ] } },
	{ "type": "Feature", "properties": { "osm_id": "7750414750", "name": "Ann Summers", "other_tags": "\"shop\"=>\"erotic\",\"brand\"=>\"Ann Summers\",\"min_age\"=>\"18\",\"addr:city\"=>\"Castleford\",\"addr:street\"=>\"Tomahawk Trail\",\"addr:postcode\"=>\"WF10 4FR\",\"addr:housename\"=>\"Junction 32 Outlet Shopping Village\",\"brand:wikidata\"=>\"Q579524\",\"brand:wikipedia\"=>\"en:Ann Summers\",\"addr:housenumber\"=>\"Unit 60\",\"opening_hours:covid19\"=>\"closed\"" }, "geometry": { "type": "Point", "coordinates": [ -1.3393987, 53.7118747 ] } },
	{ "type": "Feature", "properties": { "osm_id": null, "centroid": { "latitude": 53.672522, "longitude": -1.483837 }, "osm_way_id": "434774472", "name": "Private Shops UK", "building": "yes", "shop": "erotic", "other_tags": "\"addr:street\"=>\"Doncaster Road\",\"addr:postcode\"=>\"WF1 5DX\",\"addr:housenumber\"=>\"71\"" }, "geometry": { "type": "MultiPolygon", "coordinates": [ [ [ [ -1.4838576, 53.6724717 ], [ -1.483911, 53.6724941 ], [ -1.4838167, 53.6725731 ], [ -1.4837632, 53.6725506 ], [ -1.4838576, 53.6724717 ] ] ] ] } }
]
}
