{
"type": "FeatureCollection",
"crs": { "type": "name", "properties": { "name": "urn:ogc:def:crs:OGC:1.3:CRS84" } },
"features": [
	{ "type": "Feature", "properties": { "osm_id": "250390241", "name": "Matharu Newsagents", "other_tags": "\"addr:city\"=>\"Leeds\",\"addr:housenumber\"=>\"46\",\"addr:postcode\"=>\"LS6 4ER\",\"addr:street\"=>\"Monkbridge Road\",\"addr:suburb\"=>\"Meanwood\",\"fhrs:id\"=>\"467040\",\"shop\"=>\"newsagent\"" }, "geometry": { "type": "Point", "coordinates": [ -1.5694758, 53.8269885 ] } },
	{ "type": "Feature", "properties": { "osm_id": "252945365", "name": "West Town Newsagent & General Store", "other_tags": "\"shop\"=>\"newsagent\"" }, "geometry": { "type": "Point", "coordinates": [ -1.6406226, 53.6899894 ] } },
	{ "type": "Feature", "properties": { "osm_id": "288973830", "name": "Park Stores", "other_tags": "\"addr:city\"=>\"Leeds\",\"addr:housenumber\"=>\"46\",\"addr:postcode\"=>\"LS9 9BQ\",\"addr:street\"=>\"Richardson Road\",\"shop\"=>\"newsagent\"" }, "geometry": { "type": "Point", "coordinates": [ -1.5009783, 53.7949088 ] } },
	{ "type": "Feature", "properties": { "osm_id": "330071206", "name": "MSA Newsagent", "other_tags": "\"addr:city\"=>\"Leeds\",\"addr:housenumber\"=>\"86-88\",\"addr:postcode\"=>\"LS12 3AA\",\"addr:street\"=>\"Town Street\",\"fhrs:id\"=>\"467128\",\"shop\"=>\"newsagent\"" }, "geometry": { "type": "Point", "coordinates": [ -1.592918, 53.7966388 ] } },
	{ "type": "Feature", "properties": { "osm_id": "333427400", "name": "Saltaire Newsagents", "other_tags": "\"addr:city\"=>\"Shipley\",\"addr:village\"=>\"Saltaire\",\"shop\"=>\"newsagent\"" }, "geometry": { "type": "Point", "coordinates": [ -1.7899365, 53.8377762 ] } },
	{ "type": "Feature", "properties": { "osm_id": "334884400", "other_tags": "\"shop\"=>\"newsagent\"" }, "geometry": { "type": "Point", "coordinates": [ -1.5859757, 53.8087884 ] } },
	{ "type": "Feature", "properties": { "osm_id": "342579665", "name": "Arden News", "other_tags": "\"addr:postcode\"=>\"LS2 7HU\",\"fhrs:id\"=>\"931759\",\"shop\"=>\"newsagent\",\"wheelchair\"=>\"yes\"" }, "geometry": { "type": "Point", "coordinates": [ -1.535998, 53.7975486 ] } },
	{ "type": "Feature", "properties": { "osm_id": "343136579", "name": "Nina's", "other_tags": "\"shop\"=>\"newsagent\"" }, "geometry": { "type": "Point", "coordinates": [ -1.6160147, 53.7959461 ] } },
	{ "type": "Feature", "properties": { "osm_id": "345024389", "name": "WH Smith;S9 Leeds Station Interchange", "highway": "bus_stop", "other_tags": "\"local_ref\"=>\"45025480\",\"naptan:AtcoCode\"=>\"450025480\",\"naptan:Bearing\"=>\"N\",\"naptan:CommonName\"=>\"S9 Leeds Station Interchange\",\"naptan:Crossing\"=>\"Leeds Railway Station Forecourt\",\"naptan:Indicator\"=>\"Stop 45025480\",\"naptan:Landmark\"=>\"Leeds Railway Station Interchange\",\"naptan:PlusbusZoneRef\"=>\"LEEDS\",\"naptan:ShortCommonName\"=>\"Station Intc S9\",\"naptan:Street\"=>\"New Station Street\",\"shop\"=>\"newsagent\"" }, "geometry": { "type": "Point", "coordinates": [ -1.5471264, 53.7953716 ] } },
	{ "type": "Feature", "properties": { "osm_id": "349352561", "other_tags": "\"shop\"=>\"newsagent\"" }, "geometry": { "type": "Point", "coordinates": [ -1.6362709, 53.8064883 ] } },
	{ "type": "Feature", "properties": { "osm_id": "356075700", "name": "Sai News", "other_tags": "\"addr:city\"=>\"Leeds\",\"addr:housenumber\"=>\"12\",\"addr:postcode\"=>\"LS12 5JG\",\"addr:street\"=>\"Whincover Drive\",\"fhrs:id\"=>\"320304\",\"shop\"=>\"newsagent\"" }, "geometry": { "type": "Point", "coordinates": [ -1.6098119, 53.7853655 ] } },
	{ "type": "Feature", "properties": { "osm_id": "357744114", "name": "Sonigra News", "other_tags": "\"addr:city\"=>\"Leeds\",\"addr:housenumber\"=>\"112\",\"addr:postcode\"=>\"LS1 4LT\",\"addr:street\"=>\"Wellington Street\",\"addr:unit\"=>\"1\",\"fhrs:id\"=>\"467148\",\"fixme:addr2\"=>\"Leeds\",\"shop\"=>\"newsagent\"" }, "geometry": { "type": "Point", "coordinates": [ -1.5559225, 53.7969836 ] } },
	{ "type": "Feature", "properties": { "osm_id": "384951505", "name": "Lower Hopton News", "other_tags": "\"shop\"=>\"newsagent\"" }, "geometry": { "type": "Point", "coordinates": [ -1.6971007, 53.6706546 ] } },
	{ "type": "Feature", "properties": { "osm_id": "427632975", "name": "A&K Stores", "other_tags": "\"shop\"=>\"newsagent\",\"alcohol\"=>\"yes\"" }, "geometry": { "type": "Point", "coordinates": [ -1.6539033, 53.706762 ] } },
	{ "type": "Feature", "properties": { "osm_id": "446295700", "name": "Barnetts News", "other_tags": "\"shop\"=>\"newsagent\"" }, "geometry": { "type": "Point", "coordinates": [ -1.881237, 53.8765254 ] } },
	{ "type": "Feature", "properties": { "osm_id": "446308493", "name": "Ruby News", "other_tags": "\"shop\"=>\"newsagent\",\"wheelchair\"=>\"no\"" }, "geometry": { "type": "Point", "coordinates": [ -1.9197326, 53.8667767 ] } },
	{ "type": "Feature", "properties": { "osm_id": "451961452", "name": "Calverley Newsagents", "other_tags": "\"addr:city\"=>\"Leeds\",\"addr:postcode\"=>\"LS28 5PP\",\"addr:street\"=>\"60 Woodhall Road\",\"addr:suburb\"=>\"Calverley\",\"fhrs:id\"=>\"322683\",\"shop\"=>\"newsagent\"" }, "geometry": { "type": "Point", "coordinates": [ -1.6888394, 53.8267935 ] } },
	{ "type": "Feature", "properties": { "osm_id": "493712317", "name": "Village News", "other_tags": "\"shop\"=>\"newsagent\"" }, "geometry": { "type": "Point", "coordinates": [ -1.7455824, 53.8913383 ] } },
	{ "type": "Feature", "properties": { "osm_id": "601663298", "other_tags": "\"shop\"=>\"newsagent\"" }, "geometry": { "type": "Point", "coordinates": [ -1.648095, 53.6980478 ] } },
	{ "type": "Feature", "properties": { "osm_id": "768678145", "name": "WHSmith", "other_tags": "\"addr:postcode\"=>\"WF11 0AF\",\"brand\"=>\"WHSmith\",\"brand:wikidata\"=>\"Q1548712\",\"brand:wikipedia\"=>\"en:WHSmith\",\"shop\"=>\"newsagent\"" }, "geometry": { "type": "Point", "coordinates": [ -1.2665074, 53.697532 ] } },
	{ "type": "Feature", "properties": { "osm_id": "843387804", "name": "WHSmith", "other_tags": "\"brand\"=>\"WHSmith\",\"brand:wikidata\"=>\"Q1548712\",\"brand:wikipedia\"=>\"en:WHSmith\",\"operator\"=>\"WHSmith\",\"shop\"=>\"newsagent\"" }, "geometry": { "type": "Point", "coordinates": [ -1.7439937, 53.7135664 ] } },
	{ "type": "Feature", "properties": { "osm_id": "968058281", "name": "Knowle Newsagent", "other_tags": "\"addr:city\"=>\"Mirfield\",\"addr:country\"=>\"GB\",\"addr:housenumber\"=>\"1\",\"addr:postcode\"=>\"WF14 9RH\",\"addr:street\"=>\"The Knowl\",\"fhrs:id\"=>\"229376\",\"shop\"=>\"newsagent\",\"source:addr\"=>\"FHRS Open Data\"" }, "geometry": { "type": "Point", "coordinates": [ -1.6980586, 53.6799124 ] } },
	{ "type": "Feature", "properties": { "osm_id": "1015090704", "name": "News Stand", "other_tags": "\"shop\"=>\"newsagent\",\"addr:city\"=>\"Wakefield\",\"addr:street\"=>\"Silver Street\",\"addr:postcode\"=>\"WF1 1UY\",\"addr:housenumber\"=>\"20\"" }, "geometry": { "type": "Point", "coordinates": [ -1.5003181, 53.6826137 ] } },
	{ "type": "Feature", "properties": { "osm_id": "1139204017", "name": "Patbro", "other_tags": "\"addr:city\"=>\"Dewsbury\",\"addr:country\"=>\"GB\",\"addr:housenumber\"=>\"28\",\"addr:postcode\"=>\"WF13 1QG\",\"addr:street\"=>\"Corporation Street\",\"fhrs:id\"=>\"226515\",\"shop\"=>\"newsagent\",\"source:addr\"=>\"FHRS Open Data\"" }, "geometry": { "type": "Point", "coordinates": [ -1.62778, 53.6925978 ] } },
	{ "type": "Feature", "properties": { "osm_id": "1161132497", "name": "Bradford Road Newsagents", "other_tags": "\"food\"=>\"yes\",\"shop\"=>\"newsagent\",\"lottery\"=>\"yes\"" }, "geometry": { "type": "Point", "coordinates": [ -1.6651678, 53.730669 ] } },
	{ "type": "Feature", "properties": { "osm_id": "1286613578", "name": "District General Stores Newsagent", "other_tags": "\"shop\"=>\"newsagent\"" }, "geometry": { "type": "Point", "coordinates": [ -1.653782, 53.6996086 ] } },
	{ "type": "Feature", "properties": { "osm_id": "1303879429", "name": "Chapeltown Stores", "other_tags": "\"addr:city\"=>\"Leeds\",\"addr:housenumber\"=>\"163 - 165\",\"addr:postcode\"=>\"LS7 3DU\",\"addr:street\"=>\"Chapeltown Road\",\"addr:suburb\"=>\"Chapeltown\",\"fhrs:id\"=>\"978294\",\"shop\"=>\"newsagent\",\"source:addr\"=>\"FHRS Open Data\"" }, "geometry": { "type": "Point", "coordinates": [ -1.5329949, 53.8147278 ] } },
	{ "type": "Feature", "properties": { "osm_id": "1351347949", "name": "The Gills News", "other_tags": "\"addr:housenumber\"=>\"10\",\"addr:postcode\"=>\"LS21 2AH\",\"addr:street\"=>\"The Gills\",\"addr:town\"=>\"Otley\",\"fhrs:id\"=>\"738487\",\"shop\"=>\"newsagent\"" }, "geometry": { "type": "Point", "coordinates": [ -1.6965269, 53.9162402 ] } },
	{ "type": "Feature", "properties": { "osm_id": "1363839356", "other_tags": "\"shop\"=>\"newsagent\",\"lottery\"=>\"yes\"" }, "geometry": { "type": "Point", "coordinates": [ -1.6502851, 53.7052741 ] } },
	{ "type": "Feature", "properties": { "osm_id": "1400456972", "name": "Bargain Booze", "other_tags": "\"addr:city\"=>\"Shipley\",\"addr:housenumber\"=>\"59-61\",\"addr:postcode\"=>\"BD18 3JN\",\"addr:street\"=>\"Saltaire Road\",\"alcohol\"=>\"yes\",\"fhrs:id\"=>\"327805\",\"shop\"=>\"newsagent\",\"source:addr\"=>\"FHRS Open Data\"" }, "geometry": { "type": "Point", "coordinates": [ -1.7878437, 53.8362778 ] } },
	{ "type": "Feature", "properties": { "osm_id": "1407645519", "name": "N S M Newsagents", "other_tags": "\"addr:city\"=>\"Leeds\",\"addr:housenumber\"=>\"76\",\"addr:postcode\"=>\"LS18 4NG\",\"addr:street\"=>\"New Road Side\",\"addr:suburb\"=>\"Horsforth\",\"fhrs:id\"=>\"320525\",\"shop\"=>\"newsagent\"" }, "geometry": { "type": "Point", "coordinates": [ -1.6368667, 53.8315682 ] } },
	{ "type": "Feature", "properties": { "osm_id": "1414458611", "name": "Cryers", "other_tags": "\"addr:city\"=>\"Todmorden\",\"addr:country\"=>\"GB\",\"addr:housenumber\"=>\"15\",\"addr:postcode\"=>\"OL14 5AQ\",\"addr:street\"=>\"Bridge Street\",\"fhrs:id\"=>\"348376\",\"shop\"=>\"newsagent\",\"source:addr\"=>\"FHRS Open Data\"" }, "geometry": { "type": "Point", "coordinates": [ -2.0972007, 53.7142439 ] } },
	{ "type": "Feature", "properties": { "osm_id": "1535970684", "name": "Paddock News", "other_tags": "\"atm\"=>\"yes\",\"shop\"=>\"newsagent\"" }, "geometry": { "type": "Point", "coordinates": [ -1.8019839, 53.6420627 ] } },
	{ "type": "Feature", "properties": { "osm_id": "1584075255", "name": "Keighley Newsagent", "other_tags": "\"shop\"=>\"newsagent\"" }, "geometry": { "type": "Point", "coordinates": [ -1.9097834, 53.8695549 ] } },
	{ "type": "Feature", "properties": { "osm_id": "1600541448", "name": "B & M Newsagents", "other_tags": "\"addr:city\"=>\"Leeds\",\"addr:housenumber\"=>\"101\",\"addr:postcode\"=>\"LS8 4DN\",\"addr:street\"=>\"Harehills Lane\",\"addr:suburb\"=>\"Harehills\",\"fhrs:id\"=>\"319804\",\"lottery\"=>\"yes\",\"shop\"=>\"newsagent\"" }, "geometry": { "type": "Point", "coordinates": [ -1.5207361, 53.8205723 ] } },
	{ "type": "Feature", "properties": { "osm_id": "1668854942", "name": "Mirfield News", "other_tags": "\"shop\"=>\"newsagent\"" }, "geometry": { "type": "Point", "coordinates": [ -1.6923791, 53.6741278 ] } },
	{ "type": "Feature", "properties": { "osm_id": "1941491499", "name": "Westgate News", "other_tags": "\"addr:city\"=>\"Cleckheaton\",\"addr:housenumber\"=>\"106-108\",\"addr:postcode\"=>\"BD19 5HS\",\"addr:street\"=>\"Westgate\",\"fhrs:id\"=>\"227089\",\"lottery\"=>\"yes\",\"shop\"=>\"newsagent\",\"source:addr\"=>\"FHRS Open Data\"" }, "geometry": { "type": "Point", "coordinates": [ -1.7224773, 53.7229031 ] } },
	{ "type": "Feature", "properties": { "osm_id": "2054473273", "other_tags": "\"shop\"=>\"newsagent\"" }, "geometry": { "type": "Point", "coordinates": [ -1.7455659, 53.8913553 ] } },
	{ "type": "Feature", "properties": { "osm_id": "2125610506", "name": "City News", "other_tags": "\"addr:city\"=>\"Leeds\",\"addr:housenumber\"=>\"86\",\"addr:postcode\"=>\"LS1 4BB\",\"addr:street\"=>\"Bishopgate Street\",\"shop\"=>\"newsagent\"" }, "geometry": { "type": "Point", "coordinates": [ -1.5458692, 53.7950448 ] } },
	{ "type": "Feature", "properties": { "osm_id": "2125610585", "name": "Holgate News", "other_tags": "\"addr:city\"=>\"Leeds\",\"addr:housenumber\"=>\"29\",\"addr:postcode\"=>\"LS2 7DT\",\"addr:street\"=>\"New York Street\",\"fhrs:id\"=>\"666634\",\"shop\"=>\"newsagent\"" }, "geometry": { "type": "Point", "coordinates": [ -1.5382581, 53.7965964 ] } },
	{ "type": "Feature", "properties": { "osm_id": "2128107739", "name": "Ryans", "other_tags": "\"addr:city\"=>\"Leeds\",\"addr:housenumber\"=>\"5\",\"addr:postcode\"=>\"LS1 6PU\",\"addr:street\"=>\"The Headrow\",\"shop\"=>\"newsagent\"" }, "geometry": { "type": "Point", "coordinates": [ -1.5402175, 53.7987853 ] } },
	{ "type": "Feature", "properties": { "osm_id": "2140257955", "other_tags": "\"shop\"=>\"newsagent\"" }, "geometry": { "type": "Point", "coordinates": [ -1.7093286, 53.5843892 ] } },
	{ "type": "Feature", "properties": { "osm_id": "2144729405", "name": "Brooks News", "other_tags": "\"addr:city\"=>\"Leeds\",\"addr:housenumber\"=>\"Arch 86\",\"addr:postcode\"=>\"LS1 4BQ\",\"addr:street\"=>\"Neville Street\",\"fhrs:id\"=>\"925620\",\"not:addr:postcode\"=>\"LS1 4BB\",\"shop\"=>\"newsagent\"" }, "geometry": { "type": "Point", "coordinates": [ -1.5467994, 53.7941421 ] } },
	{ "type": "Feature", "properties": { "osm_id": "2169740224", "name": "Supernews", "other_tags": "\"addr:postcode\"=>\"LS2 7HH\",\"fhrs:id\"=>\"666686\",\"shop\"=>\"newsagent\"" }, "geometry": { "type": "Point", "coordinates": [ -1.5399676, 53.7968301 ] } },
	{ "type": "Feature", "properties": { "osm_id": "2353407332", "name": "Wicke's Newsagents", "other_tags": "\"addr:housenumber\"=>\"92\",\"addr:postcode\"=>\"LS21 1AE\",\"addr:street\"=>\"Boroughgate\",\"shop\"=>\"newsagent\",\"source:addr\"=>\"FHRS Open Data\"" }, "geometry": { "type": "Point", "coordinates": [ -1.6899662, 53.9059752 ] } },
	{ "type": "Feature", "properties": { "osm_id": "2358605898", "name": "Martin's", "other_tags": "\"addr:city\"=>\"Shipley\",\"addr:housenumber\"=>\"39\",\"addr:postcode\"=>\"BD18 3QJ\",\"addr:street\"=>\"Market Square\",\"fhrs:id\"=>\"327697\",\"shop\"=>\"newsagent\",\"source:addr\"=>\"FHRS Open Data\"" }, "geometry": { "type": "Point", "coordinates": [ -1.7778704, 53.8338437 ] } },
	{ "type": "Feature", "properties": { "osm_id": "2376594196", "name": "Blitz", "other_tags": "\"shop\"=>\"newsagent\"" }, "geometry": { "type": "Point", "coordinates": [ -1.6296968, 53.6738163 ] } },
	{ "type": "Feature", "properties": { "osm_id": "2414265476", "name": "2001 video library", "other_tags": "\"shop\"=>\"newsagent\"" }, "geometry": { "type": "Point", "coordinates": [ -1.7202274, 53.7974889 ] } },
	{ "type": "Feature", "properties": { "osm_id": "3557381813", "name": "Super Shop", "other_tags": "\"shop\"=>\"newsagent\",\"fhrs:id\"=>\"467269\",\"addr:street\"=>\"High Street\",\"source:addr\"=>\"FHRS Open Data\",\"addr:postcode\"=>\"LS23 6AA\",\"addr:housenumber\"=>\"179B\"" }, "geometry": { "type": "Point", "coordinates": [ -1.3458846, 53.9046655 ] } },
	{ "type": "Feature", "properties": { "osm_id": "3617870991", "name": "Hollin Park News", "other_tags": "\"addr:city\"=>\"Leeds\",\"addr:housenumber\"=>\"2\",\"addr:postcode\"=>\"LS8 3AS\",\"addr:street\"=>\"Hollin Park Parade\",\"shop\"=>\"newsagent\"" }, "geometry": { "type": "Point", "coordinates": [ -1.495489, 53.8209158 ] } },
	{ "type": "Feature", "properties": { "osm_id": "3618564327", "name": "Rookwood Stores", "other_tags": "\"addr:city\"=>\"Leeds\",\"addr:housenumber\"=>\"530\",\"addr:postcode\"=>\"LS9 0HH\",\"addr:street\"=>\"York Road\",\"fhrs:id\"=>\"405907\",\"shop\"=>\"newsagent\"" }, "geometry": { "type": "Point", "coordinates": [ -1.4883795, 53.8014002 ] } },
	{ "type": "Feature", "properties": { "osm_id": "3626789280", "name": "Cookridge News", "other_tags": "\"addr:city\"=>\"Leeds\",\"addr:housenumber\"=>\"17-19\",\"addr:postcode\"=>\"LS16 7LQ\",\"addr:street\"=>\"Cookridge Lane\",\"addr:suburb\"=>\"Cookridge\",\"fhrs:id\"=>\"319676\",\"shop\"=>\"newsagent\"" }, "geometry": { "type": "Point", "coordinates": [ -1.615584, 53.8603687 ] } },
	{ "type": "Feature", "properties": { "osm_id": "3634830672", "name": "Martins Newsagents", "amenity": "post_office", "other_tags": "\"addr:city\"=>\"Leeds\",\"addr:housenumber\"=>\"5\",\"addr:postcode\"=>\"LS25 2AR\",\"addr:street\"=>\"Fairburn Drive\",\"addr:suburb\"=>\"Garforth\",\"shop\"=>\"newsagent\"" }, "geometry": { "type": "Point", "coordinates": [ -1.3761628, 53.786245 ] } },
	{ "type": "Feature", "properties": { "osm_id": "3637912566", "name": "Kippax News", "other_tags": "\"addr:city\"=>\"Leeds\",\"addr:housenumber\"=>\"44\",\"addr:postcode\"=>\"LS25 7AB\",\"addr:street\"=>\"High Street\",\"fhrs:id\"=>\"550356\",\"shop\"=>\"newsagent\",\"wheelchair\"=>\"limited\"" }, "geometry": { "type": "Point", "coordinates": [ -1.3683502, 53.7665623 ] } },
	{ "type": "Feature", "properties": { "osm_id": "3718505660", "name": "Parmer Newsagents", "other_tags": "\"addr:city\"=>\"Yeadon\",\"addr:postcode\"=>\"LS19 7EP\",\"addr:street\"=>\"Town Street\",\"fhrs:id\"=>\"467220\",\"shop\"=>\"newsagent\"" }, "geometry": { "type": "Point", "coordinates": [ -1.687063, 53.8657866 ] } },
	{ "type": "Feature", "properties": { "osm_id": "4051026388", "name": "W H Smiths", "other_tags": "\"shop\"=>\"newsagent\",\"fhrs:id\"=>\"314354\",\"addr:postcode\"=>\"WF4 4LQ\"" }, "geometry": { "type": "Point", "coordinates": [ -1.550197, 53.6218332 ] } },
	{ "type": "Feature", "properties": { "osm_id": "4091070994", "name": "WH Smith Local", "other_tags": "\"shop\"=>\"newsagent\"" }, "geometry": { "type": "Point", "coordinates": [ -1.7858692, 53.5708709 ] } },
	{ "type": "Feature", "properties": { "osm_id": "4140973425", "other_tags": "\"shop\"=>\"newsagent\"" }, "geometry": { "type": "Point", "coordinates": [ -1.4109335, 53.9079161 ] } },
	{ "type": "Feature", "properties": { "osm_id": "4189556306", "name": "The Candy Shop", "other_tags": "\"shop\"=>\"newsagent\",\"fhrs:id\"=>\"467284\",\"addr:street\"=>\"Crossley Street\",\"source:addr\"=>\"FHRS Open Data\",\"addr:postcode\"=>\"LS22 6RT\",\"addr:housenumber\"=>\"1\"" }, "geometry": { "type": "Point", "coordinates": [ -1.3886412, 53.93034 ] } },
	{ "type": "Feature", "properties": { "osm_id": "4202206064", "name": "Garforth News", "other_tags": "\"addr:city\"=>\"Leeds\",\"addr:housenumber\"=>\"25\",\"addr:postcode\"=>\"LS25 1DS\",\"addr:street\"=>\"Main Street\",\"fhrs:id\"=>\"732839\",\"shop\"=>\"newsagent\"" }, "geometry": { "type": "Point", "coordinates": [ -1.3885661, 53.792734 ] } },
	{ "type": "Feature", "properties": { "osm_id": "4423779129", "name": "WHSmiths", "other_tags": "\"shop\"=>\"newsagent\",\"fhrs:id\"=>\"314353\",\"addr:city\"=>\"Wakefield\",\"addr:postcode\"=>\"WF4 4LQ\"" }, "geometry": { "type": "Point", "coordinates": [ -1.5458011, 53.6221272 ] } },
	{ "type": "Feature", "properties": { "osm_id": "4475950121", "name": "Super News", "other_tags": "\"addr:city\"=>\"Leeds\",\"addr:housename\"=>\"Crossgates Shopping Centre\",\"addr:postcode\"=>\"LS15 8EU\",\"addr:street\"=>\"Station Road\",\"addr:unit\"=>\"43a\",\"fhrs:id\"=>\"732820\",\"shop\"=>\"newsagent\",\"wheelchair\"=>\"yes\"" }, "geometry": { "type": "Point", "coordinates": [ -1.4501572, 53.806445 ] } },
	{ "type": "Feature", "properties": { "osm_id": "4479524922", "name": "M & S Newsagents", "other_tags": "\"shop\"=>\"newsagent\",\"fhrs:id\"=>\"314021\",\"addr:city\"=>\"Wakefield\",\"addr:street\"=>\"Westgate End\",\"addr:postcode\"=>\"WF2 9RL\",\"addr:housenumber\"=>\"71\"" }, "geometry": { "type": "Point", "coordinates": [ -1.5116787, 53.6794497 ] } },
	{ "type": "Feature", "properties": { "osm_id": "4481889105", "name": "Sandals News", "other_tags": "\"addr:city\"=>\"Wakefield\",\"addr:housenumber\"=>\"217\",\"addr:postcode\"=>\"WF1 5NU\",\"addr:street\"=>\"Barnsley Road\",\"fhrs:id\"=>\"1202461\",\"shop\"=>\"newsagent\"" }, "geometry": { "type": "Point", "coordinates": [ -1.4866708, 53.6672098 ] } },
	{ "type": "Feature", "properties": { "osm_id": "4515546302", "name": "WHSmith", "other_tags": "\"addr:city\"=>\"Wakefield\",\"addr:housename\"=>\"Wakefield Westgate Railway Station\",\"addr:postcode\"=>\"WF1 2QN\",\"addr:street\"=>\"Mulberry Way\",\"addr:unit\"=>\"4\",\"brand\"=>\"WHSmith\",\"brand:wikidata\"=>\"Q1548712\",\"brand:wikipedia\"=>\"en:WHSmith\",\"fhrs:id\"=>\"769647\",\"shop\"=>\"newsagent\"" }, "geometry": { "type": "Point", "coordinates": [ -1.5058262, 53.6830044 ] } },
	{ "type": "Feature", "properties": { "osm_id": "4587100486", "name": "WHSmith", "other_tags": "\"addr:city\"=>\"Wakefield\",\"addr:housename\"=>\"Bus Station\",\"addr:postcode\"=>\"WF1 3AQ\",\"addr:street\"=>\"Union Street\",\"addr:unit\"=>\"2\",\"brand\"=>\"WHSmith\",\"brand:wikidata\"=>\"Q1548712\",\"brand:wikipedia\"=>\"en:WHSmith\",\"fhrs:id\"=>\"988876\",\"level\"=>\"0\",\"shop\"=>\"newsagent\"" }, "geometry": { "type": "Point", "coordinates": [ -1.4983831, 53.6858296 ] } }
]
}
