{
"type": "FeatureCollection",
"crs": { "type": "name", "properties": { "name": "urn:ogc:def:crs:OGC:1.3:CRS84" } },
"features": [
	{ "type": "Feature", "properties": { "osm_id": "2138746306", "name": "The Tanning Shop", "other_tags": "\"addr:city\"=>\"Leeds\",\"addr:housenumber\"=>\"4\",\"addr:postcode\"=>\"LS1 6PT\",\"addr:street\"=>\"The Headrow\",\"leisure\"=>\"tanning_salon\",\"operator\"=>\"The Tanning Shop\",\"phone\"=>\"+44 113 245 2223\",\"website\"=>\"https:\/\/thetanningshop.co.uk\/leeds\/\"" }, "geometry": { "type": "Point", "coordinates": [ -1.5401597, 53.7991044 ] } },
	{ "type": "Feature", "properties": { "osm_id": "3147897867", "name": "Le Soleil", "other_tags": "\"leisure\"=>\"tanning_salon\"" }, "geometry": { "type": "Point", "coordinates": [ -1.6761897, 53.7065217 ] } },
	{ "type": "Feature", "properties": { "osm_id": "6331294897", "name": "Hotter Than Hell", "other_tags": "\"addr:city\"=>\"Bradford\",\"addr:housenumber\"=>\"38a\",\"addr:postcode\"=>\"BD4 0SB\",\"addr:street\"=>\"Westgate Hill Street\",\"addr:suburb\"=>\"Tong\",\"leisure\"=>\"tanning_salon\"" }, "geometry": { "type": "Point", "coordinates": [ -1.6851421, 53.7615885 ] } },
	{ "type": "Feature", "properties": { "osm_id": "9590925141", "name": "Suntan Zone", "other_tags": "\"addr:city\"=>\"Leeds\",\"addr:postcode\"=>\"LS20 9AX\",\"addr:street\"=>\"Oxford Street\",\"addr:suburb\"=>\"Guiseley\",\"leisure\"=>\"tanning_salon\"" }, "geometry": { "type": "Point", "coordinates": [ -1.7075666, 53.8759756 ] } },
	{ "type": "Feature", "properties": { "osm_id": "10007212032", "name": "Cocoa Beach", "other_tags": "\"leisure\"=>\"tanning_salon\",\"level\"=>\"0\"" }, "geometry": { "type": "Point", "coordinates": [ -1.8211456, 53.8053385 ] } },
	{ "type": "Feature", "properties": { "osm_way_id": "430387592", "name": "Oasis", "building": "commercial", "leisure": "tanning_salon", "other_tags": "\"addr:city\"=>\"Wakefield\",\"addr:housenumber\"=>\"275\",\"addr:postcode\"=>\"WF2 9DD\",\"addr:street\"=>\"Dewsbury Road\"" }, "geometry": { "type": "MultiPolygon", "coordinates": [ [ [ [ -1.5300653, 53.6782189 ], [ -1.5300378, 53.6782417 ], [ -1.5299909, 53.6782457 ], [ -1.5299683, 53.6781635 ], [ -1.5299599, 53.6781298 ], [ -1.530037, 53.678123 ], [ -1.5300653, 53.6782189 ] ] ] ] } }
]
}
