{
"type": "FeatureCollection",
"crs": { "type": "name", "properties": { "name": "urn:ogc:def:crs:OGC:1.3:CRS84" } },
"features": [
	{ "type": "Feature", "properties": { "osm_id": "302737809", "name": "Ice", "other_tags": "\"shop\"=>\"car_parts\"" }, "geometry": { "type": "Point", "coordinates": [ -1.6100772, 53.8047621 ] } },
	{ "type": "Feature", "properties": { "osm_id": "334884570", "name": "B&C Car Parts", "other_tags": "\"shop\"=>\"car_parts\"" }, "geometry": { "type": "Point", "coordinates": [ -1.5829099, 53.8065773 ] } },
	{ "type": "Feature", "properties": { "osm_id": "382568580", "name": "SS Motor Tech", "other_tags": "\"shop\"=>\"car_parts\",\"building\"=>\"retail\"" }, "geometry": { "type": "Point", "coordinates": [ -1.7761241, 53.8072349 ] } },
	{ "type": "Feature", "properties": { "osm_id": "2661206209", "name": "Motor World", "other_tags": "\"shop\"=>\"car_parts\"" }, "geometry": { "type": "Point", "coordinates": [ -1.8214444, 53.926164 ] } },
	{ "type": "Feature", "properties": { "osm_id": "3620196192", "name": "Motor Parts", "other_tags": "\"shop\"=>\"car_parts\"" }, "geometry": { "type": "Point", "coordinates": [ -1.5439709, 53.8333562 ] } },
	{ "type": "Feature", "properties": { "osm_id": "3634785886", "other_tags": "\"shop\"=>\"car_parts\"" }, "geometry": { "type": "Point", "coordinates": [ -1.587003, 53.7621123 ] } }
]
}
