{
"type": "FeatureCollection",
"crs": { "type": "name", "properties": { "name": "urn:ogc:def:crs:OGC:1.3:CRS84" } },
"features": [
	{ "type": "Feature", "properties": { "osm_id": "245070053", "name": "Sainsbury's", "other_tags": "\"addr:city\"=>\"Leeds\",\"addr:housename\"=>\"Arndale Centre\",\"addr:postcode\"=>\"LS6 2UE\",\"addr:street\"=>\"Otley Road\",\"addr:unit\"=>\"11-16\",\"fhrs:id\"=>\"322606\",\"shop\"=>\"supermarket\",\"wheelchair\"=>\"limited\"" }, "geometry": { "type": "Point", "coordinates": [ -1.5780826, 53.8219643 ] } },
	{ "type": "Feature", "properties": { "osm_id": "250250966", "name": "Polish Shop", "other_tags": "\"addr:city\"=>\"Leeds\",\"addr:housenumber\"=>\"3\",\"addr:postcode\"=>\"LS12 3AQ\",\"addr:street\"=>\"Branch Road\",\"shop\"=>\"supermarket\"" }, "geometry": { "type": "Point", "coordinates": [ -1.5873538, 53.7978624 ] } },
	{ "type": "Feature", "properties": { "osm_id": "269058862", "name": "Tesco", "other_tags": "\"addr:city\"=>\"Bradford\",\"addr:housename\"=>\"The Peel Centre\",\"addr:postcode\"=>\"BD1 4RB\",\"addr:street\"=>\"Valley Road\",\"brand\"=>\"Tesco\",\"brand:wikidata\"=>\"Q487494\",\"brand:wikipedia\"=>\"en:Tesco\",\"fhrs:id\"=>\"997906\",\"operator\"=>\"Tesco\",\"shop\"=>\"supermarket\",\"source:addr\"=>\"FHRS Open Data\"" }, "geometry": { "type": "Point", "coordinates": [ -1.7543644, 53.8036332 ] } },
	{ "type": "Feature", "properties": { "osm_id": "269059708", "name": "Pakeezah", "other_tags": "\"addr:city\"=>\"Bradford\",\"addr:housenumber\"=>\"91\",\"addr:postcode\"=>\"BD3 9UD\",\"addr:street\"=>\"Edderthorpe Street\",\"fhrs:id\"=>\"328521\",\"phone\"=>\"+44 1274 739500\",\"shop\"=>\"supermarket\",\"website\"=>\"http:\/\/www.pakeezah.com\/\"" }, "geometry": { "type": "Point", "coordinates": [ -1.7381644, 53.7929241 ] } },
	{ "type": "Feature", "properties": { "osm_id": "286836489", "name": "McColls", "other_tags": "\"addr:housenumber\"=>\"129\",\"addr:postcode\"=>\"WF5 9PA\",\"addr:street\"=>\"Dewsbury Road\",\"fhrs:id\"=>\"1018761\",\"shop\"=>\"supermarket\"" }, "geometry": { "type": "Point", "coordinates": [ -1.5850813, 53.6892035 ] } },
	{ "type": "Feature", "properties": { "osm_id": "289817194", "name": "Tesco", "other_tags": "\"addr:housename\"=>\"Bramley Shopping Centre\",\"addr:postcode\"=>\"LS13 2ET\",\"addr:street\"=>\"Town Street\",\"addr:town\"=>\"Bramley\",\"addr:unit\"=>\"22\",\"fhrs:id\"=>\"322126\",\"shop\"=>\"supermarket\"" }, "geometry": { "type": "Point", "coordinates": [ -1.6261058, 53.8114117 ] } },
	{ "type": "Feature", "properties": { "osm_id": "298186533", "name": "Aldi", "other_tags": "\"addr:city\"=>\"Leeds\",\"addr:housename\"=>\"Northside Retail Park\",\"addr:postcode\"=>\"LS7 2TT\",\"addr:street\"=>\"Stonegate Road\",\"addr:unit\"=>\"1\",\"brand\"=>\"Aldi\",\"brand:wikidata\"=>\"Q125054\",\"brand:wikipedia\"=>\"en:Aldi\",\"fhrs:id\"=>\"467101\",\"shop\"=>\"supermarket\"" }, "geometry": { "type": "Point", "coordinates": [ -1.5646098, 53.8283746 ] } },
	{ "type": "Feature", "properties": { "osm_id": "299171007", "name": "Morrisons", "other_tags": "\"addr:city\"=>\"Leeds\",\"addr:housenumber\"=>\"43\",\"addr:postcode\"=>\"LS2 8PL\",\"addr:street\"=>\"Merrion Centre\",\"branch\"=>\"Leeds - Merrion Centre\",\"brand\"=>\"Morrisons\",\"brand:wikidata\"=>\"Q922344\",\"brand:wikipedia\"=>\"en:Morrisons\",\"fhrs:id\"=>\"320381\",\"not:addr:postcode\"=>\"LS2 8NG\",\"opening_hours\"=>\"Mo-Sa 07:00-21:00; Su 11:00-17:00\",\"shop\"=>\"supermarket\"" }, "geometry": { "type": "Point", "coordinates": [ -1.5449586, 53.8021905 ] } },
	{ "type": "Feature", "properties": { "osm_id": "299171017", "name": "Continental Supermarket", "other_tags": "\"addr:city\"=>\"Leeds\",\"addr:housenumber\"=>\"35-45\",\"addr:postcode\"=>\"LS6 1HR\",\"addr:street\"=>\"Brudenell Grove\",\"addr:suburb\"=>\"Hyde Park\",\"fhrs:id\"=>\"953891\",\"shop\"=>\"supermarket\"" }, "geometry": { "type": "Point", "coordinates": [ -1.567907, 53.8114554 ] } },
	{ "type": "Feature", "properties": { "osm_id": "300375945", "name": "Lidl", "other_tags": "\"addr:city\"=>\"Bradford\",\"addr:housenumber\"=>\"230\",\"addr:postcode\"=>\"BD3 9BN\",\"addr:street\"=>\"Barkerend Road\",\"fhrs:id\"=>\"325759\",\"shop\"=>\"supermarket\",\"source:addr\"=>\"FHRS Open Data\"" }, "geometry": { "type": "Point", "coordinates": [ -1.7368673, 53.796603 ] } },
	{ "type": "Feature", "properties": { "osm_id": "301022545", "name": "Asda", "other_tags": "\"addr:city\"=>\"Leeds\",\"addr:country\"=>\"GB\",\"addr:housenumber\"=>\"385\",\"addr:postcode\"=>\"LS4 2EZ\",\"addr:street\"=>\"Kirkstall Road\",\"addr:suburb\"=>\"Burley\",\"brand\"=>\"Asda\",\"brand:wikidata\"=>\"Q297410\",\"brand:wikipedia\"=>\"en:Asda\",\"contact:website\"=>\"https:\/\/storelocator.asda.com\/yorkshire-&-humber\/leeds\/385-kirkstall-road-kirkstall\",\"fhrs:id\"=>\"537083\",\"operator\"=>\"Asda Stores Ltd\",\"shop\"=>\"supermarket\"" }, "geometry": { "type": "Point", "coordinates": [ -1.5872169, 53.8071582 ] } },
	{ "type": "Feature", "properties": { "osm_id": "302447664", "name": "Makkah Market", "other_tags": "\"shop\"=>\"supermarket\"" }, "geometry": { "type": "Point", "coordinates": [ -1.7562331, 53.7765797 ] } },
	{ "type": "Feature", "properties": { "osm_id": "319425599", "name": "Abu Bakar", "other_tags": "\"addr:city\"=>\"Leeds\",\"addr:housenumber\"=>\"37\",\"addr:postcode\"=>\"LS6 1NY\",\"addr:street\"=>\"Queens Road\",\"fhrs:id\"=>\"320079\",\"shop\"=>\"supermarket\"" }, "geometry": { "type": "Point", "coordinates": [ -1.5700779, 53.8100019 ] } },
	{ "type": "Feature", "properties": { "osm_id": "322041482", "name": "Londis", "other_tags": "\"addr:city\"=>\"Holmfirth\",\"addr:country\"=>\"GB\",\"addr:hamlet\"=>\"Holmbridge\",\"addr:housenumber\"=>\"124\",\"addr:postcode\"=>\"HD9 2NL\",\"addr:street\"=>\"Woodhead Road\",\"fhrs:id\"=>\"228837\",\"shop\"=>\"supermarket\"" }, "geometry": { "type": "Point", "coordinates": [ -1.8105386, 53.5608746 ] } },
	{ "type": "Feature", "properties": { "osm_id": "330089330", "name": "Armley Food Centre", "other_tags": "\"addr:city\"=>\"Leeds\",\"addr:housenumber\"=>\"30\",\"addr:postcode\"=>\"LS12 3AB\",\"addr:street\"=>\"Town Street\",\"addr:suburb\"=>\"Armley\",\"fhrs:id\"=>\"722479\",\"shop\"=>\"supermarket\"" }, "geometry": { "type": "Point", "coordinates": [ -1.5896398, 53.7973556 ] } },
	{ "type": "Feature", "properties": { "osm_id": "339325822", "name": "Sainsbury's", "other_tags": "\"addr:city\"=>\"Leeds\",\"addr:housenumber\"=>\"22-26\",\"addr:postcode\"=>\"LS1 8EQ\",\"addr:street\"=>\"The Headrow\",\"branch\"=>\"Leeds Headrow Superstore\",\"brand\"=>\"Sainsbury's\",\"brand:wikidata\"=>\"Q152096\",\"brand:wikipedia\"=>\"en:Sainsbury's\",\"fhrs:id\"=>\"322330\",\"opening_hours\"=>\"Mo-Sa 07:00-23:00; Su 11:00-17:00\",\"shop\"=>\"supermarket\"" }, "geometry": { "type": "Point", "coordinates": [ -1.5435955, 53.7996179 ] } },
	{ "type": "Feature", "properties": { "osm_id": "362254373", "name": "The Co-operative Food", "other_tags": "\"addr:city\"=>\"Shipley\",\"addr:country\"=>\"GB\",\"addr:housenumber\"=>\"48-54\",\"addr:postcode\"=>\"BD18 4SD\",\"addr:street\"=>\"Bingley Road\",\"addr:suburb\"=>\"Saltaire\",\"addr:village\"=>\"Saltaire\",\"fhrs:id\"=>\"327360\",\"operator\"=>\"The Co-operative Group\",\"shop\"=>\"supermarket\"" }, "geometry": { "type": "Point", "coordinates": [ -1.7930263, 53.8350207 ] } },
	{ "type": "Feature", "properties": { "osm_id": "362625431", "name": "Freshco", "other_tags": "\"addr:city\"=>\"Bradford\",\"addr:housenumber\"=>\"43\",\"addr:postcode\"=>\"BD9 4QB\",\"addr:street\"=>\"Oak Lane\",\"fhrs:id\"=>\"325725\",\"shop\"=>\"supermarket\",\"source:addr\"=>\"FHRS Open Data\"" }, "geometry": { "type": "Point", "coordinates": [ -1.7710965, 53.8088448 ] } },
	{ "type": "Feature", "properties": { "osm_id": "389950723", "name": "Westwood Mini Market", "other_tags": "\"addr:city\"=>\"Leeds\",\"addr:housenumber\"=>\"6\",\"addr:postcode\"=>\"LS10 4NH\",\"addr:street\"=>\"Bodmin Crescent\",\"addr:suburb\"=>\"Middleton\",\"fhrs:id\"=>\"801124\",\"shop\"=>\"supermarket\"" }, "geometry": { "type": "Point", "coordinates": [ -1.5574751, 53.7475383 ] } },
	{ "type": "Feature", "properties": { "osm_id": "389950754", "name": "Sissons Stores", "other_tags": "\"addr:city\"=>\"Leeds\",\"addr:housenumber\"=>\"24-26\",\"addr:postcode\"=>\"LS10 4LA\",\"addr:street\"=>\"Sissons Avenue\",\"fhrs:id\"=>\"801125\",\"shop\"=>\"supermarket\"" }, "geometry": { "type": "Point", "coordinates": [ -1.5506234, 53.7445699 ] } },
	{ "type": "Feature", "properties": { "osm_id": "389950826", "name": "Sainsbury's", "other_tags": "\"addr:city\"=>\"Leeds\",\"addr:housenumber\"=>\"7\",\"addr:postcode\"=>\"LS10 4HP\",\"addr:street\"=>\"Middleton Park Avenue\",\"brand\"=>\"Sainsbury's\",\"brand:wikidata\"=>\"Q152096\",\"brand:wikipedia\"=>\"en:Sainsbury's\",\"fhrs:id\"=>\"321883\",\"shop\"=>\"supermarket\"" }, "geometry": { "type": "Point", "coordinates": [ -1.5474944, 53.747381 ] } },
	{ "type": "Feature", "properties": { "osm_id": "427159839", "name": "Nisa", "other_tags": "\"shop\"=>\"supermarket\"" }, "geometry": { "type": "Point", "coordinates": [ -1.7705676, 53.8248481 ] } },
	{ "type": "Feature", "properties": { "osm_id": "433337432", "name": "Heron Foods", "other_tags": "\"addr:city\"=>\"Dewsbury\",\"addr:country\"=>\"GB\",\"addr:postcode\"=>\"WF13 3HN\",\"addr:street\"=>\"Ravensthorpe Shopping Park\",\"addr:suburb\"=>\"Ravensthorpe\",\"addr:unit\"=>\"Unit 2\",\"fhrs:id\"=>\"226864\",\"shop\"=>\"supermarket\",\"source:addr\"=>\"FHRS Open Data\"" }, "geometry": { "type": "Point", "coordinates": [ -1.6640568, 53.6802832 ] } },
	{ "type": "Feature", "properties": { "osm_id": "445078682", "name": "The Co-operative Food", "other_tags": "\"shop\"=>\"supermarket\",\"operator\"=>\"The Co-operative Group\"" }, "geometry": { "type": "Point", "coordinates": [ -1.8541111, 53.7907327 ] } },
	{ "type": "Feature", "properties": { "osm_id": "446295554", "name": "Iceland", "other_tags": "\"addr:city\"=>\"Bradford\",\"addr:housename\"=>\"Unit 2 The Woodhall Centre\",\"addr:postcode\"=>\"BD3 7BW\",\"addr:street\"=>\"Woodhall Road\",\"brand\"=>\"Iceland\",\"brand:wikidata\"=>\"Q721810\",\"brand:wikipedia\"=>\"en:Iceland (supermarket)\",\"fhrs:id\"=>\"326530\",\"shop\"=>\"supermarket\",\"source:addr\"=>\"FHRS Open Data\"" }, "geometry": { "type": "Point", "coordinates": [ -1.7082865, 53.8022916 ] } },
	{ "type": "Feature", "properties": { "osm_id": "452643850", "name": "Sainsbury's", "other_tags": "\"addr:city\"=>\"Bradford\",\"addr:housenumber\"=>\"760\",\"addr:postcode\"=>\"BD10 0QF\",\"addr:street\"=>\"Harrogate Road\",\"description:covid19\"=>\"NHS ID Holders have access Mon to Sat 07:30 to 08:00\",\"fhrs:id\"=>\"325348\",\"opening_hours:covid19\"=>\"Mo-Sa 08:00-20:00; Su 10:00-16:00\",\"organic\"=>\"yes\",\"shop\"=>\"supermarket\",\"source:addr\"=>\"FHRS Open Data\",\"wheelchair\"=>\"yes\"" }, "geometry": { "type": "Point", "coordinates": [ -1.711881, 53.829325 ] } },
	{ "type": "Feature", "properties": { "osm_id": "496738931", "name": "ASDA Superstore Burnham Avenue", "other_tags": "\"shop\"=>\"supermarket\",\"local_ref\"=>\"45026547\",\"naptan:Street\"=>\"ASDA Superstore Link Road (Rooley Lane)\",\"naptan:Bearing\"=>\"S\",\"naptan:AtcoCode\"=>\"450026547\",\"naptan:Crossing\"=>\"Burnham Avenue\",\"naptan:Landmark\"=>\"ASDA Superstore\",\"naptan:verified\"=>\"no\",\"naptan:Indicator\"=>\"Stop 45026547\",\"naptan:CommonName\"=>\"ASDA Superstore Burnham Avenue\",\"naptan:BusStopType\"=>\"CUS\",\"naptan:PlusbusZoneRef\"=>\"LEEDS\",\"naptan:ShortCommonName\"=>\"Asda Bierley\"" }, "geometry": { "type": "Point", "coordinates": [ -1.7328026, 53.7720791 ] } },
	{ "type": "Feature", "properties": { "osm_id": "529090406", "name": "Pound Stretcher", "other_tags": "\"addr:city\"=>\"Bradford\",\"addr:housenumber\"=>\"Unit E\",\"addr:postcode\"=>\"BD4 9RQ\",\"addr:street\"=>\"Weaverthorpe Road\",\"fhrs:id\"=>\"326427\",\"shop\"=>\"supermarket\",\"source:addr\"=>\"FHRS Open Data\"" }, "geometry": { "type": "Point", "coordinates": [ -1.707816, 53.7663759 ] } },
	{ "type": "Feature", "properties": { "osm_id": "529090409", "name": "Iceland", "other_tags": "\"addr:city\"=>\"Bradford\",\"addr:housenumber\"=>\"Unit B\",\"addr:postcode\"=>\"BD4 9RQ\",\"addr:street\"=>\"Weaverthorpe Road\",\"fhrs:id\"=>\"326429\",\"shop\"=>\"supermarket\",\"source:addr\"=>\"FHRS Open Data\"" }, "geometry": { "type": "Point", "coordinates": [ -1.7084063, 53.7659322 ] } },
	{ "type": "Feature", "properties": { "osm_id": "554739459", "name": "Taylors Foodstore", "other_tags": "\"shop\"=>\"supermarket\"" }, "geometry": { "type": "Point", "coordinates": [ -1.7979757, 53.6003515 ] } },
	{ "type": "Feature", "properties": { "osm_id": "594925405", "name": "Sainsbury's", "other_tags": "\"addr:housenumber\"=>\"10-12\",\"addr:postcode\"=>\"WF11 8AT\",\"addr:street\"=>\"Racca Green\",\"fhrs:id\"=>\"283630\",\"operator\"=>\"Sainsbury's Metro\",\"shop\"=>\"supermarket\"" }, "geometry": { "type": "Point", "coordinates": [ -1.2381927, 53.7074908 ] } },
	{ "type": "Feature", "properties": { "osm_id": "656736559", "name": "Bierley Mini Market", "other_tags": "\"addr:city\"=>\"Bradford\",\"addr:housenumber\"=>\"28\",\"addr:postcode\"=>\"BD4 6HN\",\"addr:street\"=>\"Dawson Lane\",\"addr:village\"=>\"Bierley\",\"fhrs:id\"=>\"328115\",\"shop\"=>\"supermarket\",\"source:addr\"=>\"FHRS Open Data\"" }, "geometry": { "type": "Point", "coordinates": [ -1.7220084, 53.7695046 ] } },
	{ "type": "Feature", "properties": { "osm_id": "662441228", "name": "Southfield Minimarket", "other_tags": "\"addr:city\"=>\"Bradford\",\"addr:housenumber\"=>\"110\",\"addr:postcode\"=>\"BD4 6HD\",\"addr:street\"=>\"Tong Street\",\"fhrs:id\"=>\"326402\",\"shop\"=>\"supermarket\",\"source:addr\"=>\"FHRS Open Data\"" }, "geometry": { "type": "Point", "coordinates": [ -1.7216448, 53.7712989 ] } },
	{ "type": "Feature", "properties": { "osm_id": "676622252", "name": "The Co-operative Food", "other_tags": "\"shop\"=>\"supermarket\",\"operator\"=>\"The Co-operative Group\"" }, "geometry": { "type": "Point", "coordinates": [ -1.7095807, 53.7702614 ] } },
	{ "type": "Feature", "properties": { "osm_id": "685938446", "name": "Kash's", "other_tags": "\"shop\"=>\"supermarket\"" }, "geometry": { "type": "Point", "coordinates": [ -1.7114726, 53.7784469 ] } },
	{ "type": "Feature", "properties": { "osm_id": "747719381", "name": "The Co-operative Food", "other_tags": "\"shop\"=>\"supermarket\"" }, "geometry": { "type": "Point", "coordinates": [ -1.7409549, 53.8893521 ] } },
	{ "type": "Feature", "properties": { "osm_id": "761999435", "name": "Tesco Express", "other_tags": "\"addr:city\"=>\"Leeds\",\"addr:housenumber\"=>\"15\",\"addr:postcode\"=>\"LS18 5PA\",\"addr:street\"=>\"Station Road\",\"addr:suburb\"=>\"Horsforth\",\"fhrs:id\"=>\"322085\",\"shop\"=>\"supermarket\"" }, "geometry": { "type": "Point", "coordinates": [ -1.6330904, 53.8467098 ] } },
	{ "type": "Feature", "properties": { "osm_id": "854470024", "name": "Sainsbury Local", "other_tags": "\"shop\"=>\"supermarket\"" }, "geometry": { "type": "Point", "coordinates": [ -1.7629143, 53.7906458 ] } },
	{ "type": "Feature", "properties": { "osm_id": "888708138", "name": "Lidl", "other_tags": "\"addr:city\"=>\"Leeds\",\"addr:postcode\"=>\"LS7 3NB\",\"addr:street\"=>\"Harrogate Road\",\"brand\"=>\"Lidl\",\"brand:wikidata\"=>\"Q151954\",\"brand:wikipedia\"=>\"en:Lidl\",\"fhrs:id\"=>\"322626\",\"fixme:addr2\"=>\"Moortown\",\"opening_hours\"=>\"Mo-Sa 08:00-21:00; Su 10:00-16:00\",\"shop\"=>\"supermarket\",\"source:addr\"=>\"FHRS Open Data\"" }, "geometry": { "type": "Point", "coordinates": [ -1.5355109, 53.8255898 ] } },
	{ "type": "Feature", "properties": { "osm_id": "916191471", "name": "Asda", "other_tags": "\"addr:city\"=>\"Huddersfield\",\"addr:country\"=>\"GB\",\"addr:housenumber\"=>\"5\",\"addr:postcode\"=>\"HD5 9AD\",\"addr:street\"=>\"Carr Pit Road\",\"addr:suburb\"=>\"Moldgreen\",\"brand\"=>\"Asda\",\"brand:wikidata\"=>\"Q297410\",\"brand:wikipedia\"=>\"en:Asda\",\"contact:website\"=>\"https:\/\/storelocator.asda.com\/yorkshire-&-humber\/huddersfield\/carr-pit-road-aspley\",\"fhrs:id\"=>\"228876\",\"operator\"=>\"Asda Stores Ltd\",\"shop\"=>\"supermarket\",\"source:addr\"=>\"FHRS Open Data\"" }, "geometry": { "type": "Point", "coordinates": [ -1.7721217, 53.6443176 ] } },
	{ "type": "Feature", "properties": { "osm_id": "925803562", "other_tags": "\"shop\"=>\"supermarket\"" }, "geometry": { "type": "Point", "coordinates": [ -1.7198848, 53.8061787 ] } },
	{ "type": "Feature", "properties": { "osm_id": "1041670527", "name": "Marks & Spencer", "other_tags": "\"shop\"=>\"supermarket\"" }, "geometry": { "type": "Point", "coordinates": [ -1.7820234, 53.6456887 ] } },
	{ "type": "Feature", "properties": { "osm_id": "1303879426", "name": "CC Continental Supermarket", "other_tags": "\"shop\"=>\"supermarket\",\"fhrs:id\"=>\"319640\",\"addr:city\"=>\"Leeds\",\"addr:street\"=>\"Chapeltown Road\",\"source:addr\"=>\"FHRS Open Data\",\"addr:postcode\"=>\"LS7 3DU\",\"addr:housenumber\"=>\"121 - 129\"" }, "geometry": { "type": "Point", "coordinates": [ -1.5338698, 53.8135846 ] } },
	{ "type": "Feature", "properties": { "osm_id": "1469162842", "name": "The Co-operative food", "other_tags": "\"opening_hours\"=>\"Mo-Sa 07:00-22:00; Su 10:00-16:00\",\"shop\"=>\"supermarket\",\"wheelchair\"=>\"yes\"" }, "geometry": { "type": "Point", "coordinates": [ -1.8088551, 53.6510895 ] } },
	{ "type": "Feature", "properties": { "osm_id": "1626142957", "name": "Tesco", "other_tags": "\"addr:city\"=>\"Bradford\",\"addr:housenumber\"=>\"465-469\",\"addr:postcode\"=>\"BD2 4QF\",\"addr:street\"=>\"Otley Road\",\"fhrs:id\"=>\"325720\",\"shop\"=>\"supermarket\",\"source:addr\"=>\"FHRS Open Data\"" }, "geometry": { "type": "Point", "coordinates": [ -1.7311125, 53.8082484 ] } },
	{ "type": "Feature", "properties": { "osm_id": "1635186376", "name": "Lidl", "other_tags": "\"shop\"=>\"supermarket\",\"fhrs:id\"=>\"404482\",\"addr:city\"=>\"Wakefield\",\"addr:street\"=>\"Kingsway\",\"addr:postcode\"=>\"WF5 8DA\"" }, "geometry": { "type": "Point", "coordinates": [ -1.5818744, 53.6804666 ] } },
	{ "type": "Feature", "properties": { "osm_id": "1635187564", "name": "Iceland", "other_tags": "\"shop\"=>\"supermarket\",\"fhrs:id\"=>\"542693\",\"addr:city\"=>\"Wakefield\",\"addr:street\"=>\"Bank Street\",\"addr:postcode\"=>\"WF5 8NL\",\"addr:housenumber\"=>\"28\"" }, "geometry": { "type": "Point", "coordinates": [ -1.580823, 53.6790305 ] } },
	{ "type": "Feature", "properties": { "osm_id": "1655189898", "name": "Poundstretcher", "amenity": "shop", "other_tags": "\"addr:city\"=>\"Keighley\",\"addr:district\"=>\"Keighley Retail Park\",\"addr:housename\"=>\"Unit 1\",\"addr:postcode\"=>\"BD21 3NJ\",\"addr:street\"=>\"Hard Ings Road\",\"old_name\"=>\"Dreams\",\"shop\"=>\"supermarket\"" }, "geometry": { "type": "Point", "coordinates": [ -1.9064402, 53.8749997 ] } },
	{ "type": "Feature", "properties": { "osm_id": "1674063403", "name": "Tesco Metro", "other_tags": "\"addr:city\"=>\"Leeds\",\"addr:postcode\"=>\"LS1 5BQ\",\"addr:street\"=>\"Bond Street\",\"branch\"=>\"Leeds Bond Street Metro\",\"brand\"=>\"Tesco Metro\",\"brand:wikidata\"=>\"Q57551648\",\"fhrs:id\"=>\"322021\",\"opening_hours\"=>\"Mo-Fr 06:00-00:00; Sa 06:00-22:00; Su 11:00-17:00\",\"shop\"=>\"supermarket\"" }, "geometry": { "type": "Point", "coordinates": [ -1.546237, 53.7977282 ] } },
	{ "type": "Feature", "properties": { "osm_id": "1705538671", "name": "Aldi", "other_tags": "\"addr:city\"=>\"Huddersfield\",\"addr:country\"=>\"GB\",\"addr:housename\"=>\"Gallagher Retail Park\",\"addr:postcode\"=>\"HD5 0BS\",\"addr:street\"=>\"Wakefield Road\",\"addr:suburb\"=>\"Waterloo\",\"addr:unit\"=>\"Unit 1\",\"fhrs:id\"=>\"227062\",\"shop\"=>\"supermarket\",\"source:addr\"=>\"FHRS Open Data\"" }, "geometry": { "type": "Point", "coordinates": [ -1.7330304, 53.6461527 ] } },
	{ "type": "Feature", "properties": { "osm_id": "2100706697", "name": "Iceland", "other_tags": "\"addr:city\"=>\"Huddersfield\",\"addr:country\"=>\"GB\",\"addr:housenumber\"=>\"5\",\"addr:postcode\"=>\"HD5 9AD\",\"addr:street\"=>\"Carr Pit Road\",\"addr:suburb\"=>\"Moldgreen\",\"fhrs:id\"=>\"227857\",\"fixme:addr1\"=>\"5 Carr Pit Road\",\"fixme:addr2\"=>\"Moldgreen\",\"fixme:addr3\"=>\"Huddersfield\",\"shop\"=>\"supermarket\",\"source:addr\"=>\"FHRS Open Data\"" }, "geometry": { "type": "Point", "coordinates": [ -1.771655, 53.644246 ] } },
	{ "type": "Feature", "properties": { "osm_id": "2117006479", "name": "Morrisons - Hunslet", "other_tags": "\"shop\"=>\"supermarket\"" }, "geometry": { "type": "Point", "coordinates": [ -1.5292517, 53.7794624 ] } },
	{ "type": "Feature", "properties": { "osm_id": "2125610507", "name": "Co-Op", "other_tags": "\"addr:city\"=>\"Leeds\",\"addr:housename\"=>\"West Point\",\"addr:postcode\"=>\"LS1 4JY\",\"addr:street\"=>\"Wellington Street\",\"addr:unit\"=>\"B\",\"fhrs:id\"=>\"322049\",\"shop\"=>\"supermarket\"" }, "geometry": { "type": "Point", "coordinates": [ -1.553098, 53.7961456 ] } },
	{ "type": "Feature", "properties": { "osm_id": "2125610528", "name": "Out Of This World", "other_tags": "\"addr:city\"=>\"Leeds\",\"addr:housenumber\"=>\"20\",\"addr:postcode\"=>\"LS1 6DG\",\"addr:street\"=>\"New Market Street\",\"fhrs:id\"=>\"321995\",\"organic\"=>\"only\",\"shop\"=>\"supermarket\"" }, "geometry": { "type": "Point", "coordinates": [ -1.5410356, 53.796291 ] } },
	{ "type": "Feature", "properties": { "osm_id": "2127407551", "name": "Aldi", "other_tags": "\"operator\"=>\"Aldi\",\"shop\"=>\"supermarket\"" }, "geometry": { "type": "Point", "coordinates": [ -1.8269615, 53.640339 ] } },
	{ "type": "Feature", "properties": { "osm_id": "2138696610", "name": "Hang Sing Hong", "other_tags": "\"addr:city\"=>\"Leeds\",\"addr:housenumber\"=>\"117-119\",\"addr:postcode\"=>\"LS1 6PJ\",\"addr:street\"=>\"Vicar Lane\",\"fhrs:id\"=>\"323087\",\"shop\"=>\"supermarket\"" }, "geometry": { "type": "Point", "coordinates": [ -1.5399168, 53.7999796 ] } },
	{ "type": "Feature", "properties": { "osm_id": "2140257979", "name": "The Co-operative Food", "amenity": "shop", "other_tags": "\"operator\"=>\"Central England Co-operative\",\"shop\"=>\"supermarket\"" }, "geometry": { "type": "Point", "coordinates": [ -1.7092774, 53.5842756 ] } },
	{ "type": "Feature", "properties": { "osm_id": "2195805648", "other_tags": "\"shop\"=>\"supermarket\"" }, "geometry": { "type": "Point", "coordinates": [ -1.7548297, 53.7948734 ] } },
	{ "type": "Feature", "properties": { "osm_id": "2195805684", "name": "TK Maxx", "other_tags": "\"addr:city\"=>\"Bradford\",\"addr:housename\"=>\"Units 11 To 12 Forster Square Retail Park\",\"addr:housenumber\"=>\"53\",\"addr:postcode\"=>\"BD1 4RN\",\"addr:street\"=>\"Valley Road\",\"fhrs:id\"=>\"324992\",\"shop\"=>\"supermarket\",\"source:addr\"=>\"FHRS Open Data\"" }, "geometry": { "type": "Point", "coordinates": [ -1.7542343, 53.8003801 ] } },
	{ "type": "Feature", "properties": { "osm_id": "2196359301", "name": "Tesco Express", "other_tags": "\"addr:city\"=>\"Bradford\",\"addr:housenumber\"=>\"204-206\",\"addr:postcode\"=>\"BD9 6NJ\",\"addr:street\"=>\"Haworth Road\",\"fhrs:id\"=>\"328228\",\"shop\"=>\"supermarket\",\"source:addr\"=>\"FHRS Open Data\"" }, "geometry": { "type": "Point", "coordinates": [ -1.8157142, 53.8161068 ] } },
	{ "type": "Feature", "properties": { "osm_id": "2353485533", "name": "Fultons Foods", "other_tags": "\"shop\"=>\"supermarket\",\"fhrs:id\"=>\"320662\",\"website\"=>\"www.fultonsfoods.co.uk\",\"addr:city\"=>\"Otley\",\"addr:street\"=>\"Market Place\",\"source:addr\"=>\"FHRS Open Data\",\"addr:postcode\"=>\"LS21 3AQ\",\"addr:housenumber\"=>\"3-9\"" }, "geometry": { "type": "Point", "coordinates": [ -1.6939171, 53.9056213 ] } },
	{ "type": "Feature", "properties": { "osm_id": "2593274961", "name": "Heron Foods", "other_tags": "\"addr:city\"=>\"Leeds\",\"addr:housename\"=>\"Unit 3\",\"addr:postcode\"=>\"LS13 4JF\",\"addr:street\"=>\"Butt Lane\",\"brand\"=>\"Heron Foods\",\"brand:wikidata\"=>\"Q5743472\",\"brand:wikipedia\"=>\"en:Heron Foods\",\"opening_hours\"=>\"Mo-Sa 08:00-20:00; Su 09:00-17:00\",\"shop\"=>\"supermarket\",\"website\"=>\"https:\/\/www.heronfoods.com\/\"" }, "geometry": { "type": "Point", "coordinates": [ -1.6206744, 53.7956584 ] } },
	{ "type": "Feature", "properties": { "osm_id": "2689724086", "name": "The Co-operative Food", "other_tags": "\"addr:housenumber\"=>\"15-17\",\"addr:postcode\"=>\"WF10 3JJ\",\"addr:street\"=>\"The Square\",\"addr:town\"=>\"Castleford\",\"fhrs:id\"=>\"283888\",\"operator\"=>\"The Co-operative Group\",\"shop\"=>\"supermarket\"" }, "geometry": { "type": "Point", "coordinates": [ -1.3148616, 53.7234755 ] } },
	{ "type": "Feature", "properties": { "osm_id": "2971255728", "name": "The Co-operative", "other_tags": "\"addr:city\"=>\"Keighley\",\"addr:postcode\"=>\"BD20 6PE\",\"addr:street\"=>\"Skipton Road\",\"addr:village\"=>\"Steeton With Eastburn\",\"alt_name\"=>\"Morrisons Steeton Local\",\"fhrs:id\"=>\"817997\",\"shop\"=>\"supermarket\",\"wheelchair\"=>\"yes\"" }, "geometry": { "type": "Point", "coordinates": [ -1.9588324, 53.8958337 ] } },
	{ "type": "Feature", "properties": { "osm_id": "3001019967", "name": "The Co-operative Food", "other_tags": "\"addr:city\"=>\"Leeds\",\"addr:housenumber\"=>\"206\",\"addr:postcode\"=>\"LS16 5BG\",\"addr:street\"=>\"Butcher Hill\",\"fhrs:id\"=>\"481478\",\"operator\"=>\"The Co-operative Group\",\"shop\"=>\"supermarket\"" }, "geometry": { "type": "Point", "coordinates": [ -1.6038852, 53.8328395 ] } },
	{ "type": "Feature", "properties": { "osm_id": "3138750331", "name": "The Co-operative Food", "other_tags": "\"addr:city\"=>\"Pontefract\",\"addr:housenumber\"=>\"58\",\"addr:postcode\"=>\"WF9 2UP\",\"addr:street\"=>\"Ash Grove\",\"fhrs:id\"=>\"1003573\",\"opening_hours\"=>\"07:00-22:00\",\"operator\"=>\"The Co-operative Group\",\"phone\"=>\"+44 1977 647586\",\"shop\"=>\"supermarket\"" }, "geometry": { "type": "Point", "coordinates": [ -1.2875351, 53.6000262 ] } },
	{ "type": "Feature", "properties": { "osm_id": "3191896335", "name": "M & S", "other_tags": "\"addr:city\"=>\"Leeds\",\"addr:housename\"=>\"Guiseley Retail Park\",\"addr:postcode\"=>\"LS20 8EG\",\"addr:street\"=>\"Park Road\",\"addr:suburb\"=>\"Guisley\",\"addr:unit\"=>\"5\",\"alt_name\"=>\"Marks and Spencer Simply Food\",\"fhrs:id\"=>\"321097\",\"shop\"=>\"supermarket\"" }, "geometry": { "type": "Point", "coordinates": [ -1.7092675, 53.8712317 ] } },
	{ "type": "Feature", "properties": { "osm_id": "3257031704", "name": "The Co-operative Food", "other_tags": "\"addr:city\"=>\"Leeds\",\"addr:housenumber\"=>\"20\",\"addr:postcode\"=>\"LS25 1AA\",\"addr:street\"=>\"Main Street\",\"brand\"=>\"The Co-operative Food\",\"brand:wikidata\"=>\"Q3277439\",\"brand:wikipedia\"=>\"en:Co-op Food\",\"fhrs:id\"=>\"321691\",\"operator\"=>\"The Co-operative Group\",\"shop\"=>\"supermarket\"" }, "geometry": { "type": "Point", "coordinates": [ -1.3881181, 53.7941558 ] } },
	{ "type": "Feature", "properties": { "osm_id": "3257033805", "name": "The Co-operative Food", "other_tags": "\"addr:city\"=>\"Leeds\",\"addr:housenumber\"=>\"103-107\",\"addr:postcode\"=>\"LS26 8LQ\",\"addr:street\"=>\"Aberford Road\",\"fhrs:id\"=>\"321690\",\"operator\"=>\"The Co-operative Group\",\"shop\"=>\"supermarket\"" }, "geometry": { "type": "Point", "coordinates": [ -1.445831, 53.7534604 ] } },
	{ "type": "Feature", "properties": { "osm_id": "3336960456", "name": "Asda", "other_tags": "\"addr:city\"=>\"Batley\",\"addr:country\"=>\"GB\",\"addr:housename\"=>\"Batley Shopping Centre\",\"addr:postcode\"=>\"WF17 5DR\",\"addr:street\"=>\"Alfreds Way\",\"brand\"=>\"Asda\",\"brand:wikidata\"=>\"Q297410\",\"brand:wikipedia\"=>\"en:Asda\",\"contact:website\"=>\"https:\/\/storelocator.asda.com\/yorkshire-&-humber\/batley\/batley-shopping-centre-alfred-way\",\"fhrs:id\"=>\"227669\",\"operator\"=>\"Asda Stores Ltd\",\"shop\"=>\"supermarket\"" }, "geometry": { "type": "Point", "coordinates": [ -1.6326512, 53.715026 ] } },
	{ "type": "Feature", "properties": { "osm_id": "3404719276", "other_tags": "\"shop\"=>\"supermarket\",\"operator\"=>\"Aldi\"" }, "geometry": { "type": "Point", "coordinates": [ -1.9386315, 53.9093708 ] } },
	{ "type": "Feature", "properties": { "osm_id": "3407197236", "name": "Sainsbury's", "other_tags": "\"addr:city\"=>\"Wakefield\",\"addr:postcode\"=>\"WF1 1QQ\",\"addr:street\"=>\"Lower Trinity Walk\",\"brand\"=>\"Sainsbury's\",\"brand:wikidata\"=>\"Q152096\",\"brand:wikipedia\"=>\"en:Sainsbury's\",\"fhrs:id\"=>\"314403\",\"shop\"=>\"supermarket\"" }, "geometry": { "type": "Point", "coordinates": [ -1.4933857, 53.6850477 ] } },
	{ "type": "Feature", "properties": { "osm_id": "3557953743", "name": "Tesco Express", "other_tags": "\"addr:postcode\"=>\"LS22 5AP\",\"addr:street\"=>\"Leeds Road\",\"addr:suburb\"=>\"Collingham\",\"addr:town\"=>\"Wetherby\",\"fhrs:id\"=>\"729577\",\"operator\"=>\"Tesco\",\"shop\"=>\"supermarket\"" }, "geometry": { "type": "Point", "coordinates": [ -1.4120951, 53.9079503 ] } },
	{ "type": "Feature", "properties": { "osm_id": "3618061605", "name": "Roundhay Supermarket", "other_tags": "\"shop\"=>\"supermarket\",\"fhrs:id\"=>\"547297\",\"addr:city\"=>\"Leeds\",\"addr:street\"=>\"Roundhay Road\",\"source:addr\"=>\"FHRS Open Data\",\"addr:postcode\"=>\"LS8 5RL\",\"addr:housenumber\"=>\"264\"" }, "geometry": { "type": "Point", "coordinates": [ -1.5161448, 53.8173387 ] } },
	{ "type": "Feature", "properties": { "osm_id": "3626789284", "name": "Tesco Express", "other_tags": "\"addr:city\"=>\"Leeds\",\"addr:housenumber\"=>\"97\",\"addr:postcode\"=>\"LS16 7EE\",\"addr:street\"=>\"Green Lane\",\"addr:suburb\"=>\"Cookridge\",\"fhrs:id\"=>\"321228\",\"shop\"=>\"supermarket\"" }, "geometry": { "type": "Point", "coordinates": [ -1.6225091, 53.8579801 ] } },
	{ "type": "Feature", "properties": { "osm_id": "3643165347", "name": "The Co-operative Food", "other_tags": "\"shop\"=>\"supermarket\",\"operator\"=>\"The Co-operative Group\"" }, "geometry": { "type": "Point", "coordinates": [ -1.8154777, 53.6141268 ] } },
	{ "type": "Feature", "properties": { "osm_id": "3716946414", "name": "Fultons Foods", "other_tags": "\"addr:city\"=>\"Yeadon\",\"addr:housenumber\"=>\"69\",\"addr:postcode\"=>\"LS19 7PS\",\"addr:street\"=>\"High Street\",\"phone\"=>\"+44 1132 397075\",\"shop\"=>\"supermarket\",\"website\"=>\"http:\/\/www.fultonsfoods.co.uk\/\"" }, "geometry": { "type": "Point", "coordinates": [ -1.682369, 53.8662525 ] } },
	{ "type": "Feature", "properties": { "osm_id": "3882641642", "name": "The Co-operative Food", "other_tags": "\"shop\"=>\"supermarket\"" }, "geometry": { "type": "Point", "coordinates": [ -1.744048, 53.9128807 ] } },
	{ "type": "Feature", "properties": { "osm_id": "4091070995", "name": "Sainsbury's Local", "other_tags": "\"shop\"=>\"supermarket\"" }, "geometry": { "type": "Point", "coordinates": [ -1.7863199, 53.5709792 ] } },
	{ "type": "Feature", "properties": { "osm_id": "4211554352", "name": "Marks & Spencer", "other_tags": "\"shop\"=>\"supermarket\",\"fhrs:id\"=>\"284755\",\"addr:postcode\"=>\"WF4 4LQ\"" }, "geometry": { "type": "Point", "coordinates": [ -1.5456337, 53.6220871 ] } },
	{ "type": "Feature", "properties": { "osm_id": "4475950127", "name": "Heron Foods", "other_tags": "\"addr:city\"=>\"Leeds\",\"addr:housename\"=>\"Crossgates Shopping Centre\",\"addr:postcode\"=>\"LS15 8EU\",\"addr:street\"=>\"Station Road\",\"addr:unit\"=>\"36-37\",\"brand\"=>\"Heron Foods\",\"brand:wikidata\"=>\"Q5743472\",\"brand:wikipedia\"=>\"en:Heron Foods\",\"fhrs:id\"=>\"578274\",\"shop\"=>\"supermarket\"" }, "geometry": { "type": "Point", "coordinates": [ -1.4501572, 53.8067943 ] } }
]
}
