{
"type": "FeatureCollection",
"crs": { "type": "name", "properties": { "name": "urn:ogc:def:crs:OGC:1.3:CRS84" } },
"features": [
	{ "type": "Feature", "properties": { "osm_id": "5422663141", "name": "Bags 4 U", "other_tags": "\"shop\"=>\"bag\"" }, "geometry": { "type": "Point", "coordinates": [ -1.5441088, 53.8015609 ] } },
	{ "type": "Feature", "properties": { "osm_id": "5941346456", "name": "Handbag Clinic", "other_tags": "\"shop\"=>\"bag\",\"website\"=>\"https:\/\/www.handbagclinic.co.uk\/\",\"addr:city\"=>\"Leeds\",\"addr:street\"=>\"Queens Arcade\",\"addr:postcode\"=>\"LS1 6LF\",\"addr:housenumber\"=>\"12\"" }, "geometry": { "type": "Point", "coordinates": [ -1.5428551, 53.7983262 ] } },
	{ "type": "Feature", "properties": { "osm_id": "6001482133", "other_tags": "\"shop\"=>\"bag\"" }, "geometry": { "type": "Point", "coordinates": [ -1.5389523, 53.7973827 ] } },
	{ "type": "Feature", "properties": { "osm_id": "6001596343", "name": "Aspinal of London", "other_tags": "\"shop\"=>\"bag\",\"level\"=>\"0\",\"addr:city\"=>\"Leeds\",\"addr:unit\"=>\"14-15\",\"addr:street\"=>\"Harewood Street\",\"addr:postcode\"=>\"LS2 7AR\",\"addr:housename\"=>\"Victoria Gate\"" }, "geometry": { "type": "Point", "coordinates": [ -1.5388933, 53.798159 ] } },
	{ "type": "Feature", "properties": { "osm_id": "6052531534", "name": "Secco Accessories", "other_tags": "\"shop\"=>\"bag\",\"level\"=>\"0\"" }, "geometry": { "type": "Point", "coordinates": [ -1.5742663, 53.757281 ] } },
	{ "type": "Feature", "properties": { "osm_id": "6606798468", "other_tags": "\"addr:housename\"=>\"Market Hall\",\"addr:postcode\"=>\"WF8 1AU\",\"addr:street\"=>\"Market Place\",\"addr:town\"=>\"Pontefract\",\"shop\"=>\"bag\"" }, "geometry": { "type": "Point", "coordinates": [ -1.311108, 53.6919262 ] } },
	{ "type": "Feature", "properties": { "osm_id": "7730232062", "name": "Tripp at Debenhams", "other_tags": "\"shop\"=>\"bag\"" }, "geometry": { "type": "Point", "coordinates": [ -1.4937764, 53.6846603 ] } },
	{ "type": "Feature", "properties": { "osm_id": "7746707325", "name": "Antler", "other_tags": "\"shop\"=>\"bag\",\"addr:city\"=>\"Castleford\",\"addr:street\"=>\"Tomahawk Trail\",\"addr:postcode\"=>\"WF10 4FR\",\"addr:housename\"=>\"Junction 32 Outlet Shopping Village\",\"addr:housenumber\"=>\"Unit 23\"" }, "geometry": { "type": "Point", "coordinates": [ -1.3402229, 53.7128431 ] } }
]
}
