{
"type": "FeatureCollection",
"crs": { "type": "name", "properties": { "name": "urn:ogc:def:crs:OGC:1.3:CRS84" } },
"features": [
	{ "type": "Feature", "properties": { "osm_id": "286367092", "name": "The Kar House Leeds", "other_tags": "\"shop\"=>\"car\",\"old_name\"=>\"Local Garages\"" }, "geometry": { "type": "Point", "coordinates": [ -1.621025, 53.8048236 ] } },
	{ "type": "Feature", "properties": { "osm_id": "297118282", "name": "Shadow Vehicle Services", "other_tags": "\"shop\"=>\"car\",\"brand\"=>\"Rolls Royce, Bentley\"" }, "geometry": { "type": "Point", "coordinates": [ -1.6540009, 53.7978507 ] } },
	{ "type": "Feature", "properties": { "osm_id": "300934441", "name": "P & R Cars", "other_tags": "\"shop\"=>\"car\",\"building\"=>\"retail\"" }, "geometry": { "type": "Point", "coordinates": [ -1.5768549, 53.8040041 ] } },
	{ "type": "Feature", "properties": { "osm_id": "301022563", "name": "Gables Motor Company", "other_tags": "\"shop\"=>\"car\"" }, "geometry": { "type": "Point", "coordinates": [ -1.5977556, 53.8115361 ] } },
	{ "type": "Feature", "properties": { "osm_id": "301022570", "name": "Leeds Motor Company", "other_tags": "\"shop\"=>\"car\"" }, "geometry": { "type": "Point", "coordinates": [ -1.6001878, 53.8137532 ] } },
	{ "type": "Feature", "properties": { "osm_id": "304689547", "name": "Ford Ringways", "other_tags": "\"shop\"=>\"car\"" }, "geometry": { "type": "Point", "coordinates": [ -1.610021, 53.7881236 ] } },
	{ "type": "Feature", "properties": { "osm_id": "331654384", "name": "Wortley Road Used Car Sales", "other_tags": "\"shop\"=>\"car\"" }, "geometry": { "type": "Point", "coordinates": [ -1.5981184, 53.7965976 ] } },
	{ "type": "Feature", "properties": { "osm_id": "334884406", "name": "Auto-Mine", "other_tags": "\"shop\"=>\"car\"" }, "geometry": { "type": "Point", "coordinates": [ -1.5846695, 53.8068206 ] } },
	{ "type": "Feature", "properties": { "osm_id": "336233973", "name": "AutoCare", "other_tags": "\"shop\"=>\"car\"" }, "geometry": { "type": "Point", "coordinates": [ -1.7709492, 53.8067481 ] } },
	{ "type": "Feature", "properties": { "osm_id": "349349933", "name": "Car Star", "other_tags": "\"shop\"=>\"car\"" }, "geometry": { "type": "Point", "coordinates": [ -1.6430112, 53.8068671 ] } },
	{ "type": "Feature", "properties": { "osm_id": "382568510", "name": "AutoTech", "other_tags": "\"shop\"=>\"car\"" }, "geometry": { "type": "Point", "coordinates": [ -1.7704533, 53.8066533 ] } },
	{ "type": "Feature", "properties": { "osm_id": "413494627", "name": "Halifax Volkswagen", "other_tags": "\"shop\"=>\"car\"" }, "geometry": { "type": "Point", "coordinates": [ -1.8217143, 53.7470215 ] } },
	{ "type": "Feature", "properties": { "osm_id": "413588090", "name": "King Street Motors", "other_tags": "\"shop\"=>\"car\"" }, "geometry": { "type": "Point", "coordinates": [ -1.6902583, 53.747148 ] } },
	{ "type": "Feature", "properties": { "osm_id": "432653383", "name": "BFC", "other_tags": "\"shop\"=>\"car\"" }, "geometry": { "type": "Point", "coordinates": [ -1.6855661, 53.7099664 ] } },
	{ "type": "Feature", "properties": { "osm_id": "441335021", "name": "Mazda JCT600", "other_tags": "\"shop\"=>\"car\"" }, "geometry": { "type": "Point", "coordinates": [ -1.5944999, 53.7804607 ] } },
	{ "type": "Feature", "properties": { "osm_id": "456448702", "name": "Appleyard", "other_tags": "\"shop\"=>\"car\",\"operator\"=>\"Jaguar\"" }, "geometry": { "type": "Point", "coordinates": [ -1.755063, 53.8084354 ] } },
	{ "type": "Feature", "properties": { "osm_id": "456448705", "name": "Bradford Audi", "other_tags": "\"shop\"=>\"car\",\"operator\"=>\"Audi\"" }, "geometry": { "type": "Point", "coordinates": [ -1.7544611, 53.8076474 ] } },
	{ "type": "Feature", "properties": { "osm_id": "498472131", "name": "Richmond Motors", "other_tags": "\"shop\"=>\"car\",\"service\"=>\"dealer\"" }, "geometry": { "type": "Point", "coordinates": [ -1.5779, 53.7743489 ] } },
	{ "type": "Feature", "properties": { "osm_id": "610507316", "other_tags": "\"mot\"=>\"yes\",\"shop\"=>\"car\",\"service\"=>\"repair;tyres;parts\",\"operator\"=>\"Kiwki-Fit\"" }, "geometry": { "type": "Point", "coordinates": [ -1.6622863, 53.7279041 ] } },
	{ "type": "Feature", "properties": { "osm_id": "615999254", "name": "Beeston Motor Spares", "other_tags": "\"phone\"=>\"+44 113 276 5100\",\"service\"=>\"parts\",\"shop\"=>\"car\"" }, "geometry": { "type": "Point", "coordinates": [ -1.5466115, 53.7734385 ] } },
	{ "type": "Feature", "properties": { "osm_id": "634606859", "name": "R Hoyles", "other_tags": "\"shop\"=>\"car\"" }, "geometry": { "type": "Point", "coordinates": [ -1.9005262, 53.7995209 ] } },
	{ "type": "Feature", "properties": { "osm_id": "672470951", "name": "Halfords", "other_tags": "\"shop\"=>\"car\",\"service\"=>\"parts\"" }, "geometry": { "type": "Point", "coordinates": [ -1.6248048, 53.690552 ] } },
	{ "type": "Feature", "properties": { "osm_id": "676622223", "name": "Tong Motor Spares", "other_tags": "\"shop\"=>\"car\"" }, "geometry": { "type": "Point", "coordinates": [ -1.7087455, 53.7673516 ] } },
	{ "type": "Feature", "properties": { "osm_id": "685939016", "name": "Ned Lane Garage", "other_tags": "\"shop\"=>\"car\"" }, "geometry": { "type": "Point", "coordinates": [ -1.7059468, 53.7829366 ] } },
	{ "type": "Feature", "properties": { "osm_id": "687080976", "name": "Motosave", "other_tags": "\"shop\"=>\"car\"" }, "geometry": { "type": "Point", "coordinates": [ -1.7229135, 53.7726886 ] } },
	{ "type": "Feature", "properties": { "osm_id": "972553034", "name": "Arnold Clark Motorstore", "other_tags": "\"shop\"=>\"car\"" }, "geometry": { "type": "Point", "coordinates": [ -1.7639609, 53.6593675 ] } },
	{ "type": "Feature", "properties": { "osm_id": "979292941", "name": "R N Golden", "other_tags": "\"shop\"=>\"car\",\"brand\"=>\"Hyundai\"" }, "geometry": { "type": "Point", "coordinates": [ -1.7129588, 53.6351208 ] } },
	{ "type": "Feature", "properties": { "osm_id": "1126487433", "other_tags": "\"shop\"=>\"car\",\"brand\"=>\"Prugeot\"" }, "geometry": { "type": "Point", "coordinates": [ -1.5929739, 53.7176349 ] } },
	{ "type": "Feature", "properties": { "osm_id": "1162442495", "name": "Benfield Ford", "other_tags": "\"shop\"=>\"car\",\"brand\"=>\"Ford\"" }, "geometry": { "type": "Point", "coordinates": [ -1.7162485, 53.8752804 ] } },
	{ "type": "Feature", "properties": { "osm_id": "1276400749", "name": "Elams of Mirfield LTD.", "other_tags": "\"shop\"=>\"car\"" }, "geometry": { "type": "Point", "coordinates": [ -1.6769795, 53.6751023 ] } },
	{ "type": "Feature", "properties": { "osm_id": "1301895941", "other_tags": "\"shop\"=>\"car\"" }, "geometry": { "type": "Point", "coordinates": [ -1.7141653, 53.712178 ] } },
	{ "type": "Feature", "properties": { "osm_id": "1305973008", "name": "The Stables", "other_tags": "\"phone\"=>\"+44 1924 480000\",\"shop\"=>\"car\"" }, "geometry": { "type": "Point", "coordinates": [ -1.6994665, 53.6757116 ] } },
	{ "type": "Feature", "properties": { "osm_id": "1351523108", "name": "Benfield Toyota", "other_tags": "\"shop\"=>\"car\",\"brand\"=>\"Toyota\"" }, "geometry": { "type": "Point", "coordinates": [ -1.570048, 53.7870776 ] } },
	{ "type": "Feature", "properties": { "osm_id": "1351523109", "other_tags": "\"shop\"=>\"car\",\"brand\"=>\"Lexus\"" }, "geometry": { "type": "Point", "coordinates": [ -1.5704565, 53.7872711 ] } },
	{ "type": "Feature", "properties": { "osm_id": "1401549676", "other_tags": "\"shop\"=>\"car\",\"brand\"=>\"Land Rover\"" }, "geometry": { "type": "Point", "coordinates": [ -1.7527558, 53.8054701 ] } },
	{ "type": "Feature", "properties": { "osm_id": "1401549713", "other_tags": "\"shop\"=>\"car\",\"brand\"=>\"Volvo\"" }, "geometry": { "type": "Point", "coordinates": [ -1.7573045, 53.8097437 ] } },
	{ "type": "Feature", "properties": { "osm_id": "1414361717", "other_tags": "\"shop\"=>\"car\",\"brand\"=>\"Land Rover\"" }, "geometry": { "type": "Point", "coordinates": [ -1.735835, 53.6810961 ] } },
	{ "type": "Feature", "properties": { "osm_id": "1428838823", "other_tags": "\"shop\"=>\"car\",\"brand\"=>\"Honda\"" }, "geometry": { "type": "Point", "coordinates": [ -1.7486327, 53.6678436 ] } },
	{ "type": "Feature", "properties": { "osm_id": "1428838857", "other_tags": "\"shop\"=>\"car\",\"brand\"=>\"Mercedes; Smart\"" }, "geometry": { "type": "Point", "coordinates": [ -1.7474383, 53.6692817 ] } },
	{ "type": "Feature", "properties": { "osm_id": "1428838866", "other_tags": "\"shop\"=>\"car\",\"brand\"=>\"Audi\"" }, "geometry": { "type": "Point", "coordinates": [ -1.747361, 53.6695908 ] } },
	{ "type": "Feature", "properties": { "osm_id": "1429962445", "other_tags": "\"shop\"=>\"car\",\"brand\"=>\"SEAT\"" }, "geometry": { "type": "Point", "coordinates": [ -1.7797907, 53.6628892 ] } },
	{ "type": "Feature", "properties": { "osm_id": "1435168786", "other_tags": "\"shop\"=>\"car\",\"brand\"=>\"Volvo\"" }, "geometry": { "type": "Point", "coordinates": [ -1.7511613, 53.6653711 ] } },
	{ "type": "Feature", "properties": { "osm_id": "1470059648", "other_tags": "\"shop\"=>\"car\"" }, "geometry": { "type": "Point", "coordinates": [ -1.8098573, 53.6495672 ] } },
	{ "type": "Feature", "properties": { "osm_id": "1609180611", "other_tags": "\"shop\"=>\"car\"" }, "geometry": { "type": "Point", "coordinates": [ -1.6589755, 53.7282286 ] } },
	{ "type": "Feature", "properties": { "osm_id": "1609180616", "name": "Brams", "other_tags": "\"shop\"=>\"car\",\"website\"=>\"www.brams.co.uk\"" }, "geometry": { "type": "Point", "coordinates": [ -1.6594995, 53.7285058 ] } },
	{ "type": "Feature", "properties": { "osm_id": "1635208399", "other_tags": "\"shop\"=>\"car\",\"brand\"=>\"Skoda\",\"operator\"=>\"DM Keith\"" }, "geometry": { "type": "Point", "coordinates": [ -1.5901356, 53.6916396 ] } },
	{ "type": "Feature", "properties": { "osm_id": "1635295697", "name": "Gledhills Used Cars", "other_tags": "\"shop\"=>\"car\"" }, "geometry": { "type": "Point", "coordinates": [ -1.5817615, 53.6811355 ] } },
	{ "type": "Feature", "properties": { "osm_id": "1710509801", "other_tags": "\"shop\"=>\"car\"" }, "geometry": { "type": "Point", "coordinates": [ -1.7816925, 53.5805945 ] } },
	{ "type": "Feature", "properties": { "osm_id": "1717745661", "name": "Daihatsu Hepworth Motor Co", "other_tags": "\"shop\"=>\"car\"" }, "geometry": { "type": "Point", "coordinates": [ -1.7827616, 53.578367 ] } },
	{ "type": "Feature", "properties": { "osm_id": "1919894938", "other_tags": "\"shop\"=>\"car\",\"brand\"=>\"Peugeot\"" }, "geometry": { "type": "Point", "coordinates": [ -1.7571043, 53.662809 ] } },
	{ "type": "Feature", "properties": { "osm_id": "1932763076", "other_tags": "\"shop\"=>\"car\",\"brand\"=>\"BMW Mini\"" }, "geometry": { "type": "Point", "coordinates": [ -1.7754969, 53.6540636 ] } },
	{ "type": "Feature", "properties": { "osm_id": "2012893537", "name": "nextcar", "other_tags": "\"shop\"=>\"car\"" }, "geometry": { "type": "Point", "coordinates": [ -1.6411899, 53.71955 ] } },
	{ "type": "Feature", "properties": { "osm_id": "2040376234", "name": "Queenswood Garage", "other_tags": "\"shop\"=>\"car\",\"addr:street\"=>\"Queenswood Drive\",\"source:name\"=>\"web\",\"addr:postcode\"=>\"LS6 3LG\"" }, "geometry": { "type": "Point", "coordinates": [ -1.5975322, 53.8220543 ] } },
	{ "type": "Feature", "properties": { "osm_id": "2353312328", "name": "Denton Motors of Otley", "other_tags": "\"shop\"=>\"car\",\"website\"=>\"www.dentonmotors.co.uk\",\"telephone\"=>\"01943 465911\"" }, "geometry": { "type": "Point", "coordinates": [ -1.6882415, 53.906424 ] } },
	{ "type": "Feature", "properties": { "osm_id": "2377674545", "other_tags": "\"shop\"=>\"car\"" }, "geometry": { "type": "Point", "coordinates": [ -1.8217771, 53.6301097 ] } },
	{ "type": "Feature", "properties": { "osm_id": "2406677436", "other_tags": "\"shop\"=>\"car\"" }, "geometry": { "type": "Point", "coordinates": [ -1.7946024, 53.6321768 ] } },
	{ "type": "Feature", "properties": { "osm_id": "2415372387", "other_tags": "\"shop\"=>\"car\"" }, "geometry": { "type": "Point", "coordinates": [ -1.7975033, 53.6222888 ] } },
	{ "type": "Feature", "properties": { "osm_id": "2725647574", "other_tags": "\"shop\"=>\"car\"" }, "geometry": { "type": "Point", "coordinates": [ -1.7536203, 53.8449755 ] } },
	{ "type": "Feature", "properties": { "osm_id": "3191671093", "other_tags": "\"shop\"=>\"car\"" }, "geometry": { "type": "Point", "coordinates": [ -1.7242132, 53.876278 ] } },
	{ "type": "Feature", "properties": { "osm_id": "3660972193", "other_tags": "\"shop\"=>\"car\"" }, "geometry": { "type": "Point", "coordinates": [ -1.9277634, 53.8354941 ] } },
	{ "type": "Feature", "properties": { "osm_id": "4449839272", "name": "New Rodley Motors", "other_tags": "\"shop\"=>\"car\"" }, "geometry": { "type": "Point", "coordinates": [ -1.6506422, 53.818332 ] } },
	{ "type": "Feature", "properties": { "osm_id": "4474318126", "name": "East Leeds Car Sales", "other_tags": "\"second_hand\"=>\"only\",\"shop\"=>\"car\"" }, "geometry": { "type": "Point", "coordinates": [ -1.4532431, 53.8078626 ] } },
	{ "type": "Feature", "properties": { "osm_id": "4489200799", "name": "Eden Mobility", "other_tags": "\"shop\"=>\"car\",\"wheelchair\"=>\"yes\"" }, "geometry": { "type": "Point", "coordinates": [ -1.4504143, 53.8063864 ] } }
]
}
