{
"type": "FeatureCollection",
"crs": { "type": "name", "properties": { "name": "urn:ogc:def:crs:OGC:1.3:CRS84" } },
"features": [
	{ "type": "Feature", "properties": { "osm_id": "301280176", "name": "Matalan", "other_tags": "\"addr:city\"=>\"Leeds\",\"addr:housename\"=>\"Matalan\",\"addr:postcode\"=>\"LS5 3RP\",\"addr:street\"=>\"Kirkstall Valley Retail Park\",\"brand\"=>\"Matalan\",\"brand:wikidata\"=>\"Q12061509\",\"brand:wikipedia\"=>\"en:Matalan\",\"opening_hours\"=>\"Mo-Fr 09:00-20:00, Sa 09:00-19:00, Su 10:30-16:30\",\"shop\"=>\"clothes\",\"website\"=>\"https:\/\/www.matalan.co.uk\/stores\/leeds-kirkstall\"" }, "geometry": { "type": "Point", "coordinates": [ -1.6025835, 53.8145205 ] } },
	{ "type": "Feature", "properties": { "osm_id": "302049495", "name": "Burton", "other_tags": "\"brand\"=>\"Burton\",\"brand:wikidata\"=>\"Q5000795\",\"brand:wikipedia\"=>\"en:Burton (retailer)\",\"shop\"=>\"clothes\"" }, "geometry": { "type": "Point", "coordinates": [ -1.6445189, 53.7459077 ] } },
	{ "type": "Feature", "properties": { "osm_id": "302049496", "name": "Dorothy Perkins", "other_tags": "\"brand\"=>\"Dorothy Perkins\",\"brand:wikidata\"=>\"Q5298588\",\"brand:wikipedia\"=>\"en:Dorothy Perkins\",\"shop\"=>\"clothes\"" }, "geometry": { "type": "Point", "coordinates": [ -1.64436, 53.7459241 ] } },
	{ "type": "Feature", "properties": { "osm_id": "302049497", "name": "Evans", "other_tags": "\"brand\"=>\"Evans\",\"brand:wikidata\"=>\"Q5415877\",\"brand:wikipedia\"=>\"en:Evans (retailer)\",\"clothes\"=>\"women\",\"shop\"=>\"clothes\"" }, "geometry": { "type": "Point", "coordinates": [ -1.6444685, 53.7459108 ] } },
	{ "type": "Feature", "properties": { "osm_id": "302049498", "name": "Wallis", "other_tags": "\"brand\"=>\"Wallis\",\"brand:wikidata\"=>\"Q7963123\",\"brand:wikipedia\"=>\"en:Wallis (retailer)\",\"shop\"=>\"clothes\"" }, "geometry": { "type": "Point", "coordinates": [ -1.644414, 53.7459172 ] } },
	{ "type": "Feature", "properties": { "osm_id": "313247813", "name": "Bruno Venezia", "other_tags": "\"shop\"=>\"clothes\"" }, "geometry": { "type": "Point", "coordinates": [ -1.6098804, 53.8031018 ] } },
	{ "type": "Feature", "properties": { "osm_id": "313247814", "name": "Helen Sykes", "other_tags": "\"shop\"=>\"clothes\"" }, "geometry": { "type": "Point", "coordinates": [ -1.6097039, 53.8030343 ] } },
	{ "type": "Feature", "properties": { "osm_id": "314445728", "name": "Primark", "other_tags": "\"brand\"=>\"Primark\",\"brand:wikidata\"=>\"Q137023\",\"brand:wikipedia\"=>\"en:Primark\",\"contact:website\"=>\"https:\/\/stores.primark.com\/united-kingdom\/huddersfield\/82-86-new-street\",\"shop\"=>\"clothes\"" }, "geometry": { "type": "Point", "coordinates": [ -1.7836815, 53.6439795 ] } },
	{ "type": "Feature", "properties": { "osm_id": "330089351", "name": "Baby's Need's", "other_tags": "\"shop\"=>\"clothes\"" }, "geometry": { "type": "Point", "coordinates": [ -1.5895164, 53.7970805 ] } },
	{ "type": "Feature", "properties": { "osm_id": "333467301", "name": "Michael Kors", "other_tags": "\"addr:city\"=>\"Leeds\",\"addr:housenumber\"=>\"112-114\",\"addr:postcode\"=>\"LS1 6BG\",\"addr:street\"=>\"Briggate\",\"brand\"=>\"Michael Kors\",\"brand:wikidata\"=>\"Q19572998\",\"brand:wikipedia\"=>\"en:Capri Holdings\",\"shop\"=>\"clothes\"" }, "geometry": { "type": "Point", "coordinates": [ -1.5419633, 53.7978638 ] } },
	{ "type": "Feature", "properties": { "osm_id": "333467317", "name": "Fat Face", "other_tags": "\"addr:city\"=>\"Leeds\",\"addr:housenumber\"=>\"69-70\",\"addr:postcode\"=>\"LS1 6LH\",\"addr:street\"=>\"Briggate\",\"brand\"=>\"Fat Face\",\"brand:wikidata\"=>\"Q5437186\",\"brand:wikipedia\"=>\"en:Fat Face\",\"shop\"=>\"clothes\",\"website\"=>\"https:\/\/www.fatface.com\/\"" }, "geometry": { "type": "Point", "coordinates": [ -1.5423938, 53.7981117 ] } },
	{ "type": "Feature", "properties": { "osm_id": "333799013", "name": "Louis Vuitton", "other_tags": "\"addr:city\"=>\"Leeds\",\"addr:housenumber\"=>\"98-99\",\"addr:postcode\"=>\"LS1 6NP\",\"addr:street\"=>\"Briggate\",\"brand\"=>\"Louis Vuitton\",\"brand:wikidata\"=>\"Q191485\",\"brand:wikipedia\"=>\"en:Louis Vuitton\",\"shop\"=>\"clothes\"" }, "geometry": { "type": "Point", "coordinates": [ -1.5418889, 53.7985098 ] } },
	{ "type": "Feature", "properties": { "osm_id": "333799043", "name": "Matalan", "other_tags": "\"addr:city\"=>\"Leeds\",\"addr:housename\"=>\"The Core\",\"addr:postcode\"=>\"LS1 6JD\",\"addr:street\"=>\"The Headrow\",\"addr:unit\"=>\"A110-112\",\"brand\"=>\"Matalan\",\"brand:wikidata\"=>\"Q12061509\",\"brand:wikipedia\"=>\"en:Matalan\",\"shop\"=>\"clothes\"" }, "geometry": { "type": "Point", "coordinates": [ -1.5435792, 53.7991168 ] } },
	{ "type": "Feature", "properties": { "osm_id": "352872460", "name": "Jo Brand Junior", "other_tags": "\"shop\"=>\"clothes\"" }, "geometry": { "type": "Point", "coordinates": [ -1.5667801, 53.8290653 ] } },
	{ "type": "Feature", "properties": { "osm_id": "385014727", "name": "Matalan", "other_tags": "\"shop\"=>\"clothes\"" }, "geometry": { "type": "Point", "coordinates": [ -1.6252556, 53.6908846 ] } },
	{ "type": "Feature", "properties": { "osm_id": "535954699", "name": "Muhsin's", "other_tags": "\"shop\"=>\"clothes\"" }, "geometry": { "type": "Point", "coordinates": [ -1.6651246, 53.6785561 ] } },
	{ "type": "Feature", "properties": { "osm_id": "537113084", "name": "Cashmere Factory Outlet", "other_tags": "\"shop\"=>\"clothes\"" }, "geometry": { "type": "Point", "coordinates": [ -1.6925252, 53.6738631 ] } },
	{ "type": "Feature", "properties": { "osm_id": "540201164", "name": "Time & Time Again", "other_tags": "\"addr:city\"=>\"Ilkley\",\"addr:country\"=>\"GB\",\"addr:housenumber\"=>\"1\",\"addr:postcode\"=>\"LS29 9DR\",\"addr:street\"=>\"Church Street\",\"description\"=>\"Formal wear; Highland wear; clothes hire; men\",\"shop\"=>\"clothes\"" }, "geometry": { "type": "Point", "coordinates": [ -1.8236886, 53.9261128 ] } },
	{ "type": "Feature", "properties": { "osm_id": "662441113", "name": "United Footwear", "other_tags": "\"shop\"=>\"clothes\"" }, "geometry": { "type": "Point", "coordinates": [ -1.7279003, 53.7752053 ] } },
	{ "type": "Feature", "properties": { "osm_id": "662441219", "name": "St Vincent's", "other_tags": "\"shop\"=>\"clothes\"" }, "geometry": { "type": "Point", "coordinates": [ -1.7215148, 53.7711915 ] } },
	{ "type": "Feature", "properties": { "osm_id": "662441243", "name": "Step 2", "other_tags": "\"shop\"=>\"clothes\"" }, "geometry": { "type": "Point", "coordinates": [ -1.7215998, 53.7714484 ] } },
	{ "type": "Feature", "properties": { "osm_id": "687080933", "name": "Diva Bridal", "other_tags": "\"shop\"=>\"clothes\"" }, "geometry": { "type": "Point", "coordinates": [ -1.7160135, 53.7696628 ] } },
	{ "type": "Feature", "properties": { "osm_id": "687081050", "other_tags": "\"shop\"=>\"clothes\"" }, "geometry": { "type": "Point", "coordinates": [ -1.7123148, 53.7683463 ] } },
	{ "type": "Feature", "properties": { "osm_id": "888253998", "name": "Zara", "other_tags": "\"addr:city\"=>\"Leeds\",\"addr:housenumber\"=>\"129-132\",\"addr:postcode\"=>\"LS1 6BR\",\"addr:street\"=>\"Briggate\",\"brand\"=>\"Zara\",\"brand:wikidata\"=>\"Q147662\",\"brand:wikipedia\"=>\"en:Zara (retailer)\",\"shop\"=>\"clothes\"" }, "geometry": { "type": "Point", "coordinates": [ -1.5421279, 53.7971096 ] } },
	{ "type": "Feature", "properties": { "osm_id": "966181120", "name": "Ashy's Collection", "other_tags": "\"shop\"=>\"clothes\"" }, "geometry": { "type": "Point", "coordinates": [ -1.666767, 53.6782914 ] } },
	{ "type": "Feature", "properties": { "osm_id": "1039830673", "name": "Topman", "other_tags": "\"shop\"=>\"clothes\",\"indoor\"=>\"yes\"" }, "geometry": { "type": "Point", "coordinates": [ -1.7830802, 53.6446339 ] } },
	{ "type": "Feature", "properties": { "osm_id": "1055328716", "name": "Pronuptia", "other_tags": "\"shop\"=>\"clothes\"" }, "geometry": { "type": "Point", "coordinates": [ -1.7798098, 53.6455446 ] } },
	{ "type": "Feature", "properties": { "osm_id": "1137929818", "name": "Natasha School Wear", "other_tags": "\"shop\"=>\"clothes\"" }, "geometry": { "type": "Point", "coordinates": [ -1.6297191, 53.6933504 ] } },
	{ "type": "Feature", "properties": { "osm_id": "1137965475", "name": "Freedom", "other_tags": "\"shop\"=>\"clothes\",\"addr:housenumber\"=>\"29\"" }, "geometry": { "type": "Point", "coordinates": [ -1.6288401, 53.6929089 ] } },
	{ "type": "Feature", "properties": { "osm_id": "1139204123", "name": "Ansari's Variety House", "other_tags": "\"phone\"=>\"+44 7733 758094\",\"shop\"=>\"clothes\"" }, "geometry": { "type": "Point", "coordinates": [ -1.6278506, 53.6925894 ] } },
	{ "type": "Feature", "properties": { "osm_id": "1139236299", "name": "Kids Connection", "other_tags": "\"shop\"=>\"clothes\"" }, "geometry": { "type": "Point", "coordinates": [ -1.6288299, 53.6913753 ] } },
	{ "type": "Feature", "properties": { "osm_id": "1159765180", "name": "Regatta", "other_tags": "\"addr:housename\"=>\"Junction 32 Outlet Shopping Village\",\"addr:postcode\"=>\"WF10 4FR\",\"addr:town\"=>\"Castleford\",\"addr:unit\"=>\"41\",\"shop\"=>\"clothes\"" }, "geometry": { "type": "Point", "coordinates": [ -1.3373868, 53.7126448 ] } },
	{ "type": "Feature", "properties": { "osm_id": "1159765193", "name": "Skops Menswear", "other_tags": "\"addr:city\"=>\"Castleford\",\"addr:housename\"=>\"Junction 32 Outlet Shopping Village\",\"addr:housenumber\"=>\"Unit 17\",\"addr:postcode\"=>\"WF10 4FR\",\"addr:street\"=>\"Tomahawk Trail\",\"clothes\"=>\"men\",\"opening_hours:covid19\"=>\"open\",\"shop\"=>\"clothes\"" }, "geometry": { "type": "Point", "coordinates": [ -1.3406409, 53.7124994 ] } },
	{ "type": "Feature", "properties": { "osm_id": "1159765207", "name": "Double Two", "other_tags": "\"addr:housename\"=>\"Junction 32 Outlet Shopping Village\",\"addr:postcode\"=>\"WF10 4FR\",\"addr:town\"=>\"Castleford\",\"addr:unit\"=>\"38\",\"shop\"=>\"clothes\"" }, "geometry": { "type": "Point", "coordinates": [ -1.3377408, 53.7128593 ] } },
	{ "type": "Feature", "properties": { "osm_id": "1159765235", "name": "Suits You", "other_tags": "\"shop\"=>\"clothes\"" }, "geometry": { "type": "Point", "coordinates": [ -1.3375083, 53.7127142 ] } },
	{ "type": "Feature", "properties": { "osm_id": "1534826943", "name": "Stitch & Style", "other_tags": "\"shop\"=>\"clothes\",\"addr:street\"=>\"Church Street\",\"addr:housenumber\"=>\"133\"" }, "geometry": { "type": "Point", "coordinates": [ -1.8101901, 53.6430254 ] } },
	{ "type": "Feature", "properties": { "osm_id": "1535922179", "name": "Trendz Clothing", "other_tags": "\"addr:city\"=>\"Huddersfield\",\"addr:country\"=>\"GB\",\"addr:postcode\"=>\"HD1 4UL\",\"addr:street\"=>\"Church Street\",\"addr:suburb\"=>\"Paddock\",\"shop\"=>\"clothes\"" }, "geometry": { "type": "Point", "coordinates": [ -1.8127963, 53.6435163 ] } },
	{ "type": "Feature", "properties": { "osm_id": "1562986913", "other_tags": "\"shop\"=>\"clothes\"" }, "geometry": { "type": "Point", "coordinates": [ -1.5372558, 53.7974437 ] } },
	{ "type": "Feature", "properties": { "osm_id": "1650942199", "name": "Abbey Wedding Warehouse", "other_tags": "\"shop\"=>\"clothes\",\"clothes\"=>\"bridal\"" }, "geometry": { "type": "Point", "coordinates": [ -1.6025998, 53.8157179 ] } },
	{ "type": "Feature", "properties": { "osm_id": "1959492746", "name": "Jannat Boutique", "other_tags": "\"shop\"=>\"clothes\"" }, "geometry": { "type": "Point", "coordinates": [ -1.9014119, 53.8702328 ] } },
	{ "type": "Feature", "properties": { "osm_id": "1959492752", "name": "Maria", "other_tags": "\"shop\"=>\"clothes\"" }, "geometry": { "type": "Point", "coordinates": [ -1.9017339, 53.8703047 ] } },
	{ "type": "Feature", "properties": { "osm_id": "1959492756", "name": "Mughal Boutique", "other_tags": "\"shop\"=>\"clothes\",\"wheelchair\"=>\"limited\"" }, "geometry": { "type": "Point", "coordinates": [ -1.9001762, 53.8699808 ] } },
	{ "type": "Feature", "properties": { "osm_id": "2091013189", "name": "Hugo Boss", "other_tags": "\"addr:city\"=>\"Leeds\",\"addr:housenumber\"=>\"71-75\",\"addr:postcode\"=>\"LS1 6QA\",\"addr:street\"=>\"Vicar Lane\",\"brand\"=>\"Hugo Boss\",\"brand:wikidata\"=>\"Q491627\",\"brand:wikipedia\"=>\"en:Hugo Boss\",\"old_name\"=>\"The Dutchess\",\"shop\"=>\"clothes\",\"short_name\"=>\"Boss\"" }, "geometry": { "type": "Point", "coordinates": [ -1.5401437, 53.7984455 ] } },
	{ "type": "Feature", "properties": { "osm_id": "2091013202", "name": "White Stuff", "other_tags": "\"addr:city\"=>\"Leeds\",\"addr:housenumber\"=>\"60-64\",\"addr:postcode\"=>\"LS1 7JH\",\"addr:street\"=>\"Vicar Lane\",\"brand\"=>\"White Stuff\",\"brand:wikidata\"=>\"Q7995442\",\"brand:wikipedia\"=>\"en:White Stuff Clothing\",\"shop\"=>\"clothes\"" }, "geometry": { "type": "Point", "coordinates": [ -1.5398736, 53.7980251 ] } },
	{ "type": "Feature", "properties": { "osm_id": "2098303575", "name": "Flannels", "other_tags": "\"addr:city\"=>\"Leeds\",\"addr:housenumber\"=>\"68-78\",\"addr:postcode\"=>\"LS1 7JH\",\"addr:street\"=>\"Vicar Lane\",\"shop\"=>\"clothes\"" }, "geometry": { "type": "Point", "coordinates": [ -1.5397253, 53.7983267 ] } },
	{ "type": "Feature", "properties": { "osm_id": "2125610501", "name": "Best", "other_tags": "\"addr:city\"=>\"Leeds\",\"addr:housenumber\"=>\"22-24\",\"addr:street\"=>\"New Market Street\",\"shop\"=>\"clothes\"" }, "geometry": { "type": "Point", "coordinates": [ -1.5410651, 53.7962165 ] } },
	{ "type": "Feature", "properties": { "osm_id": "2125610581", "name": "Ryan Vintage", "other_tags": "\"shop\"=>\"clothes\"" }, "geometry": { "type": "Point", "coordinates": [ -1.5415149, 53.7961008 ] } },
	{ "type": "Feature", "properties": { "osm_id": "2128107736", "name": "Rohan", "other_tags": "\"addr:city\"=>\"Leeds\",\"addr:housenumber\"=>\"10-12\",\"addr:postcode\"=>\"LS1 6LQ\",\"addr:street\"=>\"Thornton's Arcade\",\"shop\"=>\"clothes\"" }, "geometry": { "type": "Point", "coordinates": [ -1.5426306, 53.7987243 ] } },
	{ "type": "Feature", "properties": { "osm_id": "2128107741", "name": "The Hip Store", "other_tags": "\"addr:city\"=>\"Leeds\",\"addr:housenumber\"=>\"49-51\",\"addr:postcode\"=>\"LS1 6DS\",\"addr:street\"=>\"Vicar Lane\",\"phone\"=>\"+44 113 246 0347\",\"shop\"=>\"clothes\",\"website\"=>\"https:\/\/www.thehipstore.co.uk\/\"" }, "geometry": { "type": "Point", "coordinates": [ -1.5405615, 53.7975362 ] } },
	{ "type": "Feature", "properties": { "osm_id": "2135315777", "name": "Topshop", "other_tags": "\"addr:city\"=>\"Leeds\",\"addr:housenumber\"=>\"44\",\"addr:postcode\"=>\"LS1 6HD\",\"addr:street\"=>\"Briggate\",\"brand\"=>\"Topshop\",\"brand:wikidata\"=>\"Q1893576\",\"brand:wikipedia\"=>\"en:Topshop\",\"clothes\"=>\"women\",\"shop\"=>\"clothes\"" }, "geometry": { "type": "Point", "coordinates": [ -1.5427573, 53.7965528 ] } },
	{ "type": "Feature", "properties": { "osm_id": "2140301912", "name": "Bravissimo", "other_tags": "\"addr:city\"=>\"Leeds\",\"addr:housenumber\"=>\"6-8\",\"addr:postcode\"=>\"LS1 6AZ\",\"addr:street\"=>\"Cross Arcade\",\"shop\"=>\"clothes\"" }, "geometry": { "type": "Point", "coordinates": [ -1.5409436, 53.7979392 ] } },
	{ "type": "Feature", "properties": { "osm_id": "2140301913", "name": "Paul Smith", "other_tags": "\"addr:city\"=>\"Leeds\",\"addr:housenumber\"=>\"17-19\",\"addr:postcode\"=>\"LS1 6AX\",\"addr:street\"=>\"King Edward Street\",\"shop\"=>\"clothes\"" }, "geometry": { "type": "Point", "coordinates": [ -1.5409465, 53.7977781 ] } },
	{ "type": "Feature", "properties": { "osm_id": "2140301914", "name": "Ted Baker", "other_tags": "\"addr:city\"=>\"Leeds\",\"addr:housenumber\"=>\"23-25\",\"addr:postcode\"=>\"LS1 6BD\",\"addr:street\"=>\"Queen Victoria Street\",\"brand\"=>\"Ted Baker\",\"brand:wikidata\"=>\"Q2913458\",\"brand:wikipedia\"=>\"en:Ted Baker\",\"shop\"=>\"clothes\"" }, "geometry": { "type": "Point", "coordinates": [ -1.5408482, 53.7980331 ] } },
	{ "type": "Feature", "properties": { "osm_id": "2142553146", "name": "Blue Rinse", "other_tags": "\"shop\"=>\"clothes\",\"addr:city\"=>\"Leeds\",\"addr:street\"=>\"Call Lane\"" }, "geometry": { "type": "Point", "coordinates": [ -1.5399711, 53.7962754 ] } },
	{ "type": "Feature", "properties": { "osm_id": "2144729430", "name": "New Look", "other_tags": "\"brand\"=>\"New Look\",\"brand:wikidata\"=>\"Q12063852\",\"brand:wikipedia\"=>\"en:New Look (company)\",\"shop\"=>\"clothes\"" }, "geometry": { "type": "Point", "coordinates": [ -1.5442429, 53.7992206 ] } },
	{ "type": "Feature", "properties": { "osm_id": "2150181164", "name": "Butterflies", "other_tags": "\"shop\"=>\"clothes\"" }, "geometry": { "type": "Point", "coordinates": [ -1.4997076, 53.6842295 ] } },
	{ "type": "Feature", "properties": { "osm_id": "2195805631", "name": "Mothercare", "other_tags": "\"shop\"=>\"clothes\"" }, "geometry": { "type": "Point", "coordinates": [ -1.75351, 53.7989164 ] } },
	{ "type": "Feature", "properties": { "osm_id": "2195805657", "other_tags": "\"shop\"=>\"clothes\"" }, "geometry": { "type": "Point", "coordinates": [ -1.7577426, 53.796464 ] } },
	{ "type": "Feature", "properties": { "osm_id": "2212648134", "name": "Superdry", "other_tags": "\"brand\"=>\"Superdry\",\"brand:wikidata\"=>\"Q1684445\",\"brand:wikipedia\"=>\"en:Superdry\",\"shop\"=>\"clothes\"" }, "geometry": { "type": "Point", "coordinates": [ -1.544969, 53.7964543 ] } },
	{ "type": "Feature", "properties": { "osm_id": "2212648187", "name": "River Island", "other_tags": "\"addr:city\"=>\"Leeds\",\"addr:housenumber\"=>\"36\",\"addr:postcode\"=>\"LS1 6HD\",\"addr:street\"=>\"Briggate\",\"brand\"=>\"River Island\",\"brand:wikidata\"=>\"Q2670328\",\"brand:wikipedia\"=>\"en:River Island\",\"shop\"=>\"clothes\"" }, "geometry": { "type": "Point", "coordinates": [ -1.542783, 53.7963656 ] } },
	{ "type": "Feature", "properties": { "osm_id": "2212648198", "name": "Urban Outfitters", "other_tags": "\"brand\"=>\"Urban Outfitters\",\"brand:wikidata\"=>\"Q3552193\",\"brand:wikipedia\"=>\"en:Urban Outfitters\",\"shop\"=>\"clothes\"" }, "geometry": { "type": "Point", "coordinates": [ -1.5440999, 53.7960567 ] } },
	{ "type": "Feature", "properties": { "osm_id": "2212678965", "name": "New Look", "other_tags": "\"brand\"=>\"New Look\",\"brand:wikidata\"=>\"Q12063852\",\"brand:wikipedia\"=>\"en:New Look (company)\",\"shop\"=>\"clothes\"" }, "geometry": { "type": "Point", "coordinates": [ -1.5453143, 53.7960141 ] } },
	{ "type": "Feature", "properties": { "osm_id": "2212678966", "name": "Dorothy Perkins Burton", "other_tags": "\"shop\"=>\"clothes\"" }, "geometry": { "type": "Point", "coordinates": [ -1.5442039, 53.7970565 ] } },
	{ "type": "Feature", "properties": { "osm_id": "2212678969", "name": "H&M", "other_tags": "\"brand\"=>\"H&M\",\"brand:wikidata\"=>\"Q188326\",\"brand:wikipedia\"=>\"en:H&M\",\"shop\"=>\"clothes\"" }, "geometry": { "type": "Point", "coordinates": [ -1.545545, 53.7966161 ] } },
	{ "type": "Feature", "properties": { "osm_id": "2212678973", "name": "Next", "other_tags": "\"brand\"=>\"Next\",\"brand:wikidata\"=>\"Q246655\",\"brand:wikipedia\"=>\"en:Next plc\",\"shop\"=>\"clothes\"" }, "geometry": { "type": "Point", "coordinates": [ -1.5443166, 53.7964133 ] } },
	{ "type": "Feature", "properties": { "osm_id": "2213576305", "name": "Hollister", "other_tags": "\"brand\"=>\"Hollister\",\"brand:wikidata\"=>\"Q1257477\",\"brand:wikipedia\"=>\"en:Hollister Co.\",\"official_name\"=>\"Hollister Co.\",\"shop\"=>\"clothes\"" }, "geometry": { "type": "Point", "coordinates": [ -1.5440964, 53.7966462 ] } },
	{ "type": "Feature", "properties": { "osm_id": "2353394451", "other_tags": "\"shop\"=>\"clothes\"" }, "geometry": { "type": "Point", "coordinates": [ -1.6888021, 53.9062092 ] } },
	{ "type": "Feature", "properties": { "osm_id": "2353473495", "name": "Silk Sisters", "other_tags": "\"addr:city\"=>\"Otley\",\"addr:country\"=>\"GB\",\"addr:street\"=>\"Market Street\",\"is_in:town\"=>\"Otley\",\"phone\"=>\"+44 1943 463353\",\"shop\"=>\"clothes\",\"website\"=>\"www.silksisters.co.uk\"" }, "geometry": { "type": "Point", "coordinates": [ -1.6932251, 53.905525 ] } },
	{ "type": "Feature", "properties": { "osm_id": "2353501509", "name": "Wedding Belles of Otley", "other_tags": "\"shop\"=>\"clothes\",\"website\"=>\"www.weddingbellesofotley.co.uk\",\"addr:street\"=>\"New Inn Court\",\"description\"=>\"Quality bridal wear & accessories\"" }, "geometry": { "type": "Point", "coordinates": [ -1.6936781, 53.9048992 ] } },
	{ "type": "Feature", "properties": { "osm_id": "2353531362", "other_tags": "\"shop\"=>\"clothes\"" }, "geometry": { "type": "Point", "coordinates": [ -1.6943784, 53.9046922 ] } },
	{ "type": "Feature", "properties": { "osm_id": "2353558009", "name": "Wild Thing", "other_tags": "\"shop\"=>\"clothes\"" }, "geometry": { "type": "Point", "coordinates": [ -1.6938608, 53.9042341 ] } },
	{ "type": "Feature", "properties": { "osm_id": "2353737752", "name": "Tabatha's Trendz", "other_tags": "\"shop\"=>\"clothes\",\"addr:city\"=>\"Otley\",\"addr:street\"=>\"Westgate\",\"description\"=>\"Ladies fashion. Sewing alteration & repairs.\"" }, "geometry": { "type": "Point", "coordinates": [ -1.6972294, 53.9044709 ] } },
	{ "type": "Feature", "properties": { "osm_id": "2571193605", "other_tags": "\"shop\"=>\"clothes\",\"clothes\"=>\"bride\"" }, "geometry": { "type": "Point", "coordinates": [ -1.7222925, 53.8773072 ] } },
	{ "type": "Feature", "properties": { "osm_id": "2661206206", "name": "Backcountry UK", "other_tags": "\"shop\"=>\"clothes\",\"clothes\"=>\"outsoor\"" }, "geometry": { "type": "Point", "coordinates": [ -1.822436, 53.9263064 ] } },
	{ "type": "Feature", "properties": { "osm_id": "2888243501", "name": "vacant unit", "other_tags": "\"brand\"=>\"Next\",\"opening_hours\"=>\"Closed\",\"shop\"=>\"clothes\"" }, "geometry": { "type": "Point", "coordinates": [ -1.434228, 53.793417 ] } },
	{ "type": "Feature", "properties": { "osm_id": "3057247701", "name": "Rag Doll of Pudsey", "other_tags": "\"addr:city\"=>\"Pudsey\",\"addr:housenumber\"=>\"76\",\"addr:postcode\"=>\"LS28 8LE\",\"addr:street\"=>\"Galloway Lane\",\"shop\"=>\"clothes\"" }, "geometry": { "type": "Point", "coordinates": [ -1.6897951, 53.8008212 ] } },
	{ "type": "Feature", "properties": { "osm_id": "3073182159", "name": "Uniformitry", "other_tags": "\"addr:city\"=>\"Farsley\",\"addr:housenumber\"=>\"5\",\"addr:street\"=>\"New Street\",\"phone\"=>\"+44 113 256 6020\",\"shop\"=>\"clothes\"" }, "geometry": { "type": "Point", "coordinates": [ -1.6723188, 53.8112816 ] } },
	{ "type": "Feature", "properties": { "osm_id": "3155299679", "name": "Peacocks", "other_tags": "\"shop\"=>\"clothes\"" }, "geometry": { "type": "Point", "coordinates": [ -1.6762534, 53.7083754 ] } },
	{ "type": "Feature", "properties": { "osm_id": "3518087594", "name": "Almond", "other_tags": "\"shop\"=>\"clothes\",\"clothes\"=>\"women\"" }, "geometry": { "type": "Point", "coordinates": [ -1.7858042, 53.570347 ] } },
	{ "type": "Feature", "properties": { "osm_id": "3621975746", "name": "Reiss", "other_tags": "\"addr:city\"=>\"Leeds\",\"addr:housenumber\"=>\"26-28\",\"addr:postcode\"=>\"LS1 6BH\",\"addr:street\"=>\"County Arcade\",\"brand\"=>\"Reiss\",\"brand:wikidata\"=>\"Q7310479\",\"brand:wikipedia\"=>\"en:Reiss (brand)\",\"shop\"=>\"clothes\",\"website\"=>\"https:\/\/www.reiss.com\/\"" }, "geometry": { "type": "Point", "coordinates": [ -1.5409442, 53.7984122 ] } },
	{ "type": "Feature", "properties": { "osm_id": "3621975750", "name": "Vivienne Westwood", "other_tags": "\"addr:city\"=>\"Leeds\",\"addr:housenumber\"=>\"11-17\",\"addr:postcode\"=>\"LS1 6BW\",\"addr:street\"=>\"County Arcade\",\"shop\"=>\"clothes\",\"website\"=>\"https:\/\/www.viviennewestwood.com\/\"" }, "geometry": { "type": "Point", "coordinates": [ -1.5413462, 53.7983088 ] } },
	{ "type": "Feature", "properties": { "osm_id": "3660968673", "name": "Coldspring Mill", "other_tags": "\"shop\"=>\"clothes\"" }, "geometry": { "type": "Point", "coordinates": [ -1.9115041, 53.8211105 ] } },
	{ "type": "Feature", "properties": { "osm_id": "3715263092", "name": "Farouche", "other_tags": "\"shop\"=>\"clothes\",\"addr:city\"=>\"Rawdon\",\"addr:street\"=>\"Harrogate Road\"" }, "geometry": { "type": "Point", "coordinates": [ -1.6842609, 53.8543587 ] } },
	{ "type": "Feature", "properties": { "osm_id": "3715282329", "name": "Bridal Apparel", "other_tags": "\"addr:city\"=>\"Rawdon\",\"addr:housenumber\"=>\"15\",\"addr:postcode\"=>\"LS19 6HW\",\"addr:street\"=>\"Harrogate Road\",\"phone\"=>\"+44 113 250 1616\",\"shop\"=>\"clothes\",\"website\"=>\"https:\/\/www.bridalapparelleeds.co.uk\/\"" }, "geometry": { "type": "Point", "coordinates": [ -1.6848443, 53.8539247 ] } },
	{ "type": "Feature", "properties": { "osm_id": "3718205537", "name": "Izzy", "other_tags": "\"shop\"=>\"clothes\",\"addr:city\"=>\"Yeadon\",\"addr:street\"=>\"High Street\",\"addr:postcode\"=>\"LS19 7SP\",\"addr:housenumber\"=>\"41\"" }, "geometry": { "type": "Point", "coordinates": [ -1.683903, 53.8662636 ] } },
	{ "type": "Feature", "properties": { "osm_id": "3718231085", "name": "Platinum Bridal Boutique", "other_tags": "\"addr:city\"=>\"Yeadon\",\"addr:housenumber\"=>\"4\",\"addr:postcode\"=>\"LS19 7PP\",\"addr:street\"=>\"High Street\",\"phone\"=>\"+44 113 250 6026\",\"shop\"=>\"clothes\",\"website\"=>\"https:\/\/www.platinumbridalboutique.co.uk\/\"" }, "geometry": { "type": "Point", "coordinates": [ -1.685352, 53.8659184 ] } },
	{ "type": "Feature", "properties": { "osm_id": "3874017907", "name": "Outfit", "other_tags": "\"brand\"=>\"Outfit\",\"brand:wikidata\"=>\"Q7112061\",\"brand:wikipedia\"=>\"en:Outfit (retailer)\",\"shop\"=>\"clothes\"" }, "geometry": { "type": "Point", "coordinates": [ -1.6051866, 53.816872 ] } },
	{ "type": "Feature", "properties": { "osm_id": "3886416680", "name": "Harriet's", "other_tags": "\"addr:city\"=>\"Leeds\",\"addr:housenumber\"=>\"66\",\"addr:postcode\"=>\"LS18 4AP\",\"addr:street\"=>\"Town Street\",\"addr:suburb\"=>\"Horsforth\",\"phone\"=>\"+44 113 239 0399\",\"shop\"=>\"clothes\",\"website\"=>\"http:\/\/www.harrietsclothing.co.uk\/\"" }, "geometry": { "type": "Point", "coordinates": [ -1.6395376, 53.8384363 ] } },
	{ "type": "Feature", "properties": { "osm_id": "3887784748", "name": "Mini Mee's", "other_tags": "\"addr:city\"=>\"Leeds\",\"addr:housenumber\"=>\"100\",\"addr:postcode\"=>\"LS18 4AP\",\"addr:street\"=>\"Town Street\",\"addr:suburb\"=>\"Horsforth\",\"shop\"=>\"clothes\",\"website\"=>\"https:\/\/www.facebook.com\/Mini-Mees-1417529315186147\"" }, "geometry": { "type": "Point", "coordinates": [ -1.6380081, 53.839572 ] } },
	{ "type": "Feature", "properties": { "osm_id": "3892020075", "name": "Amelia Elliott Bridal", "other_tags": "\"addr:city\"=>\"Leeds\",\"addr:housenumber\"=>\"121\",\"addr:postcode\"=>\"LS18 5BL\",\"addr:street\"=>\"Town Street\",\"addr:suburb\"=>\"Horsforth\",\"opening_hours\"=>\"Mo-Fr 10:00-16:00; Sa 10:00-17:00; Su Closed\",\"phone\"=>\"+44 113 258 2783\",\"shop\"=>\"clothes\",\"website\"=>\"http:\/\/www.ameliaelliott.co.uk\/\"" }, "geometry": { "type": "Point", "coordinates": [ -1.6374153, 53.840099 ] } },
	{ "type": "Feature", "properties": { "osm_id": "3892414281", "name": "Dressie Boutique", "other_tags": "\"addr:city\"=>\"Leeds\",\"addr:housenumber\"=>\"164\",\"addr:postcode\"=>\"LS18 4AQ\",\"addr:street\"=>\"Town Street\",\"addr:suburb\"=>\"Horsforth\",\"phone\"=>\"+44 113 318 4683\",\"shop\"=>\"clothes\",\"website\"=>\"https:\/\/www.facebook.com\/Dressie-B-Horsforth-1547982788803939\"" }, "geometry": { "type": "Point", "coordinates": [ -1.6360364, 53.8411583 ] } },
	{ "type": "Feature", "properties": { "osm_id": "3901161760", "name": "Sophie's Choice", "other_tags": "\"addr:city\"=>\"Horsforth\",\"addr:housenumber\"=>\"159\",\"addr:postcode\"=>\"LS18 4DR\",\"addr:street\"=>\"New Road Side\",\"phone\"=>\"+44 113 258 8881\",\"shop\"=>\"clothes\"" }, "geometry": { "type": "Point", "coordinates": [ -1.644706, 53.8321781 ] } },
	{ "type": "Feature", "properties": { "osm_id": "3901161761", "name": "Cash4Clothes", "other_tags": "\"shop\"=>\"clothes\",\"addr:city\"=>\"Horsforth\",\"addr:street\"=>\"New Road Side\",\"addr:postcode\"=>\"LS18 4DR\",\"addr:housenumber\"=>\"157\"" }, "geometry": { "type": "Point", "coordinates": [ -1.6446213, 53.8321676 ] } },
	{ "type": "Feature", "properties": { "osm_id": "3904761987", "name": "Nicola Jane", "other_tags": "\"addr:city\"=>\"Horsforth\",\"addr:housenumber\"=>\"97\",\"addr:postcode\"=>\"LS18 4QD\",\"addr:street\"=>\"New Road Side\",\"opening_hours\"=>\"Mo-Sa 09:30-17:00; Su Closed\",\"shop\"=>\"clothes\",\"website\"=>\"https:\/\/www.nicolajane.com\/leeds-shop\/\"" }, "geometry": { "type": "Point", "coordinates": [ -1.6417916, 53.8319934 ] } },
	{ "type": "Feature", "properties": { "osm_id": "3904772961", "name": "Oaks", "other_tags": "\"addr:city\"=>\"Horsforth\",\"addr:housenumber\"=>\"83\",\"addr:postcode\"=>\"LS18 4QD\",\"addr:street\"=>\"New Road Side\",\"phone\"=>\"+44 113 239 0333\",\"shop\"=>\"clothes\"" }, "geometry": { "type": "Point", "coordinates": [ -1.6410483, 53.8319456 ] } },
	{ "type": "Feature", "properties": { "osm_id": "3934263614", "name": "Paradise Grove", "other_tags": "\"shop\"=>\"clothes\",\"addr:city\"=>\"Horsforth\",\"addr:street\"=>\"Paradise Place\",\"addr:postcode\"=>\"LS18 4RN\",\"addr:housenumber\"=>\"27\"" }, "geometry": { "type": "Point", "coordinates": [ -1.6189911, 53.8355808 ] } },
	{ "type": "Feature", "properties": { "osm_id": "4353989162", "name": "Ashworth & Bird", "other_tags": "\"addr:city\"=>\"Wakefield\",\"addr:housenumber\"=>\"13-17\",\"addr:street\"=>\"Cross Square\",\"shop\"=>\"clothes\",\"website\"=>\"https:\/\/www.ashworthandbird.com\/\"" }, "geometry": { "type": "Point", "coordinates": [ -1.4988524, 53.6828565 ] } },
	{ "type": "Feature", "properties": { "osm_id": "4353989290", "name": "Peters", "other_tags": "\"addr:city\"=>\"Wakefield\",\"addr:housenumber\"=>\"33-35\",\"addr:postcode\"=>\"WF1 1QW\",\"addr:street\"=>\"Brook Street\",\"shop\"=>\"clothes\"" }, "geometry": { "type": "Point", "coordinates": [ -1.4967086, 53.6841726 ] } },
	{ "type": "Feature", "properties": { "osm_id": "4413109076", "name": "Bridal Reloved", "other_tags": "\"addr:city\"=>\"Wakefield\",\"addr:housenumber\"=>\"24\",\"addr:postcode\"=>\"WF1 2ED\",\"addr:street\"=>\"Wood Street\",\"shop\"=>\"clothes\",\"website\"=>\"https:\/\/bridalreloved.co.uk\/\"" }, "geometry": { "type": "Point", "coordinates": [ -1.500018, 53.6835463 ] } },
	{ "type": "Feature", "properties": { "osm_id": "4414777795", "name": "Dress2Party", "other_tags": "\"addr:city\"=>\"Wakefield\",\"addr:housenumber\"=>\"57\",\"addr:postcode\"=>\"WF1 3BP\",\"addr:street\"=>\"Northgate\",\"shop\"=>\"clothes\"" }, "geometry": { "type": "Point", "coordinates": [ -1.4999083, 53.6845074 ] } },
	{ "type": "Feature", "properties": { "osm_id": "4471283676", "name": "Roman", "other_tags": "\"shop\"=>\"clothes\",\"wheelchair\"=>\"yes\"" }, "geometry": { "type": "Point", "coordinates": [ -1.4515572, 53.8060632 ] } },
	{ "type": "Feature", "properties": { "osm_id": "4471283680", "name": "Select", "other_tags": "\"shop\"=>\"clothes\",\"wheelchair\"=>\"yes\"" }, "geometry": { "type": "Point", "coordinates": [ -1.4510254, 53.8060599 ] } },
	{ "type": "Feature", "properties": { "osm_id": "4471283681", "name": "New Look", "other_tags": "\"brand\"=>\"New Look\",\"brand:wikidata\"=>\"Q12063852\",\"brand:wikipedia\"=>\"en:New Look (company)\",\"shop\"=>\"clothes\",\"wheelchair\"=>\"yes\"" }, "geometry": { "type": "Point", "coordinates": [ -1.4508744, 53.8060927 ] } },
	{ "type": "Feature", "properties": { "osm_id": "4475950123", "name": "Peacocks", "other_tags": "\"brand\"=>\"Peacocks\",\"brand:wikidata\"=>\"Q7157762\",\"brand:wikipedia\"=>\"en:Peacocks (clothing)\",\"shop\"=>\"clothes\"" }, "geometry": { "type": "Point", "coordinates": [ -1.4501572, 53.8065496 ] } },
	{ "type": "Feature", "properties": { "osm_id": "4489200790", "name": "For Giving", "other_tags": "\"opening_hours\"=>\"closed\",\"shop\"=>\"clothes\"" }, "geometry": { "type": "Point", "coordinates": [ -1.4503754, 53.806936 ] } },
	{ "type": "Feature", "properties": { "osm_id": "4489200794", "name": "Jack & Jill", "other_tags": "\"clothes\"=>\"children;toys\",\"shop\"=>\"clothes\"" }, "geometry": { "type": "Point", "coordinates": [ -1.4504103, 53.8067031 ] } },
	{ "type": "Feature", "properties": { "osm_id": "4602768928", "name": "Yorkshire Menswear", "other_tags": "\"shop\"=>\"clothes\"" }, "geometry": { "type": "Point", "coordinates": [ -1.6629175, 53.8231128 ] } },
	{ "type": "Feature", "properties": { "osm_id": "4636108674", "name": "Fat Face", "other_tags": "\"shop\"=>\"clothes\"" }, "geometry": { "type": "Point", "coordinates": [ -2.0132507, 53.741658 ] } },
	{ "type": "Feature", "properties": { "osm_id": "4653490142", "name": "Cats", "other_tags": "\"second_hand\"=>\"only\",\"shop\"=>\"clothes\"" }, "geometry": { "type": "Point", "coordinates": [ -1.4512422, 53.8073106 ] } },
	{ "type": "Feature", "properties": { "osm_id": "4885695945", "name": "Select", "other_tags": "\"shop\"=>\"clothes\"" }, "geometry": { "type": "Point", "coordinates": [ -1.544226, 53.8010395 ] } },
	{ "type": "Feature", "properties": { "osm_id": "4951726045", "name": "USC", "other_tags": "\"shop\"=>\"clothes\"" }, "geometry": { "type": "Point", "coordinates": [ -1.781345, 53.6440407 ] } },
	{ "type": "Feature", "properties": { "osm_id": "4951726046", "name": "Dorothy Perkins", "other_tags": "\"shop\"=>\"clothes\"" }, "geometry": { "type": "Point", "coordinates": [ -1.7821254, 53.6440243 ] } },
	{ "type": "Feature", "properties": { "osm_id": "4951726047", "name": "Evans", "other_tags": "\"shop\"=>\"clothes\"" }, "geometry": { "type": "Point", "coordinates": [ -1.7819556, 53.6441397 ] } },
	{ "type": "Feature", "properties": { "osm_id": "4969745011", "name": "H&M", "other_tags": "\"addr:city\"=>\"Huddersfield\",\"addr:postcode\"=>\"HD1 2QB\",\"addr:street\"=>\"Kingsgate Centre\",\"brand\"=>\"H&M\",\"brand:wikidata\"=>\"Q188326\",\"brand:wikipedia\"=>\"en:H&M\",\"shop\"=>\"clothes\"" }, "geometry": { "type": "Point", "coordinates": [ -1.7781878, 53.6455801 ] } },
	{ "type": "Feature", "properties": { "osm_id": "4969745014", "name": "Roman", "other_tags": "\"addr:city\"=>\"Huddersfield\",\"addr:postcode\"=>\"HD1 2QB\",\"addr:street\"=>\"Kingsgate Centre\",\"shop\"=>\"clothes\"" }, "geometry": { "type": "Point", "coordinates": [ -1.778558, 53.6458949 ] } },
	{ "type": "Feature", "properties": { "osm_id": "4969745016", "name": "Next", "other_tags": "\"addr:city\"=>\"Huddersfield\",\"addr:postcode\"=>\"HD1 2QB\",\"addr:street\"=>\"Kingsgate Centre\",\"brand\"=>\"Next\",\"brand:wikidata\"=>\"Q246655\",\"brand:wikipedia\"=>\"en:Next plc\",\"shop\"=>\"clothes\"" }, "geometry": { "type": "Point", "coordinates": [ -1.7790408, 53.646259 ] } },
	{ "type": "Feature", "properties": { "osm_id": "4969745020", "name": "TK Maxx", "other_tags": "\"addr:city\"=>\"Huddersfield\",\"addr:postcode\"=>\"HD1 2QB\",\"addr:street\"=>\"Kingsgate Centre\",\"brand\"=>\"TK Maxx\",\"brand:wikidata\"=>\"Q23823668\",\"brand:wikipedia\"=>\"en:TK Maxx\",\"shop\"=>\"clothes\"" }, "geometry": { "type": "Point", "coordinates": [ -1.7800747, 53.6458622 ] } },
	{ "type": "Feature", "properties": { "osm_id": "5026332220", "name": "Imagine Dance & Theatrical Wear", "other_tags": "\"addr:city\"=>\"Wakefield\",\"addr:housenumber\"=>\"1\",\"addr:postcode\"=>\"WF1 1PA\",\"addr:street\"=>\"Marygate\",\"shop\"=>\"clothes\",\"website\"=>\"https:\/\/www.imaginewear.co.uk\/\"" }, "geometry": { "type": "Point", "coordinates": [ -1.4992623, 53.6826191 ] } },
	{ "type": "Feature", "properties": { "osm_id": "5071335020", "name": "River Island", "other_tags": "\"addr:city\"=>\"Huddersfield\",\"addr:postcode\"=>\"HD1 2QB\",\"addr:street\"=>\"Kingsgate Centre\",\"addr:unit\"=>\"4-5\",\"brand\"=>\"River Island\",\"brand:wikidata\"=>\"Q2670328\",\"brand:wikipedia\"=>\"en:River Island\",\"shop\"=>\"clothes\"" }, "geometry": { "type": "Point", "coordinates": [ -1.7798559, 53.646076 ] } },
	{ "type": "Feature", "properties": { "osm_id": "5071335227", "name": "Topshop Topman", "other_tags": "\"addr:city\"=>\"Huddersfield\",\"addr:postcode\"=>\"HD1 2QB\",\"addr:street\"=>\"Kingsgate Centre\",\"shop\"=>\"clothes\"" }, "geometry": { "type": "Point", "coordinates": [ -1.7787709, 53.6458152 ] } },
	{ "type": "Feature", "properties": { "osm_id": "5071335229", "name": "Suitdirect", "other_tags": "\"addr:city\"=>\"Huddersfield\",\"addr:postcode\"=>\"HD1 2QB\",\"addr:street\"=>\"Kingsgate Centre\",\"shop\"=>\"clothes\"" }, "geometry": { "type": "Point", "coordinates": [ -1.7789091, 53.6459536 ] } },
	{ "type": "Feature", "properties": { "osm_id": "5071349015", "name": "Peter's of Huddersfield", "other_tags": "\"addr:city\"=>\"Huddersfield\",\"addr:street\"=>\"Packhorse Centre\",\"shop\"=>\"clothes\"" }, "geometry": { "type": "Point", "coordinates": [ -1.7813284, 53.6465578 ] } },
	{ "type": "Feature", "properties": { "osm_id": "5071542356", "name": "Bonmarche", "other_tags": "\"addr:city\"=>\"Huddersfield\",\"addr:housenumber\"=>\"56\",\"addr:postcode\"=>\"HD1 2BW\",\"addr:street\"=>\"New Street\",\"shop\"=>\"clothes\"" }, "geometry": { "type": "Point", "coordinates": [ -1.7833547, 53.6447814 ] } },
	{ "type": "Feature", "properties": { "osm_id": "5139532435", "name": "Slaters", "other_tags": "\"addr:city\"=>\"Leeds\",\"addr:housenumber\"=>\"83\",\"addr:postcode\"=>\"LS1 5AP\",\"addr:street\"=>\"Albion Street\",\"brand\"=>\"Slaters\",\"brand:wikidata\"=>\"Q7538912\",\"brand:wikipedia\"=>\"en:Slater Menswear\",\"clothes\"=>\"suits\",\"opening_hours\"=>\"Mo-We 08:30-17:30; Th 08:30-19:30; Fr-Sa 08:30-17:30; Su 11:00-16:00\",\"phone\"=>\"+44 113 234 9933\",\"shop\"=>\"clothes\",\"website\"=>\"https:\/\/www.slaters.co.uk\/store-locator\/slaters-leeds\/\",\"wheelchair\"=>\"yes\",\"wikipedia\"=>\"en:Slater menswear\"" }, "geometry": { "type": "Point", "coordinates": [ -1.5452485, 53.7985639 ] } },
	{ "type": "Feature", "properties": { "osm_id": "5296592028", "name": "Damsell Dancewear", "other_tags": "\"clothes\"=>\"dancewear\",\"shop\"=>\"clothes\"" }, "geometry": { "type": "Point", "coordinates": [ -1.6717753, 53.8114213 ] } },
	{ "type": "Feature", "properties": { "osm_id": "5311505827", "name": "The Boutique", "other_tags": "\"clothes\"=>\"bride\",\"shop\"=>\"clothes\"" }, "geometry": { "type": "Point", "coordinates": [ -1.6936085, 53.9061 ] } },
	{ "type": "Feature", "properties": { "osm_id": "5422663138", "name": "Peacocks", "other_tags": "\"addr:city\"=>\"Leeds\",\"addr:housename\"=>\"The Merrion Centre\",\"addr:postcode\"=>\"LS2 8NG\",\"addr:unit\"=>\"16-18\",\"brand\"=>\"Peacocks\",\"brand:wikidata\"=>\"Q7157762\",\"brand:wikipedia\"=>\"en:Peacocks (clothing)\",\"shop\"=>\"clothes\"" }, "geometry": { "type": "Point", "coordinates": [ -1.5440203, 53.8013724 ] } },
	{ "type": "Feature", "properties": { "osm_id": "5422663144", "name": "Bonmarché", "other_tags": "\"addr:city\"=>\"Leeds\",\"addr:housename\"=>\"The Merrion Centre\",\"addr:postcode\"=>\"LS2 8NG\",\"addr:unit\"=>\"36-40\",\"brand\"=>\"Bonmarché\",\"brand:wikidata\"=>\"Q4942146\",\"brand:wikipedia\"=>\"en:Bonmarché\",\"shop\"=>\"clothes\"" }, "geometry": { "type": "Point", "coordinates": [ -1.5441893, 53.801713 ] } },
	{ "type": "Feature", "properties": { "osm_id": "5438626920", "name": "Burton", "other_tags": "\"addr:city\"=>\"Halifax\",\"addr:country\"=>\"GB\",\"addr:housenumber\"=>\"1-3\",\"addr:postcode\"=>\"HX1 1NT\",\"addr:street\"=>\"Southgate\",\"fhrs:id\"=>\"441480\",\"shop\"=>\"clothes\"" }, "geometry": { "type": "Point", "coordinates": [ -1.8599591, 53.7227754 ] } },
	{ "type": "Feature", "properties": { "osm_id": "5452280958", "name": "New Look", "other_tags": "\"shop\"=>\"clothes\"" }, "geometry": { "type": "Point", "coordinates": [ -1.8570355, 53.7233166 ] } },
	{ "type": "Feature", "properties": { "osm_id": "5452280959", "name": "Topshop \/ Topman", "other_tags": "\"shop\"=>\"clothes\"" }, "geometry": { "type": "Point", "coordinates": [ -1.8572286, 53.7232864 ] } },
	{ "type": "Feature", "properties": { "osm_id": "5452280970", "name": "River Island", "other_tags": "\"shop\"=>\"clothes\"" }, "geometry": { "type": "Point", "coordinates": [ -1.858618, 53.723407 ] } },
	{ "type": "Feature", "properties": { "osm_id": "5469277355", "name": "Miss Chief", "other_tags": "\"shop\"=>\"clothes\"" }, "geometry": { "type": "Point", "coordinates": [ -1.8576604, 53.722869 ] } },
	{ "type": "Feature", "properties": { "osm_id": "5469277357", "name": "Peacocks", "other_tags": "\"shop\"=>\"clothes\"" }, "geometry": { "type": "Point", "coordinates": [ -1.8572393, 53.7226341 ] } },
	{ "type": "Feature", "properties": { "osm_id": "5506248309", "name": "Next Outlet", "other_tags": "\"addr:city\"=>\"Castleford\",\"addr:housename\"=>\"UJunction 32 Outlet Shopping Village\",\"addr:housenumber\"=>\"Unit 1\",\"addr:postcode\"=>\"WF10 4FR\",\"addr:street\"=>\"Tomahawk Trail\",\"addr:town\"=>\"Castleford\",\"addr:unit\"=>\"57\",\"brand\"=>\"Next\",\"brand:wikidata\"=>\"Q246655\",\"brand:wikipedia\"=>\"en:Next plc\",\"clothes\"=>\"women;men;c;children;babies\",\"opening_hours:covid19\"=>\"off\",\"shop\"=>\"clothes\"" }, "geometry": { "type": "Point", "coordinates": [ -1.3387764, 53.7112408 ] } },
	{ "type": "Feature", "properties": { "osm_id": "5569969830", "name": "Dorothy Perkins", "other_tags": "\"shop\"=>\"clothes\"" }, "geometry": { "type": "Point", "coordinates": [ -1.8583497, 53.7220771 ] } },
	{ "type": "Feature", "properties": { "osm_id": "5572259413", "name": "Uniform Shop", "other_tags": "\"shop\"=>\"clothes\"" }, "geometry": { "type": "Point", "coordinates": [ -1.8581834, 53.7213597 ] } },
	{ "type": "Feature", "properties": { "osm_id": "5626680391", "name": "Louise Perry Bridal", "other_tags": "\"clothes\"=>\"wedding\",\"opening_hours\"=>\"Mo 11:00-16:00; Fr 10:00-16:00; Sa 10:30-17:00\",\"shop\"=>\"clothes\",\"website\"=>\"https:\/\/www.louiseperrybridal.co.uk\/\"" }, "geometry": { "type": "Point", "coordinates": [ -1.7908938, 53.8376215 ] } },
	{ "type": "Feature", "properties": { "osm_id": "5632562238", "name": "Dolls Boutique", "other_tags": "\"addr:city\"=>\"Leeds\",\"addr:housename\"=>\"The Light\",\"addr:postcode\"=>\"LS1 8TL\",\"addr:street\"=>\"The Headrow\",\"addr:unit\"=>\"10a\",\"shop\"=>\"clothes\"" }, "geometry": { "type": "Point", "coordinates": [ -1.5460065, 53.7998873 ] } },
	{ "type": "Feature", "properties": { "osm_id": "5648164592", "name": "Officers Club", "other_tags": "\"addr:city\"=>\"Leeds\",\"addr:housename\"=>\"St Johns Centre\",\"addr:housenumber\"=>\"110-118\",\"addr:postcode\"=>\"LS2 8LQ\",\"addr:street\"=>\"Albion Street\",\"level\"=>\"1\",\"shop\"=>\"clothes\"" }, "geometry": { "type": "Point", "coordinates": [ -1.5440968, 53.8005186 ] } },
	{ "type": "Feature", "properties": { "osm_id": "5648164597", "name": "Yours", "other_tags": "\"addr:city\"=>\"Leeds\",\"addr:housename\"=>\"St Johns Centre\",\"addr:housenumber\"=>\"110-118\",\"addr:postcode\"=>\"LS2 8LQ\",\"addr:street\"=>\"Albion Street\",\"level\"=>\"0\",\"shop\"=>\"clothes\"" }, "geometry": { "type": "Point", "coordinates": [ -1.5439801, 53.7999301 ] } },
	{ "type": "Feature", "properties": { "osm_id": "5648164598", "name": "Roman", "other_tags": "\"addr:city\"=>\"Leeds\",\"addr:housename\"=>\"St Johns Centre\",\"addr:housenumber\"=>\"110-118\",\"addr:postcode\"=>\"LS2 8LQ\",\"addr:street\"=>\"Albion Street\",\"level\"=>\"0\",\"shop\"=>\"clothes\"" }, "geometry": { "type": "Point", "coordinates": [ -1.5437749, 53.7999277 ] } },
	{ "type": "Feature", "properties": { "osm_id": "5648164599", "name": "Shout", "other_tags": "\"addr:city\"=>\"Leeds\",\"addr:housename\"=>\"St Johns Centre\",\"addr:housenumber\"=>\"110-118\",\"addr:postcode\"=>\"LS2 8LQ\",\"addr:street\"=>\"Albion Street\",\"level\"=>\"0\",\"shop\"=>\"clothes\"" }, "geometry": { "type": "Point", "coordinates": [ -1.5437716, 53.799991 ] } },
	{ "type": "Feature", "properties": { "osm_id": "5700048221", "name": "The Shuttle", "other_tags": "\"shop\"=>\"clothes\"" }, "geometry": { "type": "Point", "coordinates": [ -1.7736368, 53.8369487 ] } },
	{ "type": "Feature", "properties": { "osm_id": "5711983937", "name": "Amour de Femme Lingerie", "other_tags": "\"addr:city\"=>\"Bingley\",\"addr:housenumber\"=>\"87\",\"addr:postcode\"=>\"BD16 2JA\",\"addr:street\"=>\"Main Street\",\"shop\"=>\"clothes\"" }, "geometry": { "type": "Point", "coordinates": [ -1.8384484, 53.8490727 ] } },
	{ "type": "Feature", "properties": { "osm_id": "5754417060", "name": "Hype", "other_tags": "\"addr:city\"=>\"Wakefield\",\"addr:postcode\"=>\"WF1 1YB\",\"addr:street\"=>\"Bishopgate Walk The Ridings Centre\",\"addr:unit\"=>\"53\",\"level\"=>\"1\",\"shop\"=>\"clothes\"" }, "geometry": { "type": "Point", "coordinates": [ -1.4973995, 53.6819908 ] } },
	{ "type": "Feature", "properties": { "osm_id": "5754417071", "name": "Primark", "other_tags": "\"addr:city\"=>\"Wakefield\",\"addr:country\"=>\"GB\",\"addr:postcode\"=>\"WF1 1YB\",\"addr:street\"=>\"Bishopgate Walk The Ridings Centre\",\"addr:unit\"=>\"56-62\",\"brand\"=>\"Primark\",\"brand:wikidata\"=>\"Q137023\",\"brand:wikipedia\"=>\"en:Primark\",\"contact:website\"=>\"https:\/\/stores.primark.com\/united-kingdom\/wakefield\/57-58-bishopsgate-walk\",\"level\"=>\"1\",\"shop\"=>\"clothes\",\"wheelchair\"=>\"yes\"" }, "geometry": { "type": "Point", "coordinates": [ -1.4979708, 53.6817541 ] } },
	{ "type": "Feature", "properties": { "osm_id": "5754417072", "name": "Morgana & Hellraiser", "other_tags": "\"addr:city\"=>\"Wakefield\",\"addr:postcode\"=>\"WF1 1DS\",\"addr:street\"=>\"Bishopgate Walk The Ridings Centre\",\"addr:unit\"=>\"64\",\"level\"=>\"1\",\"shop\"=>\"clothes\",\"wheelchair\"=>\"yes\"" }, "geometry": { "type": "Point", "coordinates": [ -1.4972797, 53.6817181 ] } },
	{ "type": "Feature", "properties": { "osm_id": "5754417077", "name": "Yours", "other_tags": "\"addr:city\"=>\"Wakefield\",\"addr:postcode\"=>\"WF1 1DS\",\"addr:street\"=>\"Bishopgate Walk The Ridings Centre\",\"addr:unit\"=>\"67\",\"level\"=>\"1\",\"shop\"=>\"clothes\"" }, "geometry": { "type": "Point", "coordinates": [ -1.4966637, 53.681733 ] } },
	{ "type": "Feature", "properties": { "osm_id": "5754417080", "name": "Peacocks", "other_tags": "\"addr:city\"=>\"Wakefield\",\"addr:postcode\"=>\"WF1 1YB\",\"addr:street\"=>\"Bishopgate Walk The Ridings Centre\",\"addr:unit\"=>\"74\",\"brand\"=>\"Peacocks\",\"brand:wikidata\"=>\"Q7157762\",\"brand:wikipedia\"=>\"en:Peacocks (clothing)\",\"level\"=>\"1\",\"shop\"=>\"clothes\",\"wheelchair\"=>\"yes\"" }, "geometry": { "type": "Point", "coordinates": [ -1.4958814, 53.6817208 ] } },
	{ "type": "Feature", "properties": { "osm_id": "5918770662", "name": "New Collection", "other_tags": "\"addr:city\"=>\"Leeds\",\"addr:housenumber\"=>\"124\",\"addr:postcode\"=>\"LS7 4NY\",\"addr:street\"=>\"Harrogate Road\",\"shop\"=>\"clothes\"" }, "geometry": { "type": "Point", "coordinates": [ -1.5381068, 53.8297769 ] } },
	{ "type": "Feature", "properties": { "osm_id": "5940387580", "name": "Bridal Emporium", "other_tags": "\"addr:city\"=>\"Leeds\",\"addr:housenumber\"=>\"4-5\",\"addr:postcode\"=>\"LS1 6PG\",\"addr:street\"=>\"Grand Arcade\",\"shop\"=>\"clothes\",\"website\"=>\"https:\/\/www.the-bridal-emporium.com\/\"" }, "geometry": { "type": "Point", "coordinates": [ -1.5399788, 53.8001544 ] } },
	{ "type": "Feature", "properties": { "osm_id": "5940387584", "name": "Labels Designer Menswear", "other_tags": "\"addr:city\"=>\"Leeds\",\"addr:housenumber\"=>\"13\",\"addr:postcode\"=>\"LS1 6PG\",\"addr:street\"=>\"Grand Arcade\",\"shop\"=>\"clothes\"" }, "geometry": { "type": "Point", "coordinates": [ -1.5408117, 53.8002481 ] } },
	{ "type": "Feature", "properties": { "osm_id": "5941346393", "name": "Seraphine", "other_tags": "\"addr:city\"=>\"Leeds\",\"addr:housenumber\"=>\"10-12\",\"addr:postcode\"=>\"LS1 6AZ\",\"addr:street\"=>\"Cross Arcade\",\"shop\"=>\"clothes\"" }, "geometry": { "type": "Point", "coordinates": [ -1.5409586, 53.7978706 ] } },
	{ "type": "Feature", "properties": { "osm_id": "5941346394", "name": "Sweaty Betty", "other_tags": "\"addr:city\"=>\"Leeds\",\"addr:housenumber\"=>\"7-11\",\"addr:postcode\"=>\"LS1 6AZ\",\"addr:street\"=>\"Cross Arcade\",\"shop\"=>\"clothes\"" }, "geometry": { "type": "Point", "coordinates": [ -1.5411651, 53.7979055 ] } },
	{ "type": "Feature", "properties": { "osm_id": "5941346395", "name": "Farah", "other_tags": "\"addr:city\"=>\"Leeds\",\"addr:housenumber\"=>\"18\",\"addr:postcode\"=>\"LS1 6AX\",\"addr:street\"=>\"King Edward Street\",\"shop\"=>\"clothes\"" }, "geometry": { "type": "Point", "coordinates": [ -1.5408741, 53.7975704 ] } },
	{ "type": "Feature", "properties": { "osm_id": "5941346397", "name": "Jigsaw", "other_tags": "\"addr:city\"=>\"Leeds\",\"addr:housenumber\"=>\"23\",\"addr:postcode\"=>\"LS1 6AX\",\"addr:street\"=>\"King Edward Street\",\"brand\"=>\"Jigsaw\",\"brand:wikidata\"=>\"Q6192383\",\"brand:wikipedia\"=>\"en:Jigsaw (clothing retailer)\",\"shop\"=>\"clothes\"" }, "geometry": { "type": "Point", "coordinates": [ -1.54074, 53.7977629 ] } },
	{ "type": "Feature", "properties": { "osm_id": "5941346400", "name": "Diesel", "other_tags": "\"addr:city\"=>\"Leeds\",\"addr:housenumber\"=>\"13-15\",\"addr:postcode\"=>\"LS1 6AX\",\"addr:street\"=>\"King Edward Street\",\"brand\"=>\"Diesel\",\"brand:wikidata\"=>\"Q158285\",\"brand:wikipedia\"=>\"en:Diesel (brand)\",\"shop\"=>\"clothes\"" }, "geometry": { "type": "Point", "coordinates": [ -1.5412255, 53.7977986 ] } },
	{ "type": "Feature", "properties": { "osm_id": "5941346402", "name": "Pretty Green", "other_tags": "\"addr:city\"=>\"Leeds\",\"addr:housenumber\"=>\"9\",\"addr:postcode\"=>\"LS1 6AX\",\"addr:street\"=>\"King Edward Street\",\"shop\"=>\"clothes\"" }, "geometry": { "type": "Point", "coordinates": [ -1.5414695, 53.7978144 ] } },
	{ "type": "Feature", "properties": { "osm_id": "5941346403", "name": "Jack Wills", "other_tags": "\"addr:city\"=>\"Leeds\",\"addr:housenumber\"=>\"7\",\"addr:postcode\"=>\"LS1 6AX\",\"addr:street\"=>\"King Edward Street\",\"brand\"=>\"Jack Wills\",\"brand:wikidata\"=>\"Q6115814\",\"brand:wikipedia\"=>\"en:Jack Wills\",\"shop\"=>\"clothes\"" }, "geometry": { "type": "Point", "coordinates": [ -1.5415889, 53.7978247 ] } },
	{ "type": "Feature", "properties": { "osm_id": "5941346404", "name": "The North Face", "other_tags": "\"addr:city\"=>\"Leeds\",\"addr:housenumber\"=>\"5\",\"addr:postcode\"=>\"LS1 6AX\",\"addr:street\"=>\"King Edward Street\",\"alt_name\"=>\"North Face\",\"brand\"=>\"The North Face\",\"brand:wikidata\"=>\"Q152784\",\"brand:wikipedia\"=>\"en:The North Face\",\"shop\"=>\"clothes\"" }, "geometry": { "type": "Point", "coordinates": [ -1.5417096, 53.7978318 ] } },
	{ "type": "Feature", "properties": { "osm_id": "5941346410", "name": "AllSaints", "other_tags": "\"addr:city\"=>\"Leeds\",\"addr:housenumber\"=>\"33-35\",\"addr:postcode\"=>\"LS1 6BD\",\"addr:street\"=>\"Queen Victoria Street\",\"brand\"=>\"AllSaints\",\"brand:wikidata\"=>\"Q4728473\",\"brand:wikipedia\"=>\"en:AllSaints\",\"shop\"=>\"clothes\"" }, "geometry": { "type": "Point", "coordinates": [ -1.5406327, 53.7980156 ] } },
	{ "type": "Feature", "properties": { "osm_id": "5941346416", "name": "AllSaints", "other_tags": "\"addr:city\"=>\"Leeds\",\"addr:housenumber\"=>\"30-32\",\"addr:postcode\"=>\"LS1 6BE\",\"addr:street\"=>\"Queen Victoria Street\",\"brand\"=>\"AllSaints\",\"brand:wikidata\"=>\"Q4728473\",\"brand:wikipedia\"=>\"en:AllSaints\",\"shop\"=>\"clothes\"" }, "geometry": { "type": "Point", "coordinates": [ -1.5407266, 53.7982065 ] } },
	{ "type": "Feature", "properties": { "osm_id": "5941346422", "name": "Whistles", "other_tags": "\"addr:city\"=>\"Leeds\",\"addr:housenumber\"=>\"12-14\",\"addr:postcode\"=>\"LS1 6BE\",\"addr:street\"=>\"Queen Victoria Street\",\"shop\"=>\"clothes\"" }, "geometry": { "type": "Point", "coordinates": [ -1.5414696, 53.7982711 ] } },
	{ "type": "Feature", "properties": { "osm_id": "5941346424", "name": "Hobbs", "other_tags": "\"addr:city\"=>\"Leeds\",\"addr:housenumber\"=>\"6-8\",\"addr:postcode\"=>\"LS1 6BE\",\"addr:street\"=>\"Queen Victoria Street\",\"brand\"=>\"Hobbs\",\"brand:wikidata\"=>\"Q25108740\",\"shop\"=>\"clothes\"" }, "geometry": { "type": "Point", "coordinates": [ -1.5416841, 53.7982881 ] } },
	{ "type": "Feature", "properties": { "osm_id": "5941346433", "name": "Hawes & Curtis", "other_tags": "\"addr:city\"=>\"Leeds\",\"addr:housenumber\"=>\"22-24\",\"addr:postcode\"=>\"LS1 6BN\",\"addr:street\"=>\"County Arcade\",\"shop\"=>\"clothes\",\"website\"=>\"https:\/\/www.hawesandcurtis.co.uk\/\"" }, "geometry": { "type": "Point", "coordinates": [ -1.5410739, 53.7984196 ] } },
	{ "type": "Feature", "properties": { "osm_id": "5941346442", "name": "Berketex Bride", "other_tags": "\"addr:city\"=>\"Leeds\",\"addr:housenumber\"=>\"1\",\"addr:postcode\"=>\"LS1 6LF\",\"addr:street\"=>\"Queens Arcade\",\"shop\"=>\"clothes\",\"website\"=>\"https:\/\/www.berketexbride.com\/\"" }, "geometry": { "type": "Point", "coordinates": [ -1.5424658, 53.7983805 ] } },
	{ "type": "Feature", "properties": { "osm_id": "5941346447", "name": "Accent", "other_tags": "\"addr:city\"=>\"Leeds\",\"addr:housenumber\"=>\"11-13\",\"addr:postcode\"=>\"LS1 6LF\",\"addr:street\"=>\"Queens Arcade\",\"shop\"=>\"clothes\"" }, "geometry": { "type": "Point", "coordinates": [ -1.5428854, 53.7984386 ] } },
	{ "type": "Feature", "properties": { "osm_id": "5941346451", "name": "Levi's", "other_tags": "\"addr:city\"=>\"Leeds\",\"addr:housenumber\"=>\"30\",\"addr:postcode\"=>\"LS1 6LB\",\"addr:street\"=>\"Lands Lane\",\"brand\"=>\"Levi's\",\"brand:wikidata\"=>\"Q127962\",\"brand:wikipedia\"=>\"en:Levi Strauss & Co.\",\"clothes\"=>\"denim;men;women\",\"shop\"=>\"clothes\"" }, "geometry": { "type": "Point", "coordinates": [ -1.5433042, 53.7984956 ] } },
	{ "type": "Feature", "properties": { "osm_id": "5941346458", "name": "Tunnel", "other_tags": "\"addr:city\"=>\"Leeds\",\"addr:housenumber\"=>\"8\",\"addr:postcode\"=>\"LS1 6LF\",\"addr:street\"=>\"Queens Arcade\",\"shop\"=>\"clothes\"" }, "geometry": { "type": "Point", "coordinates": [ -1.5426873, 53.7983 ] } },
	{ "type": "Feature", "properties": { "osm_id": "5941346462", "name": "Bolongaro Trevor", "other_tags": "\"addr:city\"=>\"Leeds\",\"addr:housenumber\"=>\"14\",\"addr:postcode\"=>\"LS1 6LQ\",\"addr:street\"=>\"Thornton's Arcade\",\"shop\"=>\"clothes\"" }, "geometry": { "type": "Point", "coordinates": [ -1.5427167, 53.7987324 ] } },
	{ "type": "Feature", "properties": { "osm_id": "5981573962", "name": "Aras of Leeds", "other_tags": "\"addr:city\"=>\"Leeds\",\"addr:housename\"=>\"Kirkgate Market\",\"addr:street\"=>\"Kirkgate\",\"shop\"=>\"clothes\"" }, "geometry": { "type": "Point", "coordinates": [ -1.5394372, 53.79726 ] } },
	{ "type": "Feature", "properties": { "osm_id": "5981573973", "name": "Pocket Friendly Fashions", "other_tags": "\"addr:city\"=>\"Leeds\",\"addr:housename\"=>\"Kirkgate Market\",\"addr:street\"=>\"Kirkgate\",\"shop\"=>\"clothes\"" }, "geometry": { "type": "Point", "coordinates": [ -1.5396858, 53.7970625 ] } },
	{ "type": "Feature", "properties": { "osm_id": "5981573978", "other_tags": "\"addr:city\"=>\"Leeds\",\"addr:housename\"=>\"Kirkgate Market\",\"addr:street\"=>\"Kirkgate\",\"addr:unit\"=>\"R\",\"shop\"=>\"clothes\"" }, "geometry": { "type": "Point", "coordinates": [ -1.5399211, 53.7970656 ] } },
	{ "type": "Feature", "properties": { "osm_id": "5981576286", "name": "Myers - The Cardigan Shop", "other_tags": "\"addr:city\"=>\"Leeds\",\"addr:housename\"=>\"Kirkgate Market\",\"addr:street\"=>\"Kirkgate\",\"shop\"=>\"clothes\"" }, "geometry": { "type": "Point", "coordinates": [ -1.5400628, 53.7968633 ] } },
	{ "type": "Feature", "properties": { "osm_id": "5981576296", "name": "Dorothy Goodall", "other_tags": "\"addr:city\"=>\"Leeds\",\"addr:housename\"=>\"Kirkgate Market\",\"addr:street\"=>\"Kirkgate\",\"addr:unit\"=>\"12\",\"shop\"=>\"clothes\"" }, "geometry": { "type": "Point", "coordinates": [ -1.5400266, 53.7972299 ] } },
	{ "type": "Feature", "properties": { "osm_id": "6001482107", "name": "Ego", "other_tags": "\"shop\"=>\"clothes\"" }, "geometry": { "type": "Point", "coordinates": [ -1.5383475, 53.797435 ] } },
	{ "type": "Feature", "properties": { "osm_id": "6001482138", "other_tags": "\"shop\"=>\"clothes\"" }, "geometry": { "type": "Point", "coordinates": [ -1.5385392, 53.7970714 ] } },
	{ "type": "Feature", "properties": { "osm_id": "6001596328", "name": "Calvin Klein", "other_tags": "\"addr:city\"=>\"Leeds\",\"addr:housename\"=>\"Victoria Gate\",\"addr:postcode\"=>\"LS2 7AR\",\"addr:street\"=>\"Harewood Street\",\"addr:unit\"=>\"29\",\"brand\"=>\"Calvin Klein\",\"brand:wikidata\"=>\"Q1068628\",\"brand:wikipedia\"=>\"en:Calvin Klein (company)\",\"level\"=>\"0\",\"shop\"=>\"clothes\"" }, "geometry": { "type": "Point", "coordinates": [ -1.5390489, 53.7979245 ] } },
	{ "type": "Feature", "properties": { "osm_id": "6001596332", "name": "Seasalt", "other_tags": "\"addr:city\"=>\"Leeds\",\"addr:housename\"=>\"Victoria Gate\",\"addr:postcode\"=>\"LS2 7AR\",\"addr:street\"=>\"Harewood Street\",\"addr:unit\"=>\"30\",\"level\"=>\"0\",\"shop\"=>\"clothes\"" }, "geometry": { "type": "Point", "coordinates": [ -1.5389121, 53.7979245 ] } },
	{ "type": "Feature", "properties": { "osm_id": "6001596336", "name": "Joules", "other_tags": "\"addr:city\"=>\"Leeds\",\"addr:housename\"=>\"Victoria Gate\",\"addr:postcode\"=>\"LS2 7AR\",\"addr:street\"=>\"Harewood Street\",\"addr:unit\"=>\"32\",\"brand\"=>\"Joules\",\"brand:wikidata\"=>\"Q25351738\",\"brand:wikipedia\"=>\"en:Joules (clothing)\",\"level\"=>\"0\",\"shop\"=>\"clothes\"" }, "geometry": { "type": "Point", "coordinates": [ -1.5386975, 53.7979293 ] } },
	{ "type": "Feature", "properties": { "osm_id": "6001596337", "name": "Honey Birdette", "other_tags": "\"addr:city\"=>\"Leeds\",\"addr:housename\"=>\"Victoria Gate\",\"addr:postcode\"=>\"LS2 7AR\",\"addr:street\"=>\"Harewood Street\",\"addr:unit\"=>\"25\",\"level\"=>\"0\",\"shop\"=>\"clothes\"" }, "geometry": { "type": "Point", "coordinates": [ -1.5384051, 53.798132 ] } },
	{ "type": "Feature", "properties": { "osm_id": "6001596338", "name": "Hackett", "other_tags": "\"addr:city\"=>\"Leeds\",\"addr:housename\"=>\"Victoria Gate\",\"addr:postcode\"=>\"LS2 7AR\",\"addr:street\"=>\"Harewood Street\",\"addr:unit\"=>\"7\",\"level\"=>\"0\",\"shop\"=>\"clothes\"" }, "geometry": { "type": "Point", "coordinates": [ -1.5381476, 53.7983934 ] } },
	{ "type": "Feature", "properties": { "osm_id": "6001596339", "name": "Gant", "other_tags": "\"addr:city\"=>\"Leeds\",\"addr:housename\"=>\"Victoria Gate\",\"addr:postcode\"=>\"LS2 7AR\",\"addr:street\"=>\"Harewood Street\",\"addr:unit\"=>\"33\",\"brand\"=>\"Gant\",\"brand:wikidata\"=>\"Q1493667\",\"brand:wikipedia\"=>\"en:Gant (retailer)\",\"level\"=>\"0\",\"shop\"=>\"clothes\"" }, "geometry": { "type": "Point", "coordinates": [ -1.5385848, 53.7979324 ] } },
	{ "type": "Feature", "properties": { "osm_id": "6001596340", "name": "& Other Stories", "other_tags": "\"addr:city\"=>\"Leeds\",\"addr:housename\"=>\"Victoria Gate\",\"addr:postcode\"=>\"LS2 7AR\",\"addr:street\"=>\"Harewood Street\",\"addr:unit\"=>\"35-36\",\"brand\"=>\"& Other Stories\",\"brand:wikidata\"=>\"Q85322338\",\"clothes\"=>\"women\",\"level\"=>\"0\",\"shop\"=>\"clothes\"" }, "geometry": { "type": "Point", "coordinates": [ -1.5382683, 53.7979419 ] } },
	{ "type": "Feature", "properties": { "osm_id": "6001596341", "name": "COS", "other_tags": "\"addr:city\"=>\"Leeds\",\"addr:housename\"=>\"Victoria Gate\",\"addr:postcode\"=>\"LS2 7AR\",\"addr:street\"=>\"Harewood Street\",\"addr:unit\"=>\"37-38\",\"brand\"=>\"COS\",\"brand:wikidata\"=>\"Q60772401\",\"brand:wikipedia\"=>\"en:COS (clothing)\",\"level\"=>\"0\",\"shop\"=>\"clothes\"" }, "geometry": { "type": "Point", "coordinates": [ -1.5381262, 53.7979483 ] } },
	{ "type": "Feature", "properties": { "osm_id": "6001596342", "name": "Anthropologie", "other_tags": "\"addr:city\"=>\"Leeds\",\"addr:housename\"=>\"Victoria Gate\",\"addr:postcode\"=>\"LS2 7AR\",\"addr:street\"=>\"Harewood Street\",\"addr:unit\"=>\"12-13\",\"brand\"=>\"Anthropologie\",\"brand:wikidata\"=>\"Q4773903\",\"brand:wikipedia\"=>\"en:Anthropologie\",\"clothes\"=>\"women\",\"level\"=>\"0\",\"shop\"=>\"clothes\"" }, "geometry": { "type": "Point", "coordinates": [ -1.5389738, 53.7983807 ] } },
	{ "type": "Feature", "properties": { "osm_id": "6001596344", "name": "Tommy Hilfiger", "other_tags": "\"addr:city\"=>\"Leeds\",\"addr:housename\"=>\"Victoria Gate\",\"addr:postcode\"=>\"LS2 7AR\",\"addr:street\"=>\"Harewood Street\",\"addr:unit\"=>\"28\",\"brand\"=>\"Tommy Hilfiger\",\"brand:wikidata\"=>\"Q634881\",\"brand:wikipedia\"=>\"en:Tommy Hilfiger (company)\",\"level\"=>\"0\",\"shop\"=>\"clothes\"" }, "geometry": { "type": "Point", "coordinates": [ -1.5391964, 53.7979324 ] } },
	{ "type": "Feature", "properties": { "osm_id": "6022849874", "name": "Luvyababes", "other_tags": "\"addr:city\"=>\"Leeds\",\"addr:housenumber\"=>\"90-92\",\"addr:postcode\"=>\"LS1 6AD\",\"addr:street\"=>\"Albion Street\",\"addr:unit\"=>\"1\",\"shop\"=>\"clothes\",\"website\"=>\"https:\/\/www.luvyababes.co.uk\/\"" }, "geometry": { "type": "Point", "coordinates": [ -1.5449001, 53.798917 ] } },
	{ "type": "Feature", "properties": { "osm_id": "6022849883", "name": "Oliver Bonas", "other_tags": "\"addr:city\"=>\"Leeds\",\"addr:housenumber\"=>\"50\",\"addr:postcode\"=>\"LS1 6AD\",\"addr:street\"=>\"Albion Street\",\"fhrs:id\"=>\"1101706\",\"shop\"=>\"clothes\"" }, "geometry": { "type": "Point", "coordinates": [ -1.5450329, 53.7976013 ] } },
	{ "type": "Feature", "properties": { "osm_id": "6022850189", "name": "Joy", "other_tags": "\"addr:city\"=>\"Leeds\",\"addr:housename\"=>\"Pinnacle\",\"addr:housenumber\"=>\"63-65\",\"addr:postcode\"=>\"LS1 5AA\",\"addr:street\"=>\"Albion Street\",\"shop\"=>\"clothes\"" }, "geometry": { "type": "Point", "coordinates": [ -1.5453386, 53.7978904 ] } },
	{ "type": "Feature", "properties": { "osm_id": "6022850194", "name": "New Look", "other_tags": "\"brand\"=>\"New Look\",\"brand:wikidata\"=>\"Q12063852\",\"brand:wikipedia\"=>\"en:New Look (company)\",\"shop\"=>\"clothes\"" }, "geometry": { "type": "Point", "coordinates": [ -1.545521, 53.796463 ] } },
	{ "type": "Feature", "properties": { "osm_id": "6022850204", "name": "Monsoon", "other_tags": "\"addr:city\"=>\"Leeds\",\"addr:housenumber\"=>\"28\",\"addr:postcode\"=>\"LS1 6EX\",\"addr:street\"=>\"Commercial Street\",\"brand\"=>\"Monsoon\",\"brand:wikidata\"=>\"Q65007501\",\"brand:wikipedia\"=>\"en:Monsoon Accessorize\",\"shop\"=>\"clothes\"" }, "geometry": { "type": "Point", "coordinates": [ -1.5448169, 53.7972623 ] } },
	{ "type": "Feature", "properties": { "osm_id": "6022850212", "name": "Accessorize", "other_tags": "\"addr:city\"=>\"Leeds\",\"addr:housenumber\"=>\"30\",\"addr:postcode\"=>\"LS1 6EX\",\"addr:street\"=>\"Commercial Street\",\"brand\"=>\"Accessorize\",\"brand:wikidata\"=>\"Q65007482\",\"brand:wikipedia\"=>\"en:Monsoon Accessorize\",\"shop\"=>\"clothes\"" }, "geometry": { "type": "Point", "coordinates": [ -1.5444455, 53.7972825 ] } },
	{ "type": "Feature", "properties": { "osm_id": "6022850239", "name": "Pebbles Hats", "other_tags": "\"addr:city\"=>\"Leeds\",\"addr:housenumber\"=>\"4\",\"addr:postcode\"=>\"LS1 6DX\",\"addr:street\"=>\"Central Arcade\",\"shop\"=>\"clothes\"" }, "geometry": { "type": "Point", "coordinates": [ -1.5417264, 53.7964452 ] } },
	{ "type": "Feature", "properties": { "osm_id": "6022850240", "name": "World Of Dance", "other_tags": "\"addr:city\"=>\"Leeds\",\"addr:housenumber\"=>\"3\",\"addr:postcode\"=>\"LS1 6DX\",\"addr:street\"=>\"Central Arcade\",\"shop\"=>\"clothes\"" }, "geometry": { "type": "Point", "coordinates": [ -1.5419446, 53.7964577 ] } },
	{ "type": "Feature", "properties": { "osm_id": "6022850268", "name": "Intrigue Fashion", "other_tags": "\"addr:city\"=>\"Leeds\",\"addr:housename\"=>\"Kirkgate Market\",\"addr:postcode\"=>\"LS2 7JE\",\"addr:street\"=>\"Kirkgate\",\"addr:unit\"=>\"405-409\",\"shop\"=>\"clothes\"" }, "geometry": { "type": "Point", "coordinates": [ -1.5384306, 53.7971882 ] } },
	{ "type": "Feature", "properties": { "osm_id": "6022850269", "other_tags": "\"shop\"=>\"clothes\"" }, "geometry": { "type": "Point", "coordinates": [ -1.5383652, 53.7971866 ] } },
	{ "type": "Feature", "properties": { "osm_id": "6022850272", "other_tags": "\"shop\"=>\"clothes\"" }, "geometry": { "type": "Point", "coordinates": [ -1.5386693, 53.7971991 ] } },
	{ "type": "Feature", "properties": { "osm_id": "6022850282", "other_tags": "\"shop\"=>\"clothes\"" }, "geometry": { "type": "Point", "coordinates": [ -1.5381037, 53.7971803 ] } },
	{ "type": "Feature", "properties": { "osm_id": "6022850391", "other_tags": "\"shop\"=>\"clothes\"" }, "geometry": { "type": "Point", "coordinates": [ -1.5377708, 53.7971688 ] } },
	{ "type": "Feature", "properties": { "osm_id": "6033885578", "name": "Next One Leather", "other_tags": "\"addr:city\"=>\"Leeds\",\"addr:housename\"=>\"Corn Exchange\",\"addr:postcode\"=>\"LS1 7BR\",\"addr:street\"=>\"Call Lane\",\"level\"=>\"1\",\"shop\"=>\"clothes\"" }, "geometry": { "type": "Point", "coordinates": [ -1.5401167, 53.7960647 ] } },
	{ "type": "Feature", "properties": { "osm_id": "6033886285", "name": "Precious Proms & Pearls", "other_tags": "\"addr:city\"=>\"Leeds\",\"addr:housename\"=>\"Corn Exchange\",\"addr:postcode\"=>\"LS1 7BR\",\"addr:street\"=>\"Call Lane\",\"level\"=>\"1\",\"shop\"=>\"clothes\",\"website\"=>\"https:\/\/www.promsandpearls.co.uk\/\"" }, "geometry": { "type": "Point", "coordinates": [ -1.5404846, 53.795979 ] } },
	{ "type": "Feature", "properties": { "osm_id": "6033886292", "name": "Soho's Leeds", "other_tags": "\"addr:city\"=>\"Leeds\",\"addr:housename\"=>\"Corn Exchange\",\"addr:postcode\"=>\"LS1 7BR\",\"addr:street\"=>\"Call Lane\",\"level\"=>\"0\",\"shop\"=>\"clothes\",\"website\"=>\"https:\/\/www.sohos.co.uk\/\"" }, "geometry": { "type": "Point", "coordinates": [ -1.539845, 53.7959143 ] } },
	{ "type": "Feature", "properties": { "osm_id": "6033886295", "name": "Mki Miyuki Zoku", "other_tags": "\"addr:housename\"=>\"Corn Exchange\",\"addr:postcode\"=>\"LS1 7BR\",\"addr:street\"=>\"Call Lane\",\"level\"=>\"0\",\"shop\"=>\"clothes\"" }, "geometry": { "type": "Point", "coordinates": [ -1.540227, 53.7961102 ] } },
	{ "type": "Feature", "properties": { "osm_id": "6033886296", "name": "All Blues Co", "other_tags": "\"addr:city\"=>\"Leeds\",\"addr:housename\"=>\"Corn Exchange\",\"addr:postcode\"=>\"LS1 7BR\",\"addr:street\"=>\"Call Lane\",\"level\"=>\"0\",\"shop\"=>\"clothes\"" }, "geometry": { "type": "Point", "coordinates": [ -1.540338, 53.7961146 ] } },
	{ "type": "Feature", "properties": { "osm_id": "6033886297", "name": "The Little Pink Wardrobe", "other_tags": "\"addr:city\"=>\"Leeds\",\"addr:housename\"=>\"Corn Exchange\",\"addr:postcode\"=>\"LS1 7BR\",\"addr:street\"=>\"Call Lane\",\"level\"=>\"0\",\"shop\"=>\"clothes\"" }, "geometry": { "type": "Point", "coordinates": [ -1.5404195, 53.7960988 ] } },
	{ "type": "Feature", "properties": { "osm_id": "6052531526", "name": "Evans", "other_tags": "\"brand\"=>\"Evans\",\"brand:wikidata\"=>\"Q5415877\",\"brand:wikipedia\"=>\"en:Evans (retailer)\",\"clothes\"=>\"women\",\"level\"=>\"0\",\"shop\"=>\"clothes\"" }, "geometry": { "type": "Point", "coordinates": [ -1.5745304, 53.7588759 ] } },
	{ "type": "Feature", "properties": { "osm_id": "6052531539", "name": "Monsoon", "other_tags": "\"brand\"=>\"Monsoon\",\"brand:wikidata\"=>\"Q65007501\",\"level\"=>\"0\",\"shop\"=>\"clothes\"" }, "geometry": { "type": "Point", "coordinates": [ -1.5744968, 53.7593401 ] } },
	{ "type": "Feature", "properties": { "osm_id": "6052531540", "name": "Accessorize", "other_tags": "\"brand\"=>\"Accessorize\",\"brand:wikidata\"=>\"Q65007482\",\"level\"=>\"0\",\"shop\"=>\"clothes\"" }, "geometry": { "type": "Point", "coordinates": [ -1.5745029, 53.7592574 ] } },
	{ "type": "Feature", "properties": { "osm_id": "6052531541", "name": "Burton", "other_tags": "\"brand\"=>\"Burton\",\"brand:wikidata\"=>\"Q5000795\",\"brand:wikipedia\"=>\"en:Burton (retailer)\",\"level\"=>\"0\",\"shop\"=>\"clothes\"" }, "geometry": { "type": "Point", "coordinates": [ -1.5745089, 53.7591748 ] } },
	{ "type": "Feature", "properties": { "osm_id": "6052531542", "name": "Esquire", "other_tags": "\"level\"=>\"0\",\"shop\"=>\"clothes\"" }, "geometry": { "type": "Point", "coordinates": [ -1.5745149, 53.7590921 ] } },
	{ "type": "Feature", "properties": { "osm_id": "6052531543", "name": "Topshop", "other_tags": "\"brand\"=>\"Topshop\",\"brand:wikidata\"=>\"Q1893576\",\"brand:wikipedia\"=>\"en:Topshop\",\"clothes\"=>\"women\",\"level\"=>\"0\",\"shop\"=>\"clothes\"" }, "geometry": { "type": "Point", "coordinates": [ -1.5745186, 53.7590022 ] } },
	{ "type": "Feature", "properties": { "osm_id": "6052531544", "name": "Jack Jones", "other_tags": "\"level\"=>\"0\",\"shop\"=>\"clothes\"" }, "geometry": { "type": "Point", "coordinates": [ -1.5745367, 53.7587876 ] } },
	{ "type": "Feature", "properties": { "osm_id": "6052531545", "name": "Tessuti", "other_tags": "\"level\"=>\"0\",\"shop\"=>\"clothes\"" }, "geometry": { "type": "Point", "coordinates": [ -1.5745431, 53.7586993 ] } },
	{ "type": "Feature", "properties": { "osm_id": "6052531548", "name": "Warehouse", "other_tags": "\"brand\"=>\"Warehouse\",\"brand:wikidata\"=>\"Q28135370\",\"level\"=>\"0\",\"shop\"=>\"clothes\"" }, "geometry": { "type": "Point", "coordinates": [ -1.5746042, 53.7584291 ] } },
	{ "type": "Feature", "properties": { "osm_id": "6052531554", "name": "Select", "other_tags": "\"level\"=>\"0\",\"shop\"=>\"clothes\"" }, "geometry": { "type": "Point", "coordinates": [ -1.574433, 53.757513 ] } },
	{ "type": "Feature", "properties": { "osm_id": "6052531558", "name": "Superdry", "other_tags": "\"brand\"=>\"Superdry\",\"brand:wikidata\"=>\"Q1684445\",\"brand:wikipedia\"=>\"en:Superdry\",\"level\"=>\"0\",\"shop\"=>\"clothes\"" }, "geometry": { "type": "Point", "coordinates": [ -1.5744391, 53.7574299 ] } },
	{ "type": "Feature", "properties": { "osm_id": "6052531562", "name": "Zara", "other_tags": "\"brand\"=>\"Zara\",\"brand:wikidata\"=>\"Q147662\",\"brand:wikipedia\"=>\"en:Zara (retailer)\",\"level\"=>\"0\",\"shop\"=>\"clothes\"" }, "geometry": { "type": "Point", "coordinates": [ -1.5742032, 53.7566435 ] } },
	{ "type": "Feature", "properties": { "osm_id": "6052531564", "name": "River Island", "other_tags": "\"brand\"=>\"River Island\",\"brand:wikidata\"=>\"Q2670328\",\"brand:wikipedia\"=>\"en:River Island\",\"level\"=>\"0\",\"shop\"=>\"clothes\"" }, "geometry": { "type": "Point", "coordinates": [ -1.5737674, 53.756596 ] } },
	{ "type": "Feature", "properties": { "osm_id": "6052531571", "name": "Oasis", "other_tags": "\"brand\"=>\"Oasis\",\"brand:wikidata\"=>\"Q64532852\",\"level\"=>\"0\",\"shop\"=>\"clothes\"" }, "geometry": { "type": "Point", "coordinates": [ -1.5740034, 53.7584132 ] } },
	{ "type": "Feature", "properties": { "osm_id": "6052531575", "name": "Primark", "other_tags": "\"brand\"=>\"Primark\",\"brand:wikidata\"=>\"Q137023\",\"brand:wikipedia\"=>\"en:Primark\",\"contact:website\"=>\"https:\/\/stores.primark.com\/united-kingdom\/leeds\/unit-4-white-rose-shopping-centre\",\"level\"=>\"0;1\",\"shop\"=>\"clothes\"" }, "geometry": { "type": "Point", "coordinates": [ -1.5736923, 53.757836 ] } },
	{ "type": "Feature", "properties": { "osm_id": "6052531585", "name": "Quiz", "other_tags": "\"brand\"=>\"Quiz\",\"brand:wikidata\"=>\"Q29995941\",\"brand:wikipedia\"=>\"en:Quiz (clothing)\",\"clothes\"=>\"women\",\"level\"=>\"0\",\"shop\"=>\"clothes\"" }, "geometry": { "type": "Point", "coordinates": [ -1.5741858, 53.7585639 ] } },
	{ "type": "Feature", "properties": { "osm_id": "6052531588", "name": "Next", "other_tags": "\"brand\"=>\"Next\",\"brand:wikidata\"=>\"Q246655\",\"brand:wikipedia\"=>\"en:Next plc\",\"level\"=>\"0;1\",\"shop\"=>\"clothes\"" }, "geometry": { "type": "Point", "coordinates": [ -1.5737432, 53.7587415 ] } },
	{ "type": "Feature", "properties": { "osm_id": "6052531590", "name": "Miss Selfridge", "other_tags": "\"brand\"=>\"Miss Selfridge\",\"brand:wikidata\"=>\"Q6877374\",\"brand:wikipedia\"=>\"en:Miss Selfridge\",\"clothes\"=>\"women\",\"level\"=>\"0\",\"shop\"=>\"clothes\"" }, "geometry": { "type": "Point", "coordinates": [ -1.5741456, 53.759044 ] } },
	{ "type": "Feature", "properties": { "osm_id": "6052531591", "name": "Boux Avenue", "other_tags": "\"brand\"=>\"Boux Avenue\",\"brand:wikidata\"=>\"Q4950489\",\"brand:wikipedia\"=>\"en:Boux Avenue\",\"clothes\"=>\"underwear\",\"level\"=>\"0\",\"shop\"=>\"clothes\"" }, "geometry": { "type": "Point", "coordinates": [ -1.5741389, 53.7591272 ] } },
	{ "type": "Feature", "properties": { "osm_id": "6052531592", "name": "H&M", "other_tags": "\"brand\"=>\"H&M\",\"brand:wikidata\"=>\"Q188326\",\"brand:wikipedia\"=>\"en:H&M\",\"level\"=>\"0\",\"shop\"=>\"clothes\"" }, "geometry": { "type": "Point", "coordinates": [ -1.5738808, 53.7592646 ] } },
	{ "type": "Feature", "properties": { "osm_id": "6052531595", "name": "Yours", "other_tags": "\"level\"=>\"0\",\"shop\"=>\"clothes\"" }, "geometry": { "type": "Point", "coordinates": [ -1.5741097, 53.7594906 ] } },
	{ "type": "Feature", "properties": { "osm_id": "6092510503", "name": "The Bridal House", "other_tags": "\"addr:city\"=>\"Leeds\",\"addr:housename\"=>\"Citispace\",\"addr:housenumber\"=>\"11\",\"addr:postcode\"=>\"LS2 7QN\",\"addr:street\"=>\"Regent Street\",\"addr:unit\"=>\"1\",\"shop\"=>\"clothes\"" }, "geometry": { "type": "Point", "coordinates": [ -1.5333223, 53.8025644 ] } },
	{ "type": "Feature", "properties": { "osm_id": "6101234050", "name": "Fat Face", "other_tags": "\"addr:city\"=>\"Leeds\",\"addr:housename\"=>\"The Springs\",\"addr:housenumber\"=>\"Unit 27\",\"addr:postcode\"=>\"LS15 8GG\",\"addr:street\"=>\"Thorpe Park Approach\",\"brand\"=>\"Fat Face\",\"brand:wikidata\"=>\"Q5437186\",\"brand:wikipedia\"=>\"en:Fat Face\",\"shop\"=>\"clothes\"" }, "geometry": { "type": "Point", "coordinates": [ -1.4240455, 53.7999096 ] } },
	{ "type": "Feature", "properties": { "osm_id": "6101234052", "name": "River Island", "other_tags": "\"addr:city\"=>\"Leeds\",\"addr:housename\"=>\"The Springs\",\"addr:housenumber\"=>\"Unit 25\",\"addr:postcode\"=>\"LS15 8GG\",\"addr:street\"=>\"Thorpe Park Approach\",\"brand\"=>\"River Island\",\"brand:wikidata\"=>\"Q2670328\",\"brand:wikipedia\"=>\"en:River Island\",\"shop\"=>\"clothes\"" }, "geometry": { "type": "Point", "coordinates": [ -1.4240446, 53.7996306 ] } },
	{ "type": "Feature", "properties": { "osm_id": "6101234053", "name": "Outfit", "other_tags": "\"addr:city\"=>\"Leeds\",\"addr:housename\"=>\"The Springs\",\"addr:housenumber\"=>\"Unit 24\",\"addr:postcode\"=>\"LS15 8GG\",\"addr:street\"=>\"Thorpe Park Approach\",\"brand\"=>\"Outfit\",\"brand:wikidata\"=>\"Q7112061\",\"brand:wikipedia\"=>\"en:Outfit (retailer)\",\"shop\"=>\"clothes\"" }, "geometry": { "type": "Point", "coordinates": [ -1.4240441, 53.7994681 ] } },
	{ "type": "Feature", "properties": { "osm_id": "6139531118", "name": "Cath Kidston", "other_tags": "\"addr:city\"=>\"Leeds\",\"addr:housenumber\"=>\"26\",\"addr:postcode\"=>\"LS1 6LB\",\"addr:street\"=>\"Lands Lane\",\"shop\"=>\"clothes\"" }, "geometry": { "type": "Point", "coordinates": [ -1.5433528, 53.7982743 ] } },
	{ "type": "Feature", "properties": { "osm_id": "6210514962", "name": "M&Co.", "other_tags": "\"shop\"=>\"clothes\"" }, "geometry": { "type": "Point", "coordinates": [ -1.6925886, 53.90509 ] } },
	{ "type": "Feature", "properties": { "osm_id": "6294180913", "name": "Clearance Outlet", "other_tags": "\"clothes\"=>\"women\",\"shop\"=>\"clothes\"" }, "geometry": { "type": "Point", "coordinates": [ -1.4519934, 53.8071202 ] } },
	{ "type": "Feature", "properties": { "osm_id": "6515446374", "name": "H&M", "other_tags": "\"addr:city\"=>\"Leeds\",\"addr:housename\"=>\"The Springs\",\"addr:housenumber\"=>\"Unit 5\",\"addr:postcode\"=>\"LS15 8GG\",\"addr:street\"=>\"Thorpe Park View\",\"addr:suburb\"=>\"Austhorpe\",\"brand\"=>\"H&M\",\"brand:wikidata\"=>\"Q188326\",\"brand:wikipedia\"=>\"en:H&M\",\"shop\"=>\"clothes\"" }, "geometry": { "type": "Point", "coordinates": [ -1.4239548, 53.80055 ] } },
	{ "type": "Feature", "properties": { "osm_id": "6600874643", "name": "Bridal Boutique", "other_tags": "\"addr:housenumber\"=>\"63\",\"addr:postcode\"=>\"WF10 1HH\",\"addr:street\"=>\"Bridge Street\",\"addr:town\"=>\"Castleford\",\"shop\"=>\"clothes\"" }, "geometry": { "type": "Point", "coordinates": [ -1.3481439, 53.7268088 ] } },
	{ "type": "Feature", "properties": { "osm_id": "6600874656", "name": "Bonmarché", "other_tags": "\"addr:housename\"=>\"Carlton Lanes Shopping Centre\",\"addr:postcode\"=>\"WF10 1AD\",\"addr:street\"=>\"Carlton Street\",\"addr:town\"=>\"Castleford\",\"addr:unit\"=>\"22\",\"brand\"=>\"Bonmarché\",\"brand:wikidata\"=>\"Q4942146\",\"brand:wikipedia\"=>\"en:Bonmarché\",\"shop\"=>\"clothes\"" }, "geometry": { "type": "Point", "coordinates": [ -1.3514345, 53.7255752 ] } },
	{ "type": "Feature", "properties": { "osm_id": "6600874659", "name": "New Look", "other_tags": "\"addr:housename\"=>\"Carlton Lanes Shopping Centre\",\"addr:postcode\"=>\"WF10 1AD\",\"addr:street\"=>\"Carlton Street\",\"addr:town\"=>\"Castleford\",\"addr:unit\"=>\"19\",\"brand\"=>\"New Look\",\"brand:wikidata\"=>\"Q12063852\",\"brand:wikipedia\"=>\"en:New Look (company)\",\"shop\"=>\"clothes\"" }, "geometry": { "type": "Point", "coordinates": [ -1.3508565, 53.725693 ] } },
	{ "type": "Feature", "properties": { "osm_id": "6600874668", "name": "Dorothy Perkins", "other_tags": "\"addr:housename\"=>\"Carlton Lanes Shopping Centre\",\"addr:postcode\"=>\"WF10 1AD\",\"addr:street\"=>\"Carlton Street\",\"addr:town\"=>\"Castleford\",\"addr:unit\"=>\"26\",\"brand\"=>\"Dorothy Perkins\",\"brand:wikidata\"=>\"Q5298588\",\"brand:wikipedia\"=>\"en:Dorothy Perkins\",\"shop\"=>\"clothes\"" }, "geometry": { "type": "Point", "coordinates": [ -1.3511119, 53.7259104 ] } },
	{ "type": "Feature", "properties": { "osm_id": "6600898390", "name": "Peacocks", "other_tags": "\"addr:housename\"=>\"Carlton Lanes Shopping Centre\",\"addr:postcode\"=>\"WF10 1AD\",\"addr:street\"=>\"Carlton Street\",\"addr:town\"=>\"Castleford\",\"addr:unit\"=>\"LRU1\",\"brand\"=>\"Peacocks\",\"brand:wikidata\"=>\"Q7157762\",\"brand:wikipedia\"=>\"en:Peacocks (clothing)\",\"shop\"=>\"clothes\"" }, "geometry": { "type": "Point", "coordinates": [ -1.3497152, 53.7259973 ] } },
	{ "type": "Feature", "properties": { "osm_id": "6600898401", "name": "Quirky Chic", "other_tags": "\"shop\"=>\"clothes\"" }, "geometry": { "type": "Point", "coordinates": [ -1.3521741, 53.7259592 ] } },
	{ "type": "Feature", "properties": { "osm_id": "6606798464", "other_tags": "\"addr:housename\"=>\"Market Hall\",\"addr:postcode\"=>\"WF8 1AU\",\"addr:street\"=>\"Market Place\",\"addr:town\"=>\"Pontefract\",\"addr:unit\"=>\"34-35\",\"shop\"=>\"clothes\"" }, "geometry": { "type": "Point", "coordinates": [ -1.3109297, 53.691837 ] } },
	{ "type": "Feature", "properties": { "osm_id": "6606798472", "name": "Little Stars", "other_tags": "\"addr:housename\"=>\"Market Hall\",\"addr:postcode\"=>\"WF8 1AU\",\"addr:street\"=>\"Market Place\",\"addr:town\"=>\"Pontefract\",\"addr:unit\"=>\"4\",\"shop\"=>\"clothes\"" }, "geometry": { "type": "Point", "coordinates": [ -1.3110805, 53.6917738 ] } },
	{ "type": "Feature", "properties": { "osm_id": "6606798480", "name": "Better & Bright", "other_tags": "\"addr:city\"=>\"Pontefract\",\"addr:housename\"=>\"Market Hall\",\"addr:postcode\"=>\"WF8 1AU\",\"addr:street\"=>\"Market Place\",\"addr:town\"=>\"Pontefract\",\"addr:unit\"=>\"12-13\",\"clothes\"=>\"school_uniform\",\"shop\"=>\"clothes\"" }, "geometry": { "type": "Point", "coordinates": [ -1.3109156, 53.6919047 ] } },
	{ "type": "Feature", "properties": { "osm_id": "6606842398", "name": "Bonmarché", "other_tags": "\"addr:housenumber\"=>\"4-5\",\"addr:postcode\"=>\"WF8 1BA\",\"addr:street\"=>\"Salter Row\",\"addr:town\"=>\"Pontefract\",\"brand\"=>\"Bonmarché\",\"brand:wikidata\"=>\"Q4942146\",\"brand:wikipedia\"=>\"en:Bonmarché\",\"shop\"=>\"clothes\"" }, "geometry": { "type": "Point", "coordinates": [ -1.3116351, 53.6919064 ] } },
	{ "type": "Feature", "properties": { "osm_id": "6606842399", "name": "Jon Barrie", "other_tags": "\"addr:housenumber\"=>\"7\",\"addr:postcode\"=>\"WF8 1BA\",\"addr:street\"=>\"Salter Row\",\"addr:town\"=>\"Pontefract\",\"shop\"=>\"clothes\"" }, "geometry": { "type": "Point", "coordinates": [ -1.3114996, 53.6919564 ] } },
	{ "type": "Feature", "properties": { "osm_id": "6606842415", "name": "PonteFashionOutlet", "other_tags": "\"addr:housenumber\"=>\"32\",\"addr:postcode\"=>\"WF8 1AT\",\"addr:street\"=>\"Market Place\",\"addr:town\"=>\"Pontefract\",\"shop\"=>\"clothes\"" }, "geometry": { "type": "Point", "coordinates": [ -1.3119154, 53.6913219 ] } },
	{ "type": "Feature", "properties": { "osm_id": "6606842417", "name": "Suzi's Boutique", "other_tags": "\"addr:housenumber\"=>\"6\",\"addr:postcode\"=>\"WF8 1AW\",\"addr:street\"=>\"Beastfair\",\"addr:town\"=>\"Pontefract\",\"shop\"=>\"clothes\",\"website\"=>\"https:\/\/www.suzisboutique.com\/\"" }, "geometry": { "type": "Point", "coordinates": [ -1.3122037, 53.6913942 ] } },
	{ "type": "Feature", "properties": { "osm_id": "6606842418", "name": "Affair Lingerie", "other_tags": "\"addr:city\"=>\"Pontefract\",\"addr:housenumber\"=>\"12\",\"addr:postcode\"=>\"WF8 1AW\",\"addr:street\"=>\"Beastfair\",\"addr:town\"=>\"Pontefract\",\"clothes\"=>\"women\",\"shop\"=>\"clothes\"" }, "geometry": { "type": "Point", "coordinates": [ -1.3124692, 53.6915351 ] } },
	{ "type": "Feature", "properties": { "osm_id": "6606842420", "name": "Virgo Boutique", "other_tags": "\"addr:housenumber\"=>\"20\",\"addr:postcode\"=>\"WF8 1AW\",\"addr:street\"=>\"Beastfair\",\"addr:town\"=>\"Pontefract\",\"shop\"=>\"clothes\"" }, "geometry": { "type": "Point", "coordinates": [ -1.3126302, 53.6916427 ] } },
	{ "type": "Feature", "properties": { "osm_id": "6606842446", "name": "Peacocks", "other_tags": "\"addr:housenumber\"=>\"17\",\"addr:postcode\"=>\"WF8 1AL\",\"addr:street\"=>\"Beastfair\",\"addr:town\"=>\"Pontefract\",\"brand\"=>\"Peacocks\",\"brand:wikidata\"=>\"Q7157762\",\"brand:wikipedia\"=>\"en:Peacocks (clothing)\",\"shop\"=>\"clothes\"" }, "geometry": { "type": "Point", "coordinates": [ -1.3126168, 53.6913338 ] } },
	{ "type": "Feature", "properties": { "osm_id": "6606842451", "name": "Ghia", "other_tags": "\"addr:housenumber\"=>\"2\",\"addr:postcode\"=>\"WF8 1LP\",\"addr:street\"=>\"Ropergate\",\"addr:town\"=>\"Pontefract\",\"shop\"=>\"clothes\"" }, "geometry": { "type": "Point", "coordinates": [ -1.3118403, 53.6908582 ] } },
	{ "type": "Feature", "properties": { "osm_id": "6606842464", "name": "1902", "other_tags": "\"addr:housenumber\"=>\"30\",\"addr:postcode\"=>\"WF8 1LY\",\"addr:street\"=>\"Ropergate\",\"addr:town\"=>\"Pontefract\",\"shop\"=>\"clothes\"" }, "geometry": { "type": "Point", "coordinates": [ -1.3130888, 53.6902244 ] } },
	{ "type": "Feature", "properties": { "osm_id": "6606842469", "name": "Boutique 38", "other_tags": "\"addr:housenumber\"=>\"38\",\"addr:postcode\"=>\"WF8 1LY\",\"addr:street\"=>\"Ropergate\",\"addr:town\"=>\"Pontefract\",\"shop\"=>\"clothes\"" }, "geometry": { "type": "Point", "coordinates": [ -1.3135368, 53.6899981 ] } },
	{ "type": "Feature", "properties": { "osm_id": "6606842481", "name": "Chris Atkinson", "other_tags": "\"addr:housenumber\"=>\"35\",\"addr:postcode\"=>\"WF8 1LG\",\"addr:street\"=>\"Ropergate\",\"addr:town\"=>\"Pontefract\",\"shop\"=>\"clothes\"" }, "geometry": { "type": "Point", "coordinates": [ -1.3129073, 53.690067 ] } },
	{ "type": "Feature", "properties": { "osm_id": "6606842489", "name": "Signature", "other_tags": "\"addr:housenumber\"=>\"13\",\"addr:postcode\"=>\"WF8 1LG\",\"addr:street\"=>\"Ropergate\",\"addr:town\"=>\"Pontefract\",\"shop\"=>\"clothes\"" }, "geometry": { "type": "Point", "coordinates": [ -1.3119873, 53.6905985 ] } },
	{ "type": "Feature", "properties": { "osm_id": "6606842496", "name": "Dorothy Perkins", "other_tags": "\"addr:housenumber\"=>\"35\",\"addr:postcode\"=>\"WF8 1AG\",\"addr:street\"=>\"Market Place\",\"addr:town\"=>\"Pontefract\",\"brand\"=>\"Dorothy Perkins\",\"brand:wikidata\"=>\"Q5298588\",\"brand:wikipedia\"=>\"en:Dorothy Perkins\",\"shop\"=>\"clothes\"" }, "geometry": { "type": "Point", "coordinates": [ -1.3110659, 53.6912983 ] } },
	{ "type": "Feature", "properties": { "osm_id": "6606842511", "name": "Purple Heart Gothic Clothing", "other_tags": "\"addr:housenumber\"=>\"9\",\"addr:postcode\"=>\"WF8 1PH\",\"addr:street\"=>\"Gillygate\",\"addr:town\"=>\"Pontefract\",\"shop\"=>\"clothes\"" }, "geometry": { "type": "Point", "coordinates": [ -1.3096367, 53.6917454 ] } },
	{ "type": "Feature", "properties": { "osm_id": "6611619544", "name": "Jamnian 1", "other_tags": "\"clothes\"=>\"children;school\",\"shop\"=>\"clothes\"" }, "geometry": { "type": "Point", "coordinates": [ -1.4415048, 53.8180795 ] } },
	{ "type": "Feature", "properties": { "osm_id": "6691869418", "name": "Redd Boutique", "other_tags": "\"addr:city\"=>\"Huddersfield\",\"addr:housenumber\"=>\"10\",\"addr:postcode\"=>\"HD1 2RT\",\"addr:street\"=>\"Pack Horse Walk\",\"shop\"=>\"clothes\"" }, "geometry": { "type": "Point", "coordinates": [ -1.781144, 53.6462273 ] } },
	{ "type": "Feature", "properties": { "osm_id": "6691869428", "name": "Greenwoods", "other_tags": "\"addr:city\"=>\"Huddersfield\",\"addr:street\"=>\"King Street\",\"shop\"=>\"clothes\"" }, "geometry": { "type": "Point", "coordinates": [ -1.7812822, 53.6458797 ] } },
	{ "type": "Feature", "properties": { "osm_id": "6711989286", "name": "Pink", "other_tags": "\"addr:city\"=>\"Huddersfield\",\"addr:street\"=>\"Kingsgate Centre\",\"brand\"=>\"Pink\",\"brand:wikidata\"=>\"Q20716793\",\"brand:wikipedia\"=>\"en:Pink (Victoria's Secret)\",\"clothes\"=>\"underwear;women\",\"shop\"=>\"clothes\"" }, "geometry": { "type": "Point", "coordinates": [ -1.7786932, 53.6460185 ] } },
	{ "type": "Feature", "properties": { "osm_id": "6799475467", "name": "Timberland", "other_tags": "\"brand\"=>\"Timberland\",\"brand:wikidata\"=>\"Q1539185\",\"brand:wikipedia\"=>\"en:The Timberland Company\",\"shop\"=>\"clothes\"" }, "geometry": { "type": "Point", "coordinates": [ -1.5450239, 53.7968602 ] } },
	{ "type": "Feature", "properties": { "osm_id": "6814594447", "name": "No 6", "other_tags": "\"shop\"=>\"clothes\"" }, "geometry": { "type": "Point", "coordinates": [ -1.3862672, 53.9278995 ] } },
	{ "type": "Feature", "properties": { "osm_id": "6814612367", "name": "Espada Boutique", "other_tags": "\"shop\"=>\"clothes\"" }, "geometry": { "type": "Point", "coordinates": [ -1.3858149, 53.9282198 ] } },
	{ "type": "Feature", "properties": { "osm_id": "6814632424", "name": "Kool Kidz", "other_tags": "\"shop\"=>\"clothes\"" }, "geometry": { "type": "Point", "coordinates": [ -1.3852858, 53.9299971 ] } },
	{ "type": "Feature", "properties": { "osm_id": "6814640926", "name": "Practically Perfect", "other_tags": "\"shop\"=>\"clothes\"" }, "geometry": { "type": "Point", "coordinates": [ -1.3862745, 53.9280382 ] } },
	{ "type": "Feature", "properties": { "osm_id": "6836914764", "name": "Joules", "other_tags": "\"shop\"=>\"clothes\"" }, "geometry": { "type": "Point", "coordinates": [ -1.8245612, 53.9249997 ] } },
	{ "type": "Feature", "properties": { "osm_id": "6836919225", "name": "The Fitting Room", "other_tags": "\"clothes:underwear\"=>\"yes\",\"shop\"=>\"clothes\"" }, "geometry": { "type": "Point", "coordinates": [ -1.8246549, 53.925002 ] } },
	{ "type": "Feature", "properties": { "osm_id": "6836944201", "name": "Herbert & Stella", "other_tags": "\"shop\"=>\"clothes\"" }, "geometry": { "type": "Point", "coordinates": [ -1.8239153, 53.9253285 ] } },
	{ "type": "Feature", "properties": { "osm_id": "6987611418", "name": "Topman", "other_tags": "\"addr:city\"=>\"Leeds\",\"addr:housenumber\"=>\"44\",\"addr:postcode\"=>\"LS1 6HD\",\"addr:street\"=>\"Briggate\",\"brand\"=>\"Topman\",\"brand:wikidata\"=>\"Q1090880\",\"brand:wikipedia\"=>\"en:Topman\",\"clothes\"=>\"men\",\"shop\"=>\"clothes\"" }, "geometry": { "type": "Point", "coordinates": [ -1.5427363, 53.7965512 ] } },
	{ "type": "Feature", "properties": { "osm_id": "7141868815", "name": "Nousa", "other_tags": "\"clothes\"=>\"women;wedding\",\"shop\"=>\"clothes\"" }, "geometry": { "type": "Point", "coordinates": [ -1.4653255, 53.7990113 ] } },
	{ "type": "Feature", "properties": { "osm_id": "7625005113", "name": "Edinburgh Woollen Mill", "other_tags": "\"brand\"=>\"Edinburgh Woollen Mill\",\"brand:wikidata\"=>\"Q16834657\",\"brand:wikipedia\"=>\"en:Edinburgh Woollen Mill\",\"shop\"=>\"clothes\"" }, "geometry": { "type": "Point", "coordinates": [ -1.3843162, 53.675004 ] } },
	{ "type": "Feature", "properties": { "osm_id": "7745186181", "name": "Fancy Pants", "other_tags": "\"shop\"=>\"clothes\"" }, "geometry": { "type": "Point", "coordinates": [ -1.3884934, 53.7960195 ] } },
	{ "type": "Feature", "properties": { "osm_id": "7745200185", "name": "SPT Uniform", "other_tags": "\"shop\"=>\"clothes\"" }, "geometry": { "type": "Point", "coordinates": [ -1.3885037, 53.7958273 ] } },
	{ "type": "Feature", "properties": { "osm_id": "7745200186", "name": "Broughton's Bridals", "other_tags": "\"clothes\"=>\"wedding\",\"shop\"=>\"clothes\"" }, "geometry": { "type": "Point", "coordinates": [ -1.3885084, 53.7957385 ] } },
	{ "type": "Feature", "properties": { "osm_id": "7746707298", "name": "Gap Outlet", "other_tags": "\"addr:city\"=>\"Castleford\",\"addr:housename\"=>\"Juction 32\",\"addr:postcode\"=>\"WF10 4FR\",\"addr:street\"=>\"Tomahawk Trail\",\"brand\"=>\"Gap\",\"brand:wikidata\"=>\"Q420822\",\"brand:wikipedia\"=>\"en:Gap Inc.\",\"clothes\"=>\"women;children;men\",\"shop\"=>\"clothes\"" }, "geometry": { "type": "Point", "coordinates": [ -1.3380488, 53.7122996 ] } },
	{ "type": "Feature", "properties": { "osm_id": "7746707299", "name": "Fat Face", "other_tags": "\"addr:city\"=>\"Castleford\",\"addr:postcode\"=>\"WF10 4FR\",\"addr:street\"=>\"Tomahawk Trail\",\"brand\"=>\"Fat Face\",\"brand:wikidata\"=>\"Q5437186\",\"brand:wikipedia\"=>\"en:Fat Face\",\"shop\"=>\"clothes\"" }, "geometry": { "type": "Point", "coordinates": [ -1.3386262, 53.7117321 ] } },
	{ "type": "Feature", "properties": { "osm_id": "7746707308", "name": "Nike Clearance Outlet", "other_tags": "\"brand\"=>\"Nike\",\"brand:wikidata\"=>\"Q483915\",\"brand:wikipedia\"=>\"en:Nike, Inc.\",\"shop\"=>\"clothes\"" }, "geometry": { "type": "Point", "coordinates": [ -1.3393496, 53.7114103 ] } },
	{ "type": "Feature", "properties": { "osm_id": "7746707310", "name": "Levi's", "other_tags": "\"addr:city\"=>\"Castleford\",\"addr:housename\"=>\"Unit 3. Jct 32 Shopping center\",\"addr:postcode\"=>\"WF10 4FR\",\"addr:street\"=>\"Tomahawk Trail\",\"brand\"=>\"Levi's\",\"brand:wikidata\"=>\"Q127962\",\"brand:wikipedia\"=>\"en:Levi Strauss & Co.\",\"clothes\"=>\"denim;men;women\",\"shop\"=>\"clothes\"" }, "geometry": { "type": "Point", "coordinates": [ -1.3395019, 53.7114701 ] } },
	{ "type": "Feature", "properties": { "osm_id": "7746707311", "name": "Barbour", "other_tags": "\"addr:city\"=>\"Castleford\",\"addr:housename\"=>\"Jct 32 shopping center\",\"addr:housenumber\"=>\"Unit 4\",\"addr:postcode\"=>\"WF10 4FR\",\"addr:street\"=>\"Tomahawk Trail\",\"clothes\"=>\"men;coats\",\"operator\"=>\"Barbour UK\",\"shop\"=>\"clothes\"" }, "geometry": { "type": "Point", "coordinates": [ -1.3395608, 53.7115518 ] } },
	{ "type": "Feature", "properties": { "osm_id": "7746707315", "name": "Ben Sherman", "other_tags": "\"addr:city\"=>\"Castleford\",\"addr:housename\"=>\"UJunction 32 Outlet Shopping Village\",\"addr:housenumber\"=>\"Unit 7\",\"addr:postcode\"=>\"WF10 4FR\",\"addr:street\"=>\"Tomahawk Trail\",\"payment:apple_pay\"=>\"yes\",\"payment:cash\"=>\"yes\",\"payment:coins\"=>\"yes\",\"payment:credit_cards\"=>\"yes\",\"payment:curve_card\"=>\"yes\",\"payment:debit_cards\"=>\"yes\",\"payment:google_pay\"=>\"yes\",\"shop\"=>\"clothes\"" }, "geometry": { "type": "Point", "coordinates": [ -1.3403699, 53.7119834 ] } },
	{ "type": "Feature", "properties": { "osm_id": "7750414695", "name": "Berwin And Berwin", "other_tags": "\"shop\"=>\"clothes\"" }, "geometry": { "type": "Point", "coordinates": [ -1.3379037, 53.7129176 ] } },
	{ "type": "Feature", "properties": { "osm_id": "7750414702", "name": "Moss Bros", "other_tags": "\"addr:city\"=>\"Castleford\",\"addr:housename\"=>\"Junction 32 Outlet Shopping Village\",\"addr:housenumber\"=>\"Unit 44\",\"addr:postcode\"=>\"WF10 4FR\",\"addr:street\"=>\"Tomahawk Trail\",\"brand\"=>\"Moss Bros\",\"brand:wikidata\"=>\"Q6916538\",\"brand:wikipedia\"=>\"en:Moss Bros Group\",\"clothes\"=>\"men\",\"opening_hours:covid19\"=>\"closed\",\"shop\"=>\"clothes\"" }, "geometry": { "type": "Point", "coordinates": [ -1.3373604, 53.7124527 ] } },
	{ "type": "Feature", "properties": { "osm_id": "7750414720", "name": "Blue Inc", "other_tags": "\"addr:city\"=>\"Castleford\",\"addr:housename\"=>\"Junction 32 Outlet Shopping Village\",\"addr:housenumber\"=>\"Unit 88\",\"addr:street\"=>\"Tomahawk Trail\",\"shop\"=>\"clothes\"" }, "geometry": { "type": "Point", "coordinates": [ -1.3384132, 53.7119038 ] } },
	{ "type": "Feature", "properties": { "osm_id": "7750414723", "name": "Select", "other_tags": "\"addr:city\"=>\"Castleford\",\"addr:housename\"=>\"Junction 32 Outlet Shopping Village\",\"addr:housenumber\"=>\"Unit 74\",\"addr:postcode\"=>\"WF10 4FR\",\"addr:street\"=>\"Tomahawk Trail\",\"opening_hours:covid19\"=>\"off\",\"shop\"=>\"clothes\"" }, "geometry": { "type": "Point", "coordinates": [ -1.3395289, 53.7128982 ] } },
	{ "type": "Feature", "properties": { "osm_id": "7750414727", "name": "Quiz", "other_tags": "\"addr:city\"=>\"Castleford\",\"addr:housename\"=>\"Junction 32 Outlet Shopping Village\",\"addr:housenumber\"=>\"Unit 51\",\"addr:postcode\"=>\"WF10 4FR\",\"addr:street\"=>\"Tomahawk Trail\",\"brand\"=>\"Quiz\",\"brand:wikidata\"=>\"Q29995941\",\"brand:wikipedia\"=>\"en:Quiz (clothing)\",\"clothes\"=>\"women\",\"opening_hours:covid19\"=>\"closed\",\"shop\"=>\"clothes\"" }, "geometry": { "type": "Point", "coordinates": [ -1.3378108, 53.7121644 ] } },
	{ "type": "Feature", "properties": { "osm_id": "7750414728", "name": "Jeff Banks", "other_tags": "\"addr:city\"=>\"Castleford\",\"addr:housename\"=>\"Junction 32 Outlet Shopping Village\",\"addr:housenumber\"=>\"Unit 52\",\"addr:postcode\"=>\"WF10 4FR\",\"addr:street\"=>\"Carr Wood Road\",\"clothes\"=>\"men\",\"opening_hours:covid19\"=>\"closed\",\"shop\"=>\"clothes\"" }, "geometry": { "type": "Point", "coordinates": [ -1.3378656, 53.712124 ] } },
	{ "type": "Feature", "properties": { "osm_id": "7750414729", "name": "Jack Wills", "other_tags": "\"addr:city\"=>\"Castleford\",\"addr:housename\"=>\"Junction 32 Outlet Shopping Village\",\"addr:housenumber\"=>\"Unit 52\",\"addr:postcode\"=>\"WF10 4FR\",\"addr:street\"=>\"Tomahawk Trail\",\"brand\"=>\"Jack Wills\",\"brand:wikidata\"=>\"Q6115814\",\"brand:wikipedia\"=>\"en:Jack Wills\",\"clothes\"=>\"women;men\",\"shop\"=>\"clothes\"" }, "geometry": { "type": "Point", "coordinates": [ -1.3379376, 53.7119772 ] } },
	{ "type": "Feature", "properties": { "osm_id": "7750414730", "name": "Billabong", "other_tags": "\"addr:city\"=>\"Castleford\",\"addr:housename\"=>\"Junction 32 Outlet Shopping Village\",\"addr:housenumber\"=>\"Unit 53\",\"addr:postcode\"=>\"WF10 4FR\",\"addr:street\"=>\"Tomahawk Trail\",\"brand\"=>\"Billabong\",\"brand:wikidata\"=>\"Q862718\",\"brand:wikipedia\"=>\"en:Billabong (clothing)\",\"clothes\"=>\"men;women\",\"shop\"=>\"clothes\"" }, "geometry": { "type": "Point", "coordinates": [ -1.3380091, 53.7119198 ] } },
	{ "type": "Feature", "properties": { "osm_id": "7750414746", "name": "Dickes", "other_tags": "\"addr:city\"=>\"Castleford\",\"addr:housename\"=>\"Junction 32 Outlet Shopping Village\",\"addr:housenumber\"=>\"Unit 72\",\"addr:postcode\"=>\"WF10 4SB\",\"addr:street\"=>\"Tomahawk Trail\",\"clothes\"=>\"workwear\",\"shop\"=>\"clothes\"" }, "geometry": { "type": "Point", "coordinates": [ -1.3385031, 53.7127633 ] } },
	{ "type": "Feature", "properties": { "osm_id": "7750414747", "name": "Klass", "other_tags": "\"addr:city\"=>\"Castleford\",\"addr:housename\"=>\"Junction 32 Outlet Shopping Village\",\"addr:housenumber\"=>\"Unit 65\",\"addr:postcode\"=>\"WF10 4FR\",\"addr:street\"=>\"Tomahawk Trail\",\"opening_hours:covid19\"=>\"restricted\",\"shop\"=>\"clothes\"" }, "geometry": { "type": "Point", "coordinates": [ -1.3396714, 53.7119738 ] } },
	{ "type": "Feature", "properties": { "osm_id": "7750414748", "name": "Mango Outlet", "other_tags": "\"addr:city\"=>\"Castleford\",\"addr:housename\"=>\"Junction 32 Outlet Shopping Village\",\"addr:housenumber\"=>\"Unit 66\",\"addr:postcode\"=>\"WF10 4FR\",\"addr:street\"=>\"Tomahawk Trail\",\"brand\"=>\"Mango\",\"brand:wikidata\"=>\"Q136503\",\"brand:wikipedia\"=>\"en:Mango (retailer)\",\"clothes\"=>\"women\",\"shop\"=>\"clothes\"" }, "geometry": { "type": "Point", "coordinates": [ -1.3397855, 53.7120155 ] } },
	{ "type": "Feature", "properties": { "osm_id": "7750414755", "name": "Reebok", "other_tags": "\"addr:city\"=>\"Castleford\",\"addr:housename\"=>\"Junction 32 Outlet Shopping Village\",\"addr:housenumber\"=>\"Unit 69\",\"addr:postcode\"=>\"WF10 4FR\",\"addr:street\"=>\"Tomahawk Trail\",\"brand\"=>\"Reebok\",\"brand:wikidata\"=>\"Q466183\",\"brand:wikipedia\"=>\"en:Reebok\",\"shop\"=>\"clothes\"" }, "geometry": { "type": "Point", "coordinates": [ -1.3401488, 53.712505 ] } },
	{ "type": "Feature", "properties": { "osm_id": null, "centroid": { "latitude": 53.681569, "longitude": -1.503515 }, "osm_way_id": "87266764", "name": "Unique Bridal", "building": "yes", "shop": "clothes", "other_tags": "\"addr:city\"=>\"Wakefield\",\"addr:housenumber\"=>\"105\",\"addr:postcode\"=>\"WF1 1EL\",\"addr:street\"=>\"Westgate\",\"takeaway\"=>\"yes\"" }, "geometry": { "type": "MultiPolygon", "coordinates": [ [ [ [ -1.5035226, 53.6815013 ], [ -1.5036021, 53.6816025 ], [ -1.5035225, 53.6816245 ], [ -1.5034759, 53.6816373 ], [ -1.5034279, 53.681576 ], [ -1.5034552, 53.6815685 ], [ -1.5034732, 53.6815636 ], [ -1.503497, 53.681557 ], [ -1.5034656, 53.681517 ], [ -1.5035226, 53.6815013 ] ] ] ] } },
	{ "type": "Feature", "properties": { "osm_id": null, "centroid": { "latitude": 53.702406, "longitude": -1.778698 }, "osm_way_id": "88397390", "name": "M&Co", "building": "yes", "shop": "clothes", "other_tags": "\"brand\"=>\"M&Co\",\"brand:wikidata\"=>\"Q6711808\",\"brand:wikipedia\"=>\"en:M&Co.\"" }, "geometry": { "type": "MultiPolygon", "coordinates": [ [ [ [ -1.7788828, 53.7023348 ], [ -1.7790493, 53.7023333 ], [ -1.7790479, 53.7024047 ], [ -1.779052, 53.7024593 ], [ -1.778898, 53.7024573 ], [ -1.7788895, 53.7024693 ], [ -1.77841, 53.7025276 ], [ -1.7783447, 53.7023472 ], [ -1.7787661, 53.7022909 ], [ -1.7788183, 53.7022836 ], [ -1.7788573, 53.7023388 ], [ -1.7788828, 53.7023348 ] ] ] ] } },
	{ "type": "Feature", "properties": { "osm_id": null, "centroid": { "latitude": 53.828593, "longitude": -1.712287 }, "osm_way_id": "89624038", "name": "Matalan", "building": "retail", "landuse": "retail", "shop": "clothes" }, "geometry": { "type": "MultiPolygon", "coordinates": [ [ [ [ -1.7129021, 53.8284212 ], [ -1.7125265, 53.8289635 ], [ -1.7116713, 53.8287759 ], [ -1.7120296, 53.8282234 ], [ -1.7129021, 53.8284212 ] ] ] ] } },
	{ "type": "Feature", "properties": { "osm_id": null, "centroid": { "latitude": 53.677426, "longitude": -1.495441 }, "osm_way_id": "97086040", "name": "Matalan", "building": "yes", "shop": "clothes", "other_tags": "\"addr:city\"=>\"Wakefield\",\"addr:housenumber\"=>\"Unit 8\",\"addr:postcode\"=>\"WF1 1RN\",\"addr:street\"=>\"Ings Road\",\"brand\"=>\"Matalan\",\"brand:wikidata\"=>\"Q12061509\",\"brand:wikipedia\"=>\"en:Matalan\"" },