{
"type": "FeatureCollection",
"crs": { "type": "name", "properties": { "name": "urn:ogc:def:crs:OGC:1.3:CRS84" } },
"features": [
	{ "type": "Feature", "properties": { "osm_id": "269423211", "name": "Ellis-Briggs", "other_tags": "\"shop\"=>\"bicycle\"" }, "geometry": { "type": "Point", "coordinates": [ -1.7750903, 53.8354109 ] } },
	{ "type": "Feature", "properties": { "osm_id": "298038844", "name": "Bob Jackson Cycles", "other_tags": "\"shop\"=>\"bicycle\"" }, "geometry": { "type": "Point", "coordinates": [ -1.6369796, 53.8065801 ] } },
	{ "type": "Feature", "properties": { "osm_id": "301022539", "name": "Woodrup Cycles", "other_tags": "\"shop\"=>\"bicycle\"" }, "geometry": { "type": "Point", "coordinates": [ -1.5842288, 53.806734 ] } },
	{ "type": "Feature", "properties": { "osm_id": "301118169", "name": "Highfield Cycles", "other_tags": "\"shop\"=>\"bicycle\"" }, "geometry": { "type": "Point", "coordinates": [ -1.7636725, 53.8054111 ] } },
	{ "type": "Feature", "properties": { "osm_id": "332646757", "name": "All Terrain", "other_tags": "\"addr:city\"=>\"Shipley\",\"addr:postcode\"=>\"BD18 3LA\",\"addr:village\"=>\"Saltaire\",\"name:en\"=>\"All Terrain Cycles\",\"opening_hours\"=>\"Mo-Sa 09:00-17:30; Su 11:00-17:00\",\"phone\"=>\"+44 1274 588488\",\"shop\"=>\"bicycle\",\"website\"=>\"https:\/\/allterraincycles.co.uk\/\"" }, "geometry": { "type": "Point", "coordinates": [ -1.7872772, 53.8380201 ] } },
	{ "type": "Feature", "properties": { "osm_id": "352872458", "name": "Re-Cycle Engineering", "other_tags": "\"addr:city\"=>\"Leeds\",\"addr:housenumber\"=>\"2\",\"addr:postcode\"=>\"LS6 1DU\",\"addr:street\"=>\"Norwood Mount\",\"phone\"=>\"+44 113 274 5229\",\"service:bicycle:repair\"=>\"yes\",\"service:bicycle:second_hand\"=>\"yes\",\"shop\"=>\"bicycle\",\"website\"=>\"http:\/\/www.rceuk.co.uk\/\"" }, "geometry": { "type": "Point", "coordinates": [ -1.5733851, 53.8141247 ] } },
	{ "type": "Feature", "properties": { "osm_id": "929116136", "name": "CyclePoint (Evans)", "other_tags": "\"shop\"=>\"bicycle\",\"addr:street\"=>\"New Station Street\",\"addr:housename\"=>\"Rotunda\"" }, "geometry": { "type": "Point", "coordinates": [ -1.5467836, 53.7952487 ] } },
	{ "type": "Feature", "properties": { "osm_id": "934826826", "name": "Evans Cycles", "other_tags": "\"brand\"=>\"Evans Cycles\",\"brand:wikidata\"=>\"Q5415901\",\"brand:wikipedia\"=>\"en:Evans Cycles\",\"shop\"=>\"bicycle\"" }, "geometry": { "type": "Point", "coordinates": [ -1.3404276, 53.7103872 ] } },
	{ "type": "Feature", "properties": { "osm_id": "959902785", "name": "Hebble End Coffee Lounge", "amenity": "cafe", "other_tags": "\"old_name\"=>\"Cycle Recycle\",\"outdoor_seating\"=>\"yes\",\"shop\"=>\"bicycle\"" }, "geometry": { "type": "Point", "coordinates": [ -2.0169142, 53.7404376 ] } },
	{ "type": "Feature", "properties": { "osm_id": "1237420516", "name": "Shay Cycles", "other_tags": "\"addr:city\"=>\"Halifax\",\"addr:country\"=>\"GB\",\"addr:housenumber\"=>\"44-46\",\"addr:postcode\"=>\"HX1 2LY\",\"addr:street\"=>\"South Parade\",\"shop\"=>\"bicycle\"" }, "geometry": { "type": "Point", "coordinates": [ -1.8571516, 53.7175902 ] } },
	{ "type": "Feature", "properties": { "osm_id": "1323779638", "name": "Drakes", "other_tags": "\"shop\"=>\"bicycle\",\"addr:street\"=>\"Harehills Lane\",\"addr:postcode\"=>\"LS8 5BD\",\"addr:housenumber\"=>\"148-150\"" }, "geometry": { "type": "Point", "coordinates": [ -1.514267, 53.8158286 ] } },
	{ "type": "Feature", "properties": { "osm_id": "1357774619", "name": "Edinburgh Bicycle Co-operative", "other_tags": "\"shop\"=>\"bicycle\",\"website\"=>\"http:\/\/www.edinburghbicycle.com\",\"addr:street\"=>\"140 Woodland Lane\",\"addr:postcode\"=>\"LS7 4QG\",\"addr:housenumber\"=>\"140\",\"service:bicycle:pump\"=>\"yes\",\"service:bicycle:repair\"=>\"yes\",\"service:bicycle:retail\"=>\"yes\"" }, "geometry": { "type": "Point", "coordinates": [ -1.5379441, 53.832727 ] } },
	{ "type": "Feature", "properties": { "osm_id": "1414445060", "other_tags": "\"shop\"=>\"bicycle\"" }, "geometry": { "type": "Point", "coordinates": [ -2.102269, 53.71015 ] } },
	{ "type": "Feature", "properties": { "osm_id": "1479082621", "name": "Garage Bikes", "other_tags": "\"addr:housenumber\"=>\"15\",\"addr:postcode\"=>\"LS27 9AA\",\"addr:street\"=>\"Fountain Street\",\"shop\"=>\"bicycle\",\"website\"=>\"www.garagebikes.co.uk\"" }, "geometry": { "type": "Point", "coordinates": [ -1.6004447, 53.7429496 ] } },
	{ "type": "Feature", "properties": { "osm_id": "1680671086", "name": "Try Cycling", "other_tags": "\"shop\"=>\"bicycle\"" }, "geometry": { "type": "Point", "coordinates": [ -1.7099115, 53.6142281 ] } },
	{ "type": "Feature", "properties": { "osm_id": "2157985597", "name": "Cycle Republic", "other_tags": "\"brand\"=>\"Cycle Republic\",\"brand:wikidata\"=>\"Q65042920\",\"brand:wikipedia\"=>\"en:Cycle Republic\",\"service:bicycle:repair\"=>\"yes\",\"service:bicycle:retail\"=>\"yes\",\"shop\"=>\"bicycle\"" }, "geometry": { "type": "Point", "coordinates": [ -1.5487091, 53.7977269 ] } },
	{ "type": "Feature", "properties": { "osm_id": "2430356585", "name": "Holy Spokes", "other_tags": "\"addr:city\"=>\"Leeds\",\"addr:housenumber\"=>\"2\",\"addr:postcode\"=>\"LS18 4RF\",\"addr:street\"=>\"Back Lane\",\"addr:suburb\"=>\"Horsforth\",\"phone\"=>\"+44 113 2581318\",\"shop\"=>\"bicycle\",\"website\"=>\"http:\/\/www.holyspokes.co.uk\/\"" }, "geometry": { "type": "Point", "coordinates": [ -1.6429433, 53.8362131 ] } },
	{ "type": "Feature", "properties": { "osm_id": "2459851978", "name": "PedalSport", "other_tags": "\"addr:city\"=>\"Halifax\",\"addr:housenumber\"=>\"193 -195\",\"addr:postcode\"=>\"HX1 3LN\",\"addr:street\"=>\"King Cross Road\",\"opening_hours\"=>\"Mo 09:30-17:30; Tu 09:30-17:30; We off; Th 09:30-17:30; Fr 09:30-18:00; Sa 09:30-16:00; Su off\",\"phone\"=>\"+44 1422 361460\",\"shop\"=>\"bicycle\"" }, "geometry": { "type": "Point", "coordinates": [ -1.8797291, 53.715639 ] } },
	{ "type": "Feature", "properties": { "osm_id": "2773417180", "name": "Cycle Gear", "other_tags": "\"addr:city\"=>\"Halifax\",\"addr:country\"=>\"GB\",\"addr:housenumber\"=>\"68\",\"addr:postcode\"=>\"HX1 1QE\",\"addr:street\"=>\"Horton Street\",\"operator\"=>\"Independent\",\"shop\"=>\"bicycle\",\"website\"=>\"http:\/\/www.ukbikesdepot.com\/\"" }, "geometry": { "type": "Point", "coordinates": [ -1.8564518, 53.7209987 ] } },
	{ "type": "Feature", "properties": { "osm_id": "3336429603", "name": "Pedallers Arms", "other_tags": "\"addr:city\"=>\"Leeds\",\"addr:housenumber\"=>\"37\",\"addr:postcode\"=>\"LS9 7DS\",\"addr:street\"=>\"Mabgate Green\",\"opening_hours\"=>\"Mo,We,Th 16:00-20:00\",\"service:bicycle:diy\"=>\"yes\",\"service:bicycle:retail\"=>\"no\",\"shop\"=>\"bicycle\",\"website\"=>\"https:\/\/pedallers-arms.org\/\"" }, "geometry": { "type": "Point", "coordinates": [ -1.5327711, 53.8006988 ] } },
	{ "type": "Feature", "properties": { "osm_id": "3636152213", "name": "Kings of Cycling", "other_tags": "\"shop\"=>\"bicycle\"" }, "geometry": { "type": "Point", "coordinates": [ -1.5054249, 53.7997931 ] } },
	{ "type": "Feature", "properties": { "osm_id": "4146424481", "name": "Wetherby Bike Shack", "other_tags": "\"addr:housenumber\"=>\"9\",\"addr:postcode\"=>\"LS22 6JG\",\"addr:street\"=>\"Horsefair\",\"shop\"=>\"bicycle\",\"website\"=>\"https:\/\/wetherbybikeshack.co.uk\/\"" }, "geometry": { "type": "Point", "coordinates": [ -1.3846394, 53.9283573 ] } },
	{ "type": "Feature", "properties": { "osm_id": "4237449490", "name": "Cycle Surgery", "other_tags": "\"shop\"=>\"bicycle\"" }, "geometry": { "type": "Point", "coordinates": [ -1.5434306, 53.7979407 ] } },
	{ "type": "Feature", "properties": { "osm_id": "4410553673", "name": "Life Cycles Bike Shop", "amenity": "bicycle_repair_station", "other_tags": "\"shop\"=>\"bicycle\"" }, "geometry": { "type": "Point", "coordinates": [ -1.5964461, 53.7935115 ] } }
]
}
