{
"type": "FeatureCollection",
"crs": { "type": "name", "properties": { "name": "urn:ogc:def:crs:OGC:1.3:CRS84" } },
"features": [
	{ "type": "Feature", "properties": { "osm_id": "602084", "name": "Wakefield Bus Station", "amenity": "bus_station", "other_tags": "\"bus\"=>\"yes\",\"public_transport\"=>\"station\"" }, "geometry": { "type": "Point", "coordinates": [ -1.4973846, 53.6856482 ] } },
	{ "type": "Feature", "properties": { "osm_id": "27476330", "name": "Wetherby", "amenity": "bus_station", "other_tags": "\"bus\"=>\"yes\",\"public_transport\"=>\"station\",\"wikidata\"=>\"Q7990090\"" }, "geometry": { "type": "Point", "coordinates": [ -1.3866108, 53.927223 ] } },
	{ "type": "Feature", "properties": { "osm_id": "244322427", "name": "Infirmary Street", "amenity": "bus_station", "other_tags": "\"bus\"=>\"yes\",\"public_transport\"=>\"station\"" }, "geometry": { "type": "Point", "coordinates": [ -1.5487666, 53.7975594 ] } },
	{ "type": "Feature", "properties": { "osm_id": "244322524", "name": "Leeds Station Interchange", "amenity": "bus_station", "other_tags": "\"addr:street\"=>\"New Station Street\",\"bus\"=>\"yes\",\"public_transport\"=>\"station\"" }, "geometry": { "type": "Point", "coordinates": [ -1.5470966, 53.7953115 ] } },
	{ "type": "Feature", "properties": { "osm_id": "286850530", "name": "Ossett Bus Station", "amenity": "bus_station" }, "geometry": { "type": "Point", "coordinates": [ -1.578196, 53.6808053 ] } },
	{ "type": "Feature", "properties": { "osm_id": "296022252", "name": "Bramley Bus Point", "amenity": "bus_station" }, "geometry": { "type": "Point", "coordinates": [ -1.6266548, 53.8108969 ] } },
	{ "type": "Feature", "properties": { "osm_id": "496741580", "name": "Birkdale Road Dewsbury College", "amenity": "bus_station", "other_tags": "\"local_ref\"=>\"45050403\",\"naptan:AtcoCode\"=>\"450050403\",\"naptan:Bearing\"=>\"E\",\"naptan:BusStopType\"=>\"CUS\",\"naptan:CommonName\"=>\"Birkdale Road Dewsbury College\",\"naptan:Indicator\"=>\"Stop 45050403\",\"naptan:PlusbusZoneRef\"=>\"LEEDS\",\"naptan:ShortCommonName\"=>\"Birkdale High Sch\",\"naptan:Street\"=>\"Birkdale Road\",\"physically_present\"=>\"opposite\"" }, "geometry": { "type": "Point", "coordinates": [ -1.6415934, 53.6981502 ] } },
	{ "type": "Feature", "properties": { "osm_id": "1710544895", "name": "Holmfirth High Bus Station", "amenity": "bus_station" }, "geometry": { "type": "Point", "coordinates": [ -1.7725337, 53.5836159 ] } },
	{ "type": "Feature", "properties": { "osm_id": "1710545154", "name": "Old Fieldhouse Lane Depot", "amenity": "bus_station", "other_tags": "\"building\"=>\"warehouse\",\"bus\"=>\"yes\",\"designation\"=>\"First Group\",\"public_transport\"=>\"station\"" }, "geometry": { "type": "Point", "coordinates": [ -1.7615244, 53.6639185 ] } },
	{ "type": "Feature", "properties": { "osm_id": "2408717773", "name": "Kirkgate Coach Stop (Megabus)", "amenity": "bus_station", "other_tags": "\"bus\"=>\"yes\",\"public_transport\"=>\"station\"" }, "geometry": { "type": "Point", "coordinates": [ -1.5372036, 53.7955942 ] } }
]
}
