{
"type": "FeatureCollection",
"crs": { "type": "name", "properties": { "name": "urn:ogc:def:crs:OGC:1.3:CRS84" } },
"features": [
	{ "type": "Feature", "properties": { "osm_id": "27475941", "amenity": "cafe" }, "geometry": { "type": "Point", "coordinates": [ -1.3846059, 53.9289794 ] } },
	{ "type": "Feature", "properties": { "osm_id": "27476848", "amenity": "cafe" }, "geometry": { "type": "Point", "coordinates": [ -1.3946322, 53.9209841 ] } },
	{ "type": "Feature", "properties": { "osm_id": "27476849", "amenity": "cafe" }, "geometry": { "type": "Point", "coordinates": [ -1.3958678, 53.9186914 ] } },
	{ "type": "Feature", "properties": { "osm_id": "28096521", "name": "Little Corner Cafe", "amenity": "cafe", "other_tags": "\"fhrs:id\"=>\"831719\",\"addr:town\"=>\"Otley\",\"is_in:town\"=>\"Otley\",\"addr:street\"=>\"Boroughgate\",\"addr:postcode\"=>\"LS21 3AG\",\"addr:housenumber\"=>\"7\"" }, "geometry": { "type": "Point", "coordinates": [ -1.6930075, 53.9056146 ] } },
	{ "type": "Feature", "properties": { "osm_id": "28096525", "name": "The Dales Cafe", "amenity": "cafe", "other_tags": "\"fhrs:id\"=>\"321702\",\"addr:city\"=>\"Otley\",\"addr:street\"=>\"Market Street\",\"source:addr\"=>\"FHRS Open Data\",\"addr:postcode\"=>\"LS21 3AF\",\"addr:housenumber\"=>\"23\"" }, "geometry": { "type": "Point", "coordinates": [ -1.6922928, 53.9055068 ] } },
	{ "type": "Feature", "properties": { "osm_id": "28138852", "name": "Cow & Calf Hotel", "amenity": "cafe", "other_tags": "\"description\"=>\"Tea, coffee, crisps etc only\"" }, "geometry": { "type": "Point", "coordinates": [ -1.8001808, 53.9165889 ] } },
	{ "type": "Feature", "properties": { "osm_id": "28151847", "name": "Palm Court Tea Rooms", "amenity": "cafe" }, "geometry": { "type": "Point", "coordinates": [ -1.8254167, 53.9260054 ] } },
	{ "type": "Feature", "properties": { "osm_id": "28164051", "name": "The James Clarke Foley Centre", "amenity": "cafe", "other_tags": "\"fhrs:id\"=>\"326762\",\"addr:city\"=>\"Ilkley\",\"addr:street\"=>\"Cunliffe Road\",\"description\"=>\"Centre for the Over 50s\",\"source:addr\"=>\"FHRS Open Data\",\"addr:postcode\"=>\"LS29 9DZ\"" }, "geometry": { "type": "Point", "coordinates": [ -1.8265221, 53.9252969 ] } },
	{ "type": "Feature", "properties": { "osm_id": "28164099", "name": "The Wells Cafe\/Bistro", "amenity": "cafe", "other_tags": "\"fhrs:id\"=>\"327282\",\"addr:city\"=>\"Ilkley\",\"addr:street\"=>\"Wells Road\",\"source:addr\"=>\"FHRS Open Data\",\"addr:postcode\"=>\"LS29 9JB\",\"addr:housenumber\"=>\"7\"" }, "geometry": { "type": "Point", "coordinates": [ -1.8225512, 53.9240938 ] } },
	{ "type": "Feature", "properties": { "osm_id": "28171658", "name": "Costa", "amenity": "cafe", "other_tags": "\"addr:city\"=>\"Ilkley\",\"addr:housenumber\"=>\"14\",\"addr:postcode\"=>\"LS29 8DE\",\"addr:street\"=>\"Brook Street\",\"brand\"=>\"Costa\",\"brand:wikidata\"=>\"Q608845\",\"brand:wikipedia\"=>\"en:Costa Coffee\",\"cuisine\"=>\"coffee_shop\",\"fhrs:id\"=>\"326658\",\"source:addr\"=>\"FHRS Open Data\",\"takeaway\"=>\"yes\"" }, "geometry": { "type": "Point", "coordinates": [ -1.8231451, 53.9252564 ] } },
	{ "type": "Feature", "properties": { "osm_id": "28196525", "name": "Big Catch", "amenity": "cafe", "other_tags": "\"cuisine\"=>\"fish_and_chips\"" }, "geometry": { "type": "Point", "coordinates": [ -1.8232209, 53.9265275 ] } },
	{ "type": "Feature", "properties": { "osm_id": "28196531", "name": "The Oasis", "amenity": "cafe" }, "geometry": { "type": "Point", "coordinates": [ -1.8247793, 53.9263949 ] } },
	{ "type": "Feature", "properties": { "osm_id": "28215219", "name": "Bettys Cafe Tea Rooms", "amenity": "cafe", "other_tags": "\"cuisine\"=>\"tea_shop\",\"fhrs:id\"=>\"327238\",\"addr:city\"=>\"Ilkley\",\"addr:street\"=>\"The Grove\",\"description\"=>\"THE place to have tea in Ilkley ... but you pay the price\",\"source:addr\"=>\"FHRS Open Data\",\"addr:postcode\"=>\"LS29 9EE\",\"addr:housenumber\"=>\"32-34\"" }, "geometry": { "type": "Point", "coordinates": [ -1.8254293, 53.9246905 ] } },
	{ "type": "Feature", "properties": { "osm_id": "28215235", "name": "Willy Mossop's Food & Drinkery", "amenity": "cafe" }, "geometry": { "type": "Point", "coordinates": [ -1.8270204, 53.9247538 ] } },
	{ "type": "Feature", "properties": { "osm_id": "28903049", "name": "The Rumblin Tum", "amenity": "cafe", "other_tags": "\"addr:city\"=>\"Otley\",\"addr:housenumber\"=>\"9\",\"addr:postcode\"=>\"LS21 3AJ\",\"addr:street\"=>\"Newmarket\",\"fhrs:id\"=>\"320844\",\"is_in:town\"=>\"Otley\",\"phone\"=>\"01943 850484\",\"source:addr\"=>\"FHRS Open Data\"" }, "geometry": { "type": "Point", "coordinates": [ -1.6933455, 53.9050391 ] } },
	{ "type": "Feature", "properties": { "osm_id": "29563631", "name": "The Cafe And Bistro At Thorp Arch", "amenity": "cafe", "other_tags": "\"fhrs:id\"=>\"320839\",\"addr:town\"=>\"Wetherby\",\"addr:unit\"=>\"Unit 9 7 A Thorp Arch Retail Park\",\"addr:street\"=>\"Thorp Arch Estate\",\"addr:postcode\"=>\"LS23 7FE\"" }, "geometry": { "type": "Point", "coordinates": [ -1.3202803, 53.9110594 ] } },
	{ "type": "Feature", "properties": { "osm_id": "33072804", "amenity": "cafe" }, "geometry": { "type": "Point", "coordinates": [ -1.8286394, 53.9285046 ] } },
	{ "type": "Feature", "properties": { "osm_id": "42397281", "name": "Cafe In The Campus", "amenity": "cafe", "other_tags": "\"fhrs:id\"=>\"321436\",\"old_name\"=>\"Adams Lodge\",\"addr:street\"=>\"Seminary Street\",\"postal_code\"=>\"LS2 9NH\",\"addr:postcode\"=>\"LS2 9NH\"" }, "geometry": { "type": "Point", "coordinates": [ -1.556595, 53.8045824 ] } },
	{ "type": "Feature", "properties": { "osm_id": "44969921", "name": "Starbucks", "amenity": "cafe", "other_tags": "\"brand\"=>\"Starbucks\",\"cuisine\"=>\"coffee_shop\",\"fhrs:id\"=>\"871565\",\"takeaway\"=>\"yes\",\"addr:city\"=>\"Leeds\",\"addr:street\"=>\"Albion Street\",\"addr:postcode\"=>\"LS1 6AB\",\"official_name\"=>\"Starbucks Coffee\",\"brand:wikidata\"=>\"Q37158\",\"brand:wikipedia\"=>\"en:Starbucks\",\"addr:housenumber\"=>\"48\"" }, "geometry": { "type": "Point", "coordinates": [ -1.5450317, 53.7974635 ] } },
	{ "type": "Feature", "properties": { "osm_id": "54070619", "name": "Opposite", "amenity": "cafe", "other_tags": "\"fhrs:id\"=>\"1007026\",\"addr:street\"=>\"Blenheim Terrace\",\"addr:postcode\"=>\"LS2 9HD\",\"opening_hours\"=>\"Mo-Fr 08:00-18:00; Sa 09:00-17:00\",\"contact:website\"=>\"http:\/\/www.oppositecafe.co.uk\/\",\"addr:housenumber\"=>\"26\"" }, "geometry": { "type": "Point", "coordinates": [ -1.5516371, 53.8076474 ] } },
	{ "type": "Feature", "properties": { "osm_id": "59745954", "amenity": "cafe" }, "geometry": { "type": "Point", "coordinates": [ -1.322075, 53.7787568 ] } },
	{ "type": "Feature", "properties": { "osm_id": "244138966", "name": "Carnegie Cafe Bar", "amenity": "cafe", "other_tags": "\"layer\"=>\"1\",\"fhrs:id\"=>\"564204\",\"addr:city\"=>\"Leeds\",\"addr:street\"=>\"St Michaels Lane\",\"addr:suburb\"=>\"Headingley\",\"addr:postcode\"=>\"LS6 3BR\",\"addr:housename\"=>\"Headingley Carnegie Stadium\"" }, "geometry": { "type": "Point", "coordinates": [ -1.5805078, 53.816794 ] } },
	{ "type": "Feature", "properties": { "osm_id": "250250967", "name": "Branch Cafe", "amenity": "cafe" }, "geometry": { "type": "Point", "coordinates": [ -1.5878765, 53.7978665 ] } },
	{ "type": "Feature", "properties": { "osm_id": "250756721", "name": "CULTO", "amenity": "cafe", "other_tags": "\"fhrs:id\"=>\"847983\",\"addr:city\"=>\"Leeds\",\"addr:street\"=>\"Stainbeck Road\",\"addr:suburb\"=>\"Meanwood\",\"addr:postcode\"=>\"LS7 2PR\",\"addr:housenumber\"=>\"97-99\"" }, "geometry": { "type": "Point", "coordinates": [ -1.5553977, 53.831135 ] } },
	{ "type": "Feature", "properties": { "osm_id": "271669476", "name": "Leeds House Café", "amenity": "cafe", "other_tags": "\"fhrs:id\"=>\"320897\",\"addr:town\"=>\"Otley\",\"addr:street\"=>\"Market Place\",\"addr:postcode\"=>\"LS21 3AQ\"" }, "geometry": { "type": "Point", "coordinates": [ -1.6940363, 53.9055441 ] } },
	{ "type": "Feature", "properties": { "osm_id": "277519667", "name": "Caring For Life - Crag House Farm", "amenity": "cafe", "other_tags": "\"fhrs:id\"=>\"320371\",\"website\"=>\"https:\/\/www.caringforlife.co.uk\/\",\"addr:street\"=>\"Otley Old Road\",\"addr:postcode\"=>\"LS16 7NH\",\"addr:housename\"=>\"Crag House Farm\"" }, "geometry": { "type": "Point", "coordinates": [ -1.6282906, 53.8670781 ] } },
	{ "type": "Feature", "properties": { "osm_id": "278811569", "name": "Costa", "amenity": "cafe", "other_tags": "\"addr:postcode\"=>\"WF4 4LQ\",\"brand\"=>\"Costa\",\"brand:wikidata\"=>\"Q608845\",\"brand:wikipedia\"=>\"en:Costa Coffee\",\"cuisine\"=>\"coffee_shop\",\"fhrs:id\"=>\"284886\",\"takeaway\"=>\"yes\"" }, "geometry": { "type": "Point", "coordinates": [ -1.5454144, 53.6222384 ] } },
	{ "type": "Feature", "properties": { "osm_id": "286705269", "amenity": "cafe" }, "geometry": { "type": "Point", "coordinates": [ -1.5739116, 53.6866853 ] } },
	{ "type": "Feature", "properties": { "osm_id": "288339925", "name": "Slip's Deli", "amenity": "cafe", "other_tags": "\"cuisine\"=>\"sandwich\",\"fhrs:id\"=>\"778674\",\"addr:city\"=>\"Leeds\",\"addr:street\"=>\"Cardigan Road\",\"addr:postcode\"=>\"LS6 1LU\",\"addr:housenumber\"=>\"121a\"" }, "geometry": { "type": "Point", "coordinates": [ -1.5758418, 53.8118527 ] } },
	{ "type": "Feature", "properties": { "osm_id": "293547743", "name": "Bramley Cafe", "amenity": "cafe", "other_tags": "\"addr:city\"=>\"Leeds\",\"addr:housenumber\"=>\"156\",\"addr:postcode\"=>\"LS13 3AD\",\"addr:street\"=>\"Stanningley Road\",\"fhrs:id\"=>\"1292539\",\"old_name\"=>\"Daisy Cafe\"" }, "geometry": { "type": "Point", "coordinates": [ -1.6263443, 53.80577 ] } },
	{ "type": "Feature", "properties": { "osm_id": "295408682", "name": "Java Coffee Bar & Deli", "amenity": "cafe", "other_tags": "\"fhrs:id\"=>\"1099903\",\"addr:town\"=>\"Otley\",\"addr:unit\"=>\"13-14\",\"is_in:town\"=>\"Otley\",\"addr:street\"=>\"Kirkgate\",\"postal_code\"=>\"LS21 3HW\",\"addr:postcode\"=>\"LS21 3HW\",\"addr:housename\"=>\"Kirkgate Arcade\"" }, "geometry": { "type": "Point", "coordinates": [ -1.6946764, 53.9045759 ] } },
	{ "type": "Feature", "properties": { "osm_id": "295416803", "name": "The Cove Restaurant", "amenity": "cafe", "other_tags": "\"cuisine\"=>\"fish_and_chips\",\"addr:city\"=>\"Otley\",\"is_in:town\"=>\"Otley\",\"addr:street\"=>\"Bridge Street\",\"addr:country\"=>\"GB\",\"addr:postcode\"=>\"LS21 1BQ\",\"addr:housenumber\"=>\"17\"" }, "geometry": { "type": "Point", "coordinates": [ -1.6938765, 53.9070729 ] } },
	{ "type": "Feature", "properties": { "osm_id": "297762687", "name": "J J's", "amenity": "cafe" }, "geometry": { "type": "Point", "coordinates": [ -1.8560528, 53.6403559 ] } },
	{ "type": "Feature", "properties": { "osm_id": "301144775", "name": "Peel Park Cafe", "amenity": "cafe" }, "geometry": { "type": "Point", "coordinates": [ -1.7455968, 53.8078884 ] } },
	{ "type": "Feature", "properties": { "osm_id": "301384961", "name": "Chichini", "amenity": "cafe", "other_tags": "\"phone\"=>\"+44 113 274 9183\",\"fhrs:id\"=>\"321246\",\"website\"=>\"https:\/\/en-gb.facebook.com\/chichinileeds\/\",\"addr:city\"=>\"Leeds\",\"addr:street\"=>\"Hyde Park Corner\",\"addr:postcode\"=>\"LS6 1AF\",\"opening_hours\"=>\"Mo-Su 09:00-17:00\",\"addr:housenumber\"=>\"9\"" }, "geometry": { "type": "Point", "coordinates": [ -1.5617076, 53.8146162 ] } },
	{ "type": "Feature", "properties": { "osm_id": "301384968", "name": "Oranaise Café", "amenity": "cafe", "other_tags": "\"email\"=>\"info@oranaise-cafe.co.uk\",\"phone\"=>\"+44 113 274 4422\",\"cuisine\"=>\"moroccan;mediterranean\",\"fhrs:id\"=>\"1159137\",\"website\"=>\"http:\/\/oranaise-cafe.co.uk\",\"delivery\"=>\"Mo-Th 12:00-22:00; Fr 12:00-23:00\",\"takeaway\"=>\"yes\",\"diet:vegan\"=>\"yes\",\"wheelchair\"=>\"limited\",\"addr:street\"=>\"The Crescent\",\"addr:postcode\"=>\"LS6 2NW\",\"opening_hours\"=>\"Mo-Su 11:00+\",\"diet:vegetarian\"=>\"yes\",\"addr:housenumber\"=>\"1\"" }, "geometry": { "type": "Point", "coordinates": [ -1.5609884, 53.814439 ] } },
	{ "type": "Feature", "properties": { "osm_id": "305686961", "name": "Starbucks", "amenity": "cafe", "other_tags": "\"brand\"=>\"Starbucks\",\"cuisine\"=>\"coffee_shop\",\"fhrs:id\"=>\"1053188\",\"takeaway\"=>\"yes\",\"addr:town\"=>\"Castleford\",\"addr:unit\"=>\"20\",\"addr:street\"=>\"Colorado Way\",\"addr:postcode\"=>\"WF10 4TA\",\"official_name\"=>\"Starbucks Coffee\",\"addr:housename\"=>\"Xscape\",\"brand:wikidata\"=>\"Q37158\",\"brand:wikipedia\"=>\"en:Starbucks\"" }, "geometry": { "type": "Point", "coordinates": [ -1.3410882, 53.7100375 ] } },
	{ "type": "Feature", "properties": { "osm_id": "313240579", "name": "Hive", "amenity": "cafe", "other_tags": "\"fhrs:id\"=>\"1018420\",\"addr:city\"=>\"Leeds\",\"addr:unit\"=>\"1\",\"addr:street\"=>\"Whitehall Road\",\"addr:postcode\"=>\"LS1 4BN\",\"addr:housename\"=>\"Whitehall Riverside\"" }, "geometry": { "type": "Point", "coordinates": [ -1.5538378, 53.7945013 ] } },
	{ "type": "Feature", "properties": { "osm_id": "313246923", "name": "Noocafe Armley", "amenity": "cafe" }, "geometry": { "type": "Point", "coordinates": [ -1.5879102, 53.7979643 ] } },
	{ "type": "Feature", "properties": { "osm_id": "317087661", "name": "Coffee 44", "amenity": "cafe", "other_tags": "\"addr:city\"=>\"Leeds\",\"addr:street\"=>\"The Calls\",\"addr:housenumber\"=>\"44\"" }, "geometry": { "type": "Point", "coordinates": [ -1.5379691, 53.7946995 ] } },
	{ "type": "Feature", "properties": { "osm_id": "317094565", "name": "The Roast", "amenity": "cafe" }, "geometry": { "type": "Point", "coordinates": [ -1.5316844, 53.7899408 ] } },
	{ "type": "Feature", "properties": { "osm_id": "317592560", "name": "Inn Plaice", "amenity": "cafe" }, "geometry": { "type": "Point", "coordinates": [ -1.7545395, 53.7934227 ] } },
	{ "type": "Feature", "properties": { "osm_id": "317594491", "name": "Starbucks", "amenity": "cafe", "other_tags": "\"addr:city\"=>\"Bradford\",\"addr:housename\"=>\"Unit C\",\"addr:postcode\"=>\"BD1 1HY\",\"addr:street\"=>\"Centenary Square\",\"brand\"=>\"Starbucks\",\"brand:wikidata\"=>\"Q37158\",\"brand:wikipedia\"=>\"en:Starbucks\",\"cuisine\"=>\"coffee_shop\",\"fhrs:id\"=>\"325606\",\"official_name\"=>\"Starbucks Coffee\",\"source:addr\"=>\"FHRS Open Data\",\"takeaway\"=>\"yes\",\"toilets\"=>\"yes\",\"toilets:wheelchair\"=>\"yes\",\"wheelchair\"=>\"yes\"" }, "geometry": { "type": "Point", "coordinates": [ -1.7550605, 53.7929987 ] } },
	{ "type": "Feature", "properties": { "osm_id": "319429914", "name": "Munchmania", "amenity": "cafe", "other_tags": "\"addr:city\"=>\"Leeds\",\"addr:housenumber\"=>\"62\",\"addr:postcode\"=>\"LS6 1EG\",\"addr:street\"=>\"Brudenell Road\",\"addr:suburb\"=>\"Hyde Park\",\"fhrs:id\"=>\"1296341\"" }, "geometry": { "type": "Point", "coordinates": [ -1.5686428, 53.8125727 ] } },
	{ "type": "Feature", "properties": { "osm_id": "319860944", "name": "Grove Cafe", "amenity": "cafe", "other_tags": "\"fhrs:id\"=>\"454490\",\"addr:city\"=>\"Leeds\",\"addr:street\"=>\"Cardigan Road\",\"addr:postcode\"=>\"LS6 1LJ\",\"addr:housenumber\"=>\"133-135\"" }, "geometry": { "type": "Point", "coordinates": [ -1.5749762, 53.8103876 ] } },
	{ "type": "Feature", "properties": { "osm_id": "320998122", "name": "Wapentake", "amenity": "cafe", "other_tags": "\"fhrs:id\"=>\"877768\",\"addr:city\"=>\"Leeds\",\"addr:street\"=>\"Kirkgate\",\"addr:postcode\"=>\"LS2 7DJ\",\"addr:housenumber\"=>\"92\"" }, "geometry": { "type": "Point", "coordinates": [ -1.5387167, 53.7960931 ] } },
	{ "type": "Feature", "properties": { "osm_id": "320998155", "name": "Kada's", "amenity": "cafe", "other_tags": "\"fhrs:id\"=>\"1151364\",\"addr:city\"=>\"Leeds\",\"addr:street\"=>\"Crown Street\",\"addr:postcode\"=>\"LS2 7DA\",\"addr:housenumber\"=>\"3-5\"" }, "geometry": { "type": "Point", "coordinates": [ -1.5398122, 53.7961174 ] } },
	{ "type": "Feature", "properties": { "osm_id": "325227207", "name": "Caffè Nero", "amenity": "cafe", "other_tags": "\"brand\"=>\"Caffè Nero\",\"cuisine\"=>\"coffee_shop\",\"fhrs:id\"=>\"321669\",\"takeaway\"=>\"yes\",\"addr:city\"=>\"Leeds\",\"addr:street\"=>\"Stainbeck Lane\",\"addr:postcode\"=>\"LS7 3QY\",\"opening_hours\"=>\"Mo-Su,PH 07:00-18:00\",\"brand:wikidata\"=>\"Q675808\",\"brand:wikipedia\"=>\"en:Caffè Nero\",\"addr:housenumber\"=>\"8\"" }, "geometry": { "type": "Point", "coordinates": [ -1.5389388, 53.8291233 ] } },
	{ "type": "Feature", "properties": { "osm_id": "325227226", "name": "Seven", "amenity": "cafe", "other_tags": "\"fhrs:id\"=>\"321812\",\"website\"=>\"http:\/\/www.sevenleeds.co.uk\/\",\"addr:city\"=>\"Leeds\",\"addr:street\"=>\"Harrogate Road\",\"source:addr\"=>\"FHRS Open Data\",\"addr:postcode\"=>\"LS7 3PD\",\"outdoor_seating\"=>\"yes\",\"addr:housenumber\"=>\"31A\"" }, "geometry": { "type": "Point", "coordinates": [ -1.5375761, 53.8279052 ] } },
	{ "type": "Feature", "properties": { "osm_id": "329041404", "name": "Cafe Calli", "amenity": "cafe" }, "geometry": { "type": "Point", "coordinates": [ -2.0129858, 53.7420606 ] } },
	{ "type": "Feature", "properties": { "osm_id": "329041412", "name": "Cafe on't Front", "amenity": "cafe", "other_tags": "\"cuisine\"=>\"sandwich;burger;coffee_shop\",\"outdoor_seating\"=>\"no\"" }, "geometry": { "type": "Point", "coordinates": [ -2.0130335, 53.7409945 ] } },
	{ "type": "Feature", "properties": { "osm_id": "330013956", "name": "Flying Saucers", "amenity": "cafe" }, "geometry": { "type": "Point", "coordinates": [ -2.0120738, 53.7404693 ] } },
	{ "type": "Feature", "properties": { "osm_id": "330071187", "name": "Leon's Cafe", "amenity": "cafe", "other_tags": "\"fhrs:id\"=>\"1219908\",\"old_name\"=>\"Green Spice\",\"takeaway\"=>\"yes\",\"addr:city\"=>\"Leeds\",\"addr:street\"=>\"Town Street\",\"addr:suburb\"=>\"Armley\",\"addr:postcode\"=>\"LS12 1XD\",\"addr:housenumber\"=>\"53\"" }, "geometry": { "type": "Point", "coordinates": [ -1.5910683, 53.7966032 ] } },
	{ "type": "Feature", "properties": { "osm_id": "330071200", "name": "Point Break", "amenity": "cafe" }, "geometry": { "type": "Point", "coordinates": [ -1.5933909, 53.79644 ] } },
	{ "type": "Feature", "properties": { "osm_id": "332270098", "name": "Cafe Evolution", "amenity": "cafe", "other_tags": "\"cuisine\"=>\"coffee_shop\",\"smoking\"=>\"no\",\"wheelchair\"=>\"no\",\"internet_access\"=>\"yes\",\"outdoor_seating\"=>\"yes\"" }, "geometry": { "type": "Point", "coordinates": [ -1.7818893, 53.6475886 ] } },
	{ "type": "Feature", "properties": { "osm_id": "332445922", "name": "Salts Diner", "amenity": "cafe", "other_tags": "\"level\"=>\"2\",\"fhrs:id\"=>\"327873\",\"addr:city\"=>\"Shipley\",\"addr:street\"=>\"Victoria Road\",\"source:addr\"=>\"FHRS Open Data\",\"addr:village\"=>\"Saltaire\",\"addr:postcode\"=>\"BD18 3LA\",\"opening_hours\"=>\"Mo-Fr 09:30-17:00; Sa,Su 09:30-17:30\",\"addr:housename\"=>\"Salts Mill\"" }, "geometry": { "type": "Point", "coordinates": [ -1.7885216, 53.8383671 ] } },
	{ "type": "Feature", "properties": { "osm_id": "332445924", "name": "Cafe in to the Opera", "amenity": "cafe", "other_tags": "\"level\"=>\"4\",\"addr:city\"=>\"Shipley\",\"addr:village\"=>\"Saltaire\",\"opening_hours\"=>\"We-Fr 10:00-16:00; Sa, Su 10:00-17:00\"" }, "geometry": { "type": "Point", "coordinates": [ -1.788999, 53.8383956 ] } },
	{ "type": "Feature", "properties": { "osm_id": "332484033", "name": "Costa", "amenity": "cafe", "other_tags": "\"brand\"=>\"Costa\",\"cuisine\"=>\"coffee_shop\",\"fhrs:id\"=>\"322007\",\"takeaway\"=>\"yes\",\"addr:postcode\"=>\"LS10 1ET\",\"brand:wikidata\"=>\"Q608845\",\"brand:wikipedia\"=>\"en:Costa Coffee\"" }, "geometry": { "type": "Point", "coordinates": [ -1.5412742, 53.7872134 ] } },
	{ "type": "Feature", "properties": { "osm_id": "333427397", "name": "Salts Village Bakery & Café", "amenity": "cafe", "other_tags": "\"shop\"=>\"bakery\",\"fhrs:id\"=>\"327870\",\"addr:city\"=>\"Shipley\",\"addr:street\"=>\"Victoria Road\",\"source:addr\"=>\"FHRS Open Data\",\"addr:village\"=>\"Saltaire\",\"addr:postcode\"=>\"BD18 3LA\",\"addr:housenumber\"=>\"8\"" }, "geometry": { "type": "Point", "coordinates": [ -1.789902, 53.8378492 ] } },
	{ "type": "Feature", "properties": { "osm_id": "333427403", "name": "Vicar's", "amenity": "cafe" }, "geometry": { "type": "Point", "coordinates": [ -1.7896472, 53.8375349 ] } },
	{ "type": "Feature", "properties": { "osm_id": "333452822", "name": "Istanbul Cafe", "amenity": "cafe", "other_tags": "\"fhrs:id\"=>\"859234\",\"addr:city\"=>\"Leeds\",\"addr:street\"=>\"Call Lane\",\"addr:postcode\"=>\"LS1 6DN\",\"addr:housenumber\"=>\"2\"" }, "geometry": { "type": "Point", "coordinates": [ -1.5398982, 53.7965135 ] } },
	{ "type": "Feature", "properties": { "osm_id": "333799019", "name": "Starbucks", "amenity": "cafe", "other_tags": "\"brand\"=>\"Starbucks\",\"cuisine\"=>\"coffee_shop\",\"fhrs:id\"=>\"877762\",\"takeaway\"=>\"yes\",\"addr:city\"=>\"Leeds\",\"addr:street\"=>\"Briggate\",\"addr:postcode\"=>\"LS1 6LH\",\"official_name\"=>\"Starbucks Coffee\",\"brand:wikidata\"=>\"Q37158\",\"brand:wikipedia\"=>\"en:Starbucks\",\"addr:housenumber\"=>\"79\"" }, "geometry": { "type": "Point", "coordinates": [ -1.5422507, 53.7986835 ] } },
	{ "type": "Feature", "properties": { "osm_id": "333799082", "name": "Starbucks", "amenity": "cafe", "other_tags": "\"brand\"=>\"Starbucks\",\"cuisine\"=>\"coffee_shop\",\"fhrs:id\"=>\"913383\",\"takeaway\"=>\"yes\",\"addr:city\"=>\"Leeds\",\"addr:unit\"=>\"64\",\"wheelchair\"=>\"yes\",\"addr:street\"=>\"The Headrow\",\"addr:postcode\"=>\"LS1 8TL\",\"official_name\"=>\"Starbucks Coffee\",\"addr:housename\"=>\"The Light\",\"brand:wikidata\"=>\"Q37158\",\"brand:wikipedia\"=>\"en:Starbucks\"" }, "geometry": { "type": "Point", "coordinates": [ -1.5463084, 53.7997128 ] } },
	{ "type": "Feature", "properties": { "osm_id": "334884409", "name": "Cafe Enzo", "amenity": "cafe", "other_tags": "\"fhrs:id\"=>\"632696\",\"addr:city\"=>\"Leeds\",\"addr:street\"=>\"Kirkstall Road\",\"addr:suburb\"=>\"Burley\",\"addr:postcode\"=>\"LS4 2HQ\",\"addr:housenumber\"=>\"396\"" }, "geometry": { "type": "Point", "coordinates": [ -1.5839293, 53.8068935 ] } },
	{ "type": "Feature", "properties": { "osm_id": "343124352", "name": "Riveresque Cafe Bar", "amenity": "cafe", "other_tags": "\"fhrs:id\"=>\"319576\",\"addr:city\"=>\"Leeds\",\"addr:street\"=>\"Bridge End\",\"addr:postcode\"=>\"LS1 7HG\",\"addr:housenumber\"=>\"15\"" }, "geometry": { "type": "Point", "coordinates": [ -1.5418616, 53.7942004 ] } },
	{ "type": "Feature", "properties": { "osm_id": "343131661", "name": "Costa", "amenity": "cafe", "other_tags": "\"brand\"=>\"Costa\",\"cuisine\"=>\"coffee_shop\",\"fhrs:id\"=>\"321676\",\"takeaway\"=>\"yes\",\"addr:city\"=>\"Leeds\",\"addr:street\"=>\"Woodhouse Lane\",\"addr:postcode\"=>\"LS2 8LX\",\"brand:wikidata\"=>\"Q608845\",\"brand:wikipedia\"=>\"en:Costa Coffee\",\"addr:housenumber\"=>\"42-44\"" }, "geometry": { "type": "Point", "coordinates": [ -1.5450758, 53.8016972 ] } },
	{ "type": "Feature", "properties": { "osm_id": "344723278", "name": "Starbucks", "amenity": "cafe", "other_tags": "\"brand\"=>\"Starbucks\",\"cuisine\"=>\"coffee_shop\",\"fhrs:id\"=>\"619585\",\"takeaway\"=>\"yes\",\"addr:street\"=>\"Junction 32 Outlet Shopping Village\",\"addr:postcode\"=>\"WF10 4FR\",\"official_name\"=>\"Starbucks Coffee\",\"brand:wikidata\"=>\"Q37158\",\"brand:wikipedia\"=>\"en:Starbucks\",\"addr:housenumber\"=>\"29\"" }, "geometry": { "type": "Point", "coordinates": [ -1.3395029, 53.7132317 ] } },
	{ "type": "Feature", "properties": { "osm_id": "349352559", "name": "Scufflers", "amenity": "cafe", "other_tags": "\"fhrs:id\"=>\"1219907\",\"addr:town\"=>\"Pudsey\",\"addr:street\"=>\"Stanningley Road\",\"addr:postcode\"=>\"LS13 3EG\",\"addr:housenumber\"=>\"312\"" }, "geometry": { "type": "Point", "coordinates": [ -1.6365936, 53.8065234 ] } },
	{ "type": "Feature", "properties": { "osm_id": "354726141", "name": "Cafe Caldo", "amenity": "cafe", "other_tags": "\"addr:city\"=>\"Leeds\",\"addr:street\"=>\"Woodhouse Lane\",\"source:addr\"=>\"FHRS Open Data\",\"addr:postcode\"=>\"LS2 9DX\",\"addr:housenumber\"=>\"206\"" }, "geometry": { "type": "Point", "coordinates": [ -1.5556636, 53.8103392 ] } },
	{ "type": "Feature", "properties": { "osm_id": "354734708", "name": "Rendez-Vous Cafe", "amenity": "cafe" }, "geometry": { "type": "Point", "coordinates": [ -1.5577179, 53.8103631 ] } },
	{ "type": "Feature", "properties": { "osm_id": "356075697", "name": "Rumbles House Cafe", "amenity": "cafe", "other_tags": "\"addr:city\"=>\"Leeds\",\"addr:housenumber\"=>\"10\",\"addr:postcode\"=>\"LS12 5JG\",\"addr:street\"=>\"Whincover Drive\",\"addr:suburb\"=>\"Farnley\",\"fhrs:id\"=>\"1284712\",\"old_name\"=>\"Star Kitchen\",\"source:addr\"=>\"FHRS Open Data\"" }, "geometry": { "type": "Point", "coordinates": [ -1.6098329, 53.7854168 ] } },
	{ "type": "Feature", "properties": { "osm_id": "357708656", "name": "Caffè Nero", "amenity": "cafe", "other_tags": "\"brand\"=>\"Caffè Nero\",\"cuisine\"=>\"coffee_shop\",\"fhrs:id\"=>\"320994\",\"takeaway\"=>\"yes\",\"addr:city\"=>\"Leeds\",\"addr:street\"=>\"Boar Lane\",\"addr:postcode\"=>\"LS1 6HW\",\"brand:wikidata\"=>\"Q675808\",\"brand:wikipedia\"=>\"en:Caffè Nero\",\"addr:housenumber\"=>\"58\"" }, "geometry": { "type": "Point", "coordinates": [ -1.5448893, 53.7958921 ] } },
	{ "type": "Feature", "properties": { "osm_id": "357722182", "name": "Bagel Nash", "amenity": "cafe", "other_tags": "\"fhrs:id\"=>\"1212703\",\"addr:unit\"=>\"1\",\"addr:street\"=>\"St Paul's Street\",\"fixme:addr3\"=>\"Leeds\",\"addr:postcode\"=>\"LS1 2QB\",\"addr:housename\"=>\"Carlton Tower\",\"addr:housenumber\"=>\"34\"" }, "geometry": { "type": "Point", "coordinates": [ -1.5541531, 53.7986302 ] } },
	{ "type": "Feature", "properties": { "osm_id": "357744111", "name": "Starbucks", "amenity": "cafe", "other_tags": "\"brand\"=>\"Starbucks\",\"cuisine\"=>\"coffee_shop\",\"fhrs:id\"=>\"973642\",\"takeaway\"=>\"yes\",\"addr:city\"=>\"Leeds\",\"addr:unit\"=>\"A\",\"addr:street\"=>\"Wellington Street\",\"addr:postcode\"=>\"LS1 1BA\",\"official_name\"=>\"Starbucks Coffee\",\"addr:housename\"=>\"West One\",\"brand:wikidata\"=>\"Q37158\",\"brand:wikipedia\"=>\"en:Starbucks\",\"addr:housenumber\"=>\"114\"" }, "geometry": { "type": "Point", "coordinates": [ -1.5564866, 53.7970754 ] } },
	{ "type": "Feature", "properties": { "osm_id": "357751912", "name": "Grain", "amenity": "cafe" }, "geometry": { "type": "Point", "coordinates": [ -1.5520074, 53.8010127 ] } },
	{ "type": "Feature", "properties": { "osm_id": "357751915", "name": "El's Gourmet", "amenity": "cafe", "other_tags": "\"fhrs:id\"=>\"1024517\",\"addr:city\"=>\"Leeds\",\"addr:street\"=>\"Great George Street\",\"addr:postcode\"=>\"LS1 3BB\",\"addr:housenumber\"=>\"59\"" }, "geometry": { "type": "Point", "coordinates": [ -1.551833, 53.8010138 ] } },
	{ "type": "Feature", "properties": { "osm_id": "357751920", "name": "Union Coffee House", "amenity": "cafe", "other_tags": "\"addr:housenumber\"=>\"51\",\"addr:postcode\"=>\"LS1 3BB\",\"addr:street\"=>\"Great George Street\",\"fhrs:id\"=>\"1207187\"" }, "geometry": { "type": "Point", "coordinates": [ -1.551406, 53.8009723 ] } },
	{ "type": "Feature", "properties": { "osm_id": "364501880", "name": "The Oak Tree", "amenity": "cafe" }, "geometry": { "type": "Point", "coordinates": [ -1.6713823, 53.7400347 ] } },
	{ "type": "Feature", "properties": { "osm_id": "364836779", "name": "The Stables Cafe", "amenity": "cafe", "other_tags": "\"fhrs:id\"=>\"320854\",\"addr:city\"=>\"Leeds\",\"addr:street\"=>\"Lotherton Lane\",\"addr:suburb\"=>\"Aberford\",\"addr:postcode\"=>\"LS25 3EB\",\"addr:housename\"=>\"Lotherton Hall Estate\"" }, "geometry": { "type": "Point", "coordinates": [ -1.3198137, 53.8189946 ] } },
	{ "type": "Feature", "properties": { "osm_id": "381136950", "name": "Cucina", "amenity": "cafe", "other_tags": "\"cuisine\"=>\"italian\",\"fhrs:id\"=>\"321041\",\"addr:city\"=>\"Leeds\",\"wheelchair\"=>\"yes\",\"addr:street\"=>\"Queen Street\",\"addr:postcode\"=>\"LS27 9EB\",\"addr:housenumber\"=>\"106a\"" }, "geometry": { "type": "Point", "coordinates": [ -1.599995, 53.7435355 ] } },
	{ "type": "Feature", "properties": { "osm_id": "388059685", "name": "Garnet Fisheries", "amenity": "cafe", "other_tags": "\"addr:city\"=>\"Leeds\",\"addr:housenumber\"=>\"263\",\"addr:postcode\"=>\"LS11 5HZ\",\"addr:street\"=>\"Dewsbury Road\",\"cuisine\"=>\"sandwich\"" }, "geometry": { "type": "Point", "coordinates": [ -1.5431006, 53.7753459 ] } },
	{ "type": "Feature", "properties": { "osm_id": "388505889", "name": "Pit Stop", "amenity": "cafe", "other_tags": "\"addr:city\"=>\"Leeds\",\"addr:housenumber\"=>\"78\",\"addr:postcode\"=>\"LS10 1BZ\",\"addr:street\"=>\"Hillidge Road\"" }, "geometry": { "type": "Point", "coordinates": [ -1.5361879, 53.7793977 ] } },
	{ "type": "Feature", "properties": { "osm_id": "419774598", "name": "Charlotte's Jersey Ice Cream", "amenity": "cafe" }, "geometry": { "type": "Point", "coordinates": [ -1.6729623, 53.6548538 ] } },
	{ "type": "Feature", "properties": { "osm_id": "421520940", "name": "Friends of Bowling Park Cafe", "amenity": "cafe" }, "geometry": { "type": "Point", "coordinates": [ -1.7353892, 53.7746635 ] } },
	{ "type": "Feature", "properties": { "osm_id": "430953145", "name": "Cafe Blanco", "amenity": "cafe", "other_tags": "\"level\"=>\"0\",\"fhrs:id\"=>\"1137018\",\"addr:city\"=>\"Leeds\",\"wheelchair\"=>\"limited\",\"addr:street\"=>\"Lower Wortley Road\",\"addr:postcode\"=>\"LS12 4PZ\",\"outdoor_seating\"=>\"yes\",\"addr:housenumber\"=>\"285\"" }, "geometry": { "type": "Point", "coordinates": [ -1.600709, 53.7835908 ] } },
	{ "type": "Feature", "properties": { "osm_id": "443116084", "name": "Samuel Valentines", "amenity": "cafe", "other_tags": "\"cuisine\"=>\"sandwich\",\"fhrs:id\"=>\"1223673\",\"smoking\"=>\"no\",\"wheelchair\"=>\"yes\",\"addr:street\"=>\"Station Road\",\"addr:postcode\"=>\"WF10 2BP\",\"addr:housenumber\"=>\"20-24\"" }, "geometry": { "type": "Point", "coordinates": [ -1.3651098, 53.7433152 ] } },
	{ "type": "Feature", "properties": { "osm_id": "443776144", "name": "Fat Cats Cafe", "amenity": "cafe", "other_tags": "\"addr:city\"=>\"Wakefield\",\"addr:housenumber\"=>\"110\",\"addr:postcode\"=>\"WF7 6DJ\",\"addr:street\"=>\"Whinney Lane\",\"addr:suburb\"=>\"Streethouse\",\"fhrs:id\"=>\"1098905\",\"takeaway\"=>\"yes\"" }, "geometry": { "type": "Point", "coordinates": [ -1.4056223, 53.6762295 ] } },
	{ "type": "Feature", "properties": { "osm_id": "469404622", "name": "Taylors Cafe", "amenity": "cafe", "other_tags": "\"addr:city\"=>\"Mirfield\",\"addr:country\"=>\"GB\",\"addr:housenumber\"=>\"188\",\"addr:postcode\"=>\"WF14 8AT\",\"addr:street\"=>\"Huddersfield Road\",\"fhrs:id\"=>\"228481\",\"source:addr\"=>\"FHRS Open Data\"" }, "geometry": { "type": "Point", "coordinates": [ -1.6954771, 53.6741731 ] } },
	{ "type": "Feature", "properties": { "osm_id": "469404625", "name": "Ravello", "amenity": "cafe" }, "geometry": { "type": "Point", "coordinates": [ -1.69582, 53.6742659 ] } },
	{ "type": "Feature", "properties": { "osm_id": "486431599", "name": "Woodland Cafe", "amenity": "cafe", "other_tags": "\"fhrs:id\"=>\"1159293\",\"old_name\"=>\"Squires Cafe\",\"addr:city\"=>\"Wakefield\",\"addr:street\"=>\"Haw Park Lane\",\"addr:postcode\"=>\"WF4 2EB\",\"opening_hours\"=>\"Mo-Su 09:00-16:00\"" }, "geometry": { "type": "Point", "coordinates": [ -1.4334051, 53.6337502 ] } },
	{ "type": "Feature", "properties": { "osm_id": "494143340", "name": "The Bridge Cafe", "amenity": "cafe", "other_tags": "\"fhrs:id\"=>\"576153\",\"addr:city\"=>\"Bradford\",\"addr:street\"=>\"Harrogate Road\",\"source:addr\"=>\"FHRS Open Data\",\"addr:postcode\"=>\"BD10 0NB\",\"addr:housenumber\"=>\"1027\"" }, "geometry": { "type": "Point", "coordinates": [ -1.7063356, 53.8359018 ] } },
	{ "type": "Feature", "properties": { "osm_id": "497392253", "name": "The Terrace", "amenity": "cafe", "other_tags": "\"fhrs:id\"=>\"327365\",\"addr:city\"=>\"Shipley\",\"addr:street\"=>\"Bingley Road\",\"source:addr\"=>\"FHRS Open Data\",\"addr:village\"=>\"Saltaire\",\"addr:postcode\"=>\"BD18 4SB\",\"addr:housenumber\"=>\"83\"" }, "geometry": { "type": "Point", "coordinates": [ -1.793244, 53.8352669 ] } },
	{ "type": "Feature", "properties": { "osm_id": "497392256", "name": "Gourmet Corner", "amenity": "cafe", "other_tags": "\"addr:city\"=>\"Shipley\",\"addr:village\"=>\"Saltaire\"" }, "geometry": { "type": "Point", "coordinates": [ -1.793819, 53.8353503 ] } },
	{ "type": "Feature", "properties": { "osm_id": "497396135", "name": "Ace Cafe", "amenity": "cafe" }, "geometry": { "type": "Point", "coordinates": [ -1.7896554, 53.835951 ] } },
	{ "type": "Feature", "properties": { "osm_id": "497396145", "name": "Massarella's", "amenity": "cafe", "other_tags": "\"fhrs:id\"=>\"327866\",\"addr:city\"=>\"Shipley\",\"addr:street\"=>\"Victoria Road\",\"source:addr\"=>\"FHRS Open Data\",\"addr:village\"=>\"Saltaire\",\"addr:postcode\"=>\"BD18 3LQ\",\"addr:housenumber\"=>\"14\"" }, "geometry": { "type": "Point", "coordinates": [ -1.7899733, 53.8373443 ] } },
	{ "type": "Feature", "properties": { "osm_id": "521971761", "name": "B.E.S.T.", "amenity": "cafe", "other_tags": "\"addr:housename\"=>\"Bramley Shopping Centre\",\"addr:postcode\"=>\"LS13 2ET\",\"addr:street\"=>\"Town Street\",\"addr:town\"=>\"Bramley\",\"addr:unit\"=>\"24\",\"fhrs:id\"=>\"1106844\",\"old_name\"=>\"Munchies\"" }, "geometry": { "type": "Point", "coordinates": [ -1.6263312, 53.8116798 ] } },
	{ "type": "Feature", "properties": { "osm_id": "535085207", "name": "Chippendale Tea Room", "amenity": "cafe", "other_tags": "\"addr:city\"=>\"Otley\",\"addr:country\"=>\"GB\",\"addr:housenumber\"=>\"3\",\"addr:postcode\"=>\"LS21 3AB\",\"addr:street\"=>\"Bondgate\",\"al_fresco\"=>\"yes\",\"fhrs:id\"=>\"735604\",\"is_in:town\"=>\"Otley\",\"old_name\"=>\"Victoria Plum Tea Room\"" }, "geometry": { "type": "Point", "coordinates": [ -1.6936645, 53.9039417 ] } },
	{ "type": "Feature", "properties": { "osm_id": "538871431", "name": "The Pink Teapot", "amenity": "cafe", "other_tags": "\"addr:city\"=>\"Otley\",\"addr:housenumber\"=>\"4\",\"addr:postcode\"=>\"LS21 3AJ\",\"addr:street\"=>\"New Inn Court\",\"fhrs:id\"=>\"322039\",\"source:addr\"=>\"FHRS Open Data\"" }, "geometry": { "type": "Point", "coordinates": [ -1.6933681, 53.9051197 ] } },
	{ "type": "Feature", "properties": { "osm_id": "538871684", "name": "Café Cafe", "amenity": "cafe", "other_tags": "\"addr:city\"=>\"Otley\",\"addr:housenumber\"=>\"5\",\"addr:postcode\"=>\"LS21 3AE\",\"addr:street\"=>\"New Market\",\"fhrs:id\"=>\"322634\",\"is_in:town\"=>\"Otley\",\"source:addr\"=>\"FHRS Open Data\"" }, "geometry": { "type": "Point", "coordinates": [ -1.6933171, 53.9049379 ] } },
	{ "type": "Feature", "properties": { "osm_id": "538871742", "name": "Boque Petit", "amenity": "cafe", "other_tags": "\"addr:city\"=>\"Otley\",\"addr:housenumber\"=>\"20\",\"addr:street\"=>\"Newmarket\",\"is_in:town\"=>\"Otley\"" }, "geometry": { "type": "Point", "coordinates": [ -1.6931266, 53.904967 ] } },
	{ "type": "Feature", "properties": { "osm_id": "538871767", "name": "Gloucesters Tea Rooms", "amenity": "cafe", "other_tags": "\"addr:city\"=>\"Otley\",\"addr:housenumber\"=>\"22\",\"addr:postcode\"=>\"LS21 3AE\",\"addr:street\"=>\"New Market\",\"is_in:town\"=>\"Otley\",\"source:addr\"=>\"FHRS Open Data\"" }, "geometry": { "type": "Point", "coordinates": [ -1.6931093, 53.9048939 ] } },
	{ "type": "Feature", "properties": { "osm_id": "607013183", "name": "Out of the Woods", "amenity": "cafe", "other_tags": "\"fhrs:id\"=>\"322625\",\"addr:city\"=>\"Leeds\",\"addr:street\"=>\"Water Lane\",\"addr:postcode\"=>\"LS11 5WD\",\"addr:housenumber\"=>\"113\"" }, "geometry": { "type": "Point", "coordinates": [ -1.5535381, 53.791611 ] } },
	{ "type": "Feature", "properties": { "osm_id": "638299189", "name": "Corner Cafe", "amenity": "cafe", "other_tags": "\"cuisine\"=>\"curry\",\"fhrs:id\"=>\"736977\",\"addr:city\"=>\"Leeds\",\"addr:street\"=>\"Burley Road\",\"addr:postcode\"=>\"LS3 1JP\",\"addr:housenumber\"=>\"104\"" }, "geometry": { "type": "Point", "coordinates": [ -1.5688131, 53.80453 ] } },
	{ "type": "Feature", "properties": { "osm_id": "662441217", "name": "Deli Sandwiches", "amenity": "cafe" }, "geometry": { "type": "Point", "coordinates": [ -1.7213302, 53.7711506 ] } },
	{ "type": "Feature", "properties": { "osm_id": "676622240", "name": "Madison Cafe & Takeaway", "amenity": "cafe" }, "geometry": { "type": "Point", "coordinates": [ -1.7099011, 53.769819 ] } },
	{ "type": "Feature", "properties": { "osm_id": "747541982", "name": "Caffè Nero", "amenity": "cafe", "other_tags": "\"brand\"=>\"Caffè Nero\",\"cuisine\"=>\"coffee_shop\",\"fhrs:id\"=>\"783818\",\"takeaway\"=>\"yes\",\"addr:unit\"=>\"326\",\"addr:street\"=>\"Albion Street\",\"addr:postcode\"=>\"LS1 5AT\",\"addr:housename\"=>\"Trinity Leeds\",\"brand:wikidata\"=>\"Q675808\",\"brand:wikipedia\"=>\"en:Caffè Nero\"" }, "geometry": { "type": "Point", "coordinates": [ -1.5465506, 53.7978559 ] } },
	{ "type": "Feature", "properties": { "osm_id": "762226148", "name": "DD's Cafe", "amenity": "cafe", "other_tags": "\"addr:postcode\"=>\"WF8 3JF\",\"cuisine\"=>\"coffee_shop\"" }, "geometry": { "type": "Point", "coordinates": [ -1.2373404, 53.6266258 ] } },
	{ "type": "Feature", "properties": { "osm_id": "762344820", "name": "Costa", "amenity": "cafe", "other_tags": "\"brand\"=>\"Costa\",\"cuisine\"=>\"coffee_shop\",\"fhrs:id\"=>\"284806\",\"operator\"=>\"Costa Coffee\",\"takeaway\"=>\"yes\",\"fixme:addr1\"=>\"Moto Service Station\",\"addr:postcode\"=>\"WF11 0AF\",\"brand:wikidata\"=>\"Q608845\",\"brand:wikipedia\"=>\"en:Costa Coffee\"" }, "geometry": { "type": "Point", "coordinates": [ -1.2666588, 53.6976638 ] } },
	{ "type": "Feature", "properties": { "osm_id": "769077519", "name": "Busy Bees Diner", "amenity": "cafe", "other_tags": "\"fhrs:id\"=>\"848151\",\"addr:town\"=>\"Pontefract\",\"addr:street\"=>\"Great North Road\",\"addr:suburb\"=>\"Darrington\",\"addr:postcode\"=>\"WF8 3HU\"" }, "geometry": { "type": "Point", "coordinates": [ -1.2657189, 53.6636447 ] } },
	{ "type": "Feature", "properties": { "osm_id": "783092001", "name": "Tarquins Tea Rooms", "amenity": "cafe", "other_tags": "\"addr:city\"=>\"Bingley\",\"addr:postcode\"=>\"BD16 1HJ\",\"addr:street\"=>\"Myrtle Park, Myrtle Grove\",\"building\"=>\"yes\",\"fhrs:id\"=>\"864228\"" }, "geometry": { "type": "Point", "coordinates": [ -1.8402885, 53.8458445 ] } },
	{ "type": "Feature", "properties": { "osm_id": "823787007", "name": "Holme Coffee House", "amenity": "cafe", "other_tags": "\"fhrs:id\"=>\"226286\",\"addr:city\"=>\"Holmfirth\",\"addr:street\"=>\"School Street\",\"source:addr\"=>\"FHRS Open Data\",\"addr:country\"=>\"GB\",\"addr:postcode\"=>\"HD9 7EQ\",\"addr:housenumber\"=>\"106\"" }, "geometry": { "type": "Point", "coordinates": [ -1.7858783, 53.5717271 ] } },
	{ "type": "Feature", "properties": { "osm_id": "830066592", "name": "Cafe 53", "amenity": "cafe", "other_tags": "\"fhrs:id\"=>\"1221131\",\"addr:city\"=>\"Leeds\",\"addr:street\"=>\"Stanningley Road\",\"addr:postcode\"=>\"LS12 3ND\",\"addr:housenumber\"=>\"53\"" }, "geometry": { "type": "Point", "coordinates": [ -1.5953172, 53.7999691 ] } },
	{ "type": "Feature", "properties": { "osm_id": "830322561", "name": "Student Union Coffee Bar", "amenity": "cafe", "other_tags": "\"fhrs:id\"=>\"320089\",\"addr:city\"=>\"Leeds\",\"addr:street\"=>\"Church Wood Avenue\",\"addr:suburb\"=>\"West Park\",\"addr:postcode\"=>\"LS6 3HJ\",\"addr:housename\"=>\"Campus Central\"" }, "geometry": { "type": "Point", "coordinates": [ -1.5912547, 53.827652 ] } },
	{ "type": "Feature", "properties": { "osm_id": "838320336", "name": "Le Cafe Blue", "amenity": "cafe", "other_tags": "\"phone\"=>\"+44 1274 733386\",\"wheelchair\"=>\"yes\",\"addr:street\"=>\"North Parade\",\"description\"=>\"Great cafe, good food, daily specials, pizza, pasta, salads, pastries.\",\"addr:housenumber\"=>\"9\"" }, "geometry": { "type": "Point", "coordinates": [ -1.75503, 53.795828 ] } },
	{ "type": "Feature", "properties": { "osm_id": "841526382", "name": "Le Cafe Blue", "amenity": "cafe", "other_tags": "\"cuisine\"=>\"Pasta, Pizza, Panini's, Sandwiches, Pastries, Latte, Fresh Juices, Daily Specials.\",\"takeaway\"=>\"yes\",\"wheelchair\"=>\"yes\",\"description\"=>\"Consistently good food.\",\"addr:housenumber\"=>\"North Parade\"" }, "geometry": { "type": "Point", "coordinates": [ -1.7561763, 53.7966148 ] } },
	{ "type": "Feature", "properties": { "osm_id": "876491954", "name": "Explorers Cafe", "amenity": "cafe", "other_tags": "\"fhrs:id\"=>\"321899\",\"alt_name\"=>\"Explorers Cafe (Tropical World)\",\"addr:city\"=>\"Leeds\",\"addr:street\"=>\"Princes Avenue\",\"source:addr\"=>\"FHRS Open Data\",\"addr:postcode\"=>\"LS8 1DF\"" }, "geometry": { "type": "Point", "coordinates": [ -1.5044202, 53.8401444 ] } },
	{ "type": "Feature", "properties": { "osm_id": "920074971", "name": "Treehouse", "amenity": "cafe", "other_tags": "\"cuisine\"=>\"fairtrade\"" }, "geometry": { "type": "Point", "coordinates": [ -1.7648208, 53.790078 ] } },
	{ "type": "Feature", "properties": { "osm_id": "959902782", "amenity": "cafe" }, "geometry": { "type": "Point", "coordinates": [ -1.9377126, 53.7134214 ] } },
	{ "type": "Feature", "properties": { "osm_id": "959902785", "name": "Hebble End Coffee Lounge", "amenity": "cafe", "other_tags": "\"shop\"=>\"bicycle\",\"old_name\"=>\"Cycle Recycle\",\"outdoor_seating\"=>\"yes\"" }, "geometry": { "type": "Point", "coordinates": [ -2.0169142, 53.7404376 ] } },
	{ "type": "Feature", "properties": { "osm_id": "961472596", "name": "Costa", "amenity": "cafe", "other_tags": "\"brand\"=>\"Costa\",\"cuisine\"=>\"coffee_shop\",\"takeaway\"=>\"yes\",\"brand:wikidata\"=>\"Q608845\",\"brand:wikipedia\"=>\"en:Costa Coffee\"" }, "geometry": { "type": "Point", "coordinates": [ -1.6430213, 53.7459273 ] } },
	{ "type": "Feature", "properties": { "osm_id": "963593319", "name": "World Football", "amenity": "cafe", "other_tags": "\"fhrs:id\"=>\"990868\",\"addr:city\"=>\"Leeds\",\"addr:street\"=>\"Cherry Row\",\"addr:suburb\"=>\"Burmantofts\",\"addr:postcode\"=>\"LS9 7LY\",\"addr:housenumber\"=>\"9e\"" }, "geometry": { "type": "Point", "coordinates": [ -1.5293357, 53.8037263 ] } },
	{ "type": "Feature", "properties": { "osm_id": "976835806", "name": "Towngate Tearoom", "amenity": "cafe", "other_tags": "\"fhrs:id\"=>\"347154\",\"addr:city\"=>\"Hebden Bridge\",\"addr:hamlet\"=>\"Heptonstall\",\"addr:street\"=>\"Towngate\",\"source:addr\"=>\"FHRS Open Data\",\"addr:country\"=>\"GB\",\"addr:postcode\"=>\"HX7 7NB\",\"addr:housenumber\"=>\"34\"" }, "geometry": { "type": "Point", "coordinates": [ -2.0204019, 53.7488212 ] } },
	{ "type": "Feature", "properties": { "osm_id": "1011096784", "amenity": "cafe" }, "geometry": { "type": "Point", "coordinates": [ -1.7481468, 53.6950086 ] } },
	{ "type": "Feature", "properties": { "osm_id": "1015090500", "name": "Jinjas", "amenity": "cafe", "other_tags": "\"addr:city\"=>\"Wakefield\",\"addr:housename\"=>\"Bus Station\",\"addr:postcode\"=>\"WF1 3AQ\",\"addr:street\"=>\"Union Street\",\"addr:unit\"=>\"4\",\"fhrs:id\"=>\"612350\",\"level\"=>\"0\",\"toilets\"=>\"yes\",\"toilets:wheelchair\"=>\"yes\",\"wheelchair\"=>\"yes\"" }, "geometry": { "type": "Point", "coordinates": [ -1.498261, 53.6860829 ] } },
	{ "type": "Feature", "properties": { "osm_id": "1015090530", "name": "Costa", "amenity": "cafe", "other_tags": "\"addr:housenumber\"=>\"13\",\"addr:postcode\"=>\"WF1 1HD\",\"addr:street\"=>\"Northgate\",\"brand\"=>\"Costa\",\"brand:wikidata\"=>\"Q608845\",\"brand:wikipedia\"=>\"en:Costa Coffee\",\"cuisine\"=>\"coffee_shop\",\"fhrs:id\"=>\"284140\",\"opening_hours\"=>\"Mo-Su 08:00-16:00\",\"takeaway\"=>\"yes\"" }, "geometry": { "type": "Point", "coordinates": [ -1.4979646, 53.6831731 ] } },
	{ "type": "Feature", "properties": { "osm_id": "1038731061", "name": "Sainsbury's Cafe", "amenity": "cafe" }, "geometry": { "type": "Point", "coordinates": [ -1.711852, 53.8299111 ] } },
	{ "type": "Feature", "properties": { "osm_id": "1040177588", "name": "Salt Cellar Café", "amenity": "cafe" }, "geometry": { "type": "Point", "coordinates": [ -1.7883355, 53.8331887 ] } },
	{ "type": "Feature", "properties": { "osm_id": "1081928281", "name": "Half Moon Cafe", "amenity": "cafe", "other_tags": "\"fhrs:id\"=>\"325528\",\"addr:city\"=>\"Shipley\",\"addr:street\"=>\"Coach Road\",\"source:addr\"=>\"FHRS Open Data\",\"addr:village\"=>\"Baildon\",\"addr:district\"=>\"Roberts Park\",\"addr:postcode\"=>\"BD17 7LU\"" }, "geometry": { "type": "Point", "coordinates": [ -1.791605, 53.8410328 ] } },
	{ "type": "Feature", "properties": { "osm_id": "1139204049", "name": "Gresham", "amenity": "cafe" }, "geometry": { "type": "Point", "coordinates": [ -1.6277234, 53.6926028 ] } },
	{ "type": "Feature", "properties": { "osm_id": "1139236230", "name": "Chatters", "amenity": "cafe" }, "geometry": { "type": "Point", "coordinates": [ -1.6285731, 53.6926503 ] } },
	{ "type": "Feature", "properties": { "osm_id": "1159765201", "name": "Tilly's Kitchen And Coffee Lounge", "amenity": "cafe", "other_tags": "\"addr:housename\"=>\"Junction 32 Outlet Shopping Village\",\"addr:postcode\"=>\"WF10 4FR\",\"addr:street\"=>\"Tomahawk Trail\",\"addr:town\"=>\"Castleford\",\"addr:unit\"=>\"15\",\"cuisine\"=>\"coffee\",\"fhrs:id\"=>\"1100215\"" }, "geometry": { "type": "Point", "coordinates": [ -1.3409014, 53.7122523 ] } },
	{ "type": "Feature", "properties": { "osm_id": "1164248260", "name": "Roses Cafe", "amenity": "cafe", "other_tags": "\"fhrs:id\"=>\"321256\",\"takeaway\"=>\"yes\",\"addr:city\"=>\"Leeds\",\"addr:street\"=>\"York Road\",\"addr:postcode\"=>\"LS14 6AX\",\"addr:housenumber\"=>\"851\"" }, "geometry": { "type": "Point", "coordinates": [ -1.4683868, 53.8078842 ] } },
	{ "type": "Feature", "properties": { "osm_id": "1168889924", "amenity": "cafe" }, "geometry": { "type": "Point", "coordinates": [ -1.9146424, 53.8564426 ] } },
	{ "type": "Feature", "properties": { "osm_id": "1187324680", "name": "Bakery 164", "amenity": "cafe", "other_tags": "\"fhrs:id\"=>\"1003011\",\"addr:city\"=>\"Leeds\",\"addr:street\"=>\"Woodhouse Lane\",\"source:addr\"=>\"FHRS Open Data\",\"addr:postcode\"=>\"LS2 9HB\",\"addr:housenumber\"=>\"164\"" }, "geometry": { "type": "Point", "coordinates": [ -1.5520484, 53.8082672 ] } },
	{ "type": "Feature", "properties": { "osm_id": "1187324681", "name": "Cafe Miro", "amenity": "cafe", "other_tags": "\"fhrs:id\"=>\"322620\",\"addr:city\"=>\"Leeds\",\"addr:street\"=>\"Blenheim Terrace\",\"addr:postcode\"=>\"LS2 9HD\",\"addr:housenumber\"=>\"29\"" }, "geometry": { "type": "Point", "coordinates": [ -1.5518779, 53.8078111 ] } },
	{ "type": "Feature", "properties": { "osm_id": "1221655200", "name": "Jams Cafe", "amenity": "cafe", "other_tags": "\"fhrs:id\"=>\"1131649\",\"old_name\"=>\"Arnies Sarnies\",\"addr:city\"=>\"Horsforth\",\"addr:street\"=>\"New Road Side\",\"addr:suburb\"=>\"Horsforth\",\"addr:postcode\"=>\"LS18 4DR\",\"addr:housenumber\"=>\"259\"" }, "geometry": { "type": "Point", "coordinates": [ -1.6483642, 53.8334628 ] } },
	{ "type": "Feature", "properties": { "osm_id": "1256721383", "name": "Starbucks", "amenity": "cafe", "other_tags": "\"addr:city\"=>\"Leeds\",\"addr:housename\"=>\"City Station\",\"addr:postcode\"=>\"LS1 4DT\",\"addr:street\"=>\"New Station Street\",\"brand\"=>\"Starbucks\",\"brand:wikidata\"=>\"Q37158\",\"brand:wikipedia\"=>\"en:Starbucks\",\"cuisine\"=>\"coffee_shop\",\"drive_through\"=>\"no\",\"fhrs:id\"=>\"321013\",\"official_name\"=>\"Starbucks Coffee\",\"takeaway\"=>\"yes\",\"wheelchair\"=>\"yes\"" }, "geometry": { "type": "Point", "coordinates": [ -1.5480733, 53.7953646 ] } },
	{ "type": "Feature", "properties": { "osm_id": "1273177134", "name": "Courtyard Café", "amenity": "cafe", "other_tags": "\"fhrs:id\"=>\"426574\",\"operator\"=>\"National Trust\",\"addr:postcode\"=>\"WF4 1QE\"" }, "geometry": { "type": "Point", "coordinates": [ -1.3892444, 53.6519072 ] } },
	{ "type": "Feature", "properties": { "osm_id": "1283414183", "name": "Café Central", "amenity": "cafe", "other_tags": "\"fhrs:id\"=>\"817998\",\"addr:city\"=>\"Keighley\",\"addr:street\"=>\"Alice Street\",\"source:addr\"=>\"FHRS Open Data\",\"addr:country\"=>\"GB\",\"addr:postcode\"=>\"BD21 3JD\",\"addr:housename\"=>\"Central Hall\"" }, "geometry": { "type": "Point", "coordinates": [ -1.9085329, 53.8694513 ] } },
	{ "type": "Feature", "properties": { "osm_id": "1313886881", "name": "Café 7", "amenity": "cafe", "other_tags": "\"cuisine\"=>\"sandwich\",\"fhrs:id\"=>\"320332\",\"addr:city\"=>\"Leeds\",\"addr:street\"=>\"Clarendon Way\",\"addr:suburb\"=>\"Woodhouse\",\"addr:postcode\"=>\"LS2 9NL\",\"addr:housename\"=>\"The Worsley Medical And Dental Building\"" }, "geometry": { "type": "Point", "coordinates": [ -1.5555033, 53.8034433 ] } },
	{ "type": "Feature", "properties": { "osm_id": "1340039519", "name": "Starbucks", "amenity": "cafe", "other_tags": "\"brand\"=>\"Starbucks\",\"cuisine\"=>\"coffee_shop\",\"takeaway\"=>\"yes\",\"official_name\"=>\"Starbucks Coffee\",\"brand:wikidata\"=>\"Q37158\",\"brand:wikipedia\"=>\"en:Starbucks\"" }, "geometry": { "type": "Point", "coordinates": [ -1.6425494, 53.7441591 ] } },
	{ "type": "Feature", "properties": { "osm_id": "1343881726", "amenity": "cafe" }, "geometry": { "type": "Point", "coordinates": [ -1.7636499, 53.6793148 ] } },
	{ "type": "Feature", "properties": { "osm_id": "1387888488", "name": "Coffeevolution", "amenity": "cafe", "other_tags": "\"fhrs:id\"=>\"226276\",\"addr:city\"=>\"Huddersfield\",\"addr:street\"=>\"Church Street\",\"source:addr\"=>\"FHRS Open Data\",\"addr:country\"=>\"GB\",\"addr:postcode\"=>\"HD1 1DD\",\"addr:housenumber\"=>\"8\"" }, "geometry": { "type": "Point", "coordinates": [ -1.7813343, 53.6457791 ] } },
	{ "type": "Feature", "properties": { "osm_id": "1414460470", "name": "Yakumama", "amenity": "cafe", "other_tags": "\"fhrs:id\"=>\"346918\",\"alt_name\"=>\"The Old Co-op\",\"addr:city\"=>\"Todmorden\",\"diet:vegan\"=>\"yes\",\"addr:street\"=>\"Rochdale Road\",\"happycow:id\"=>\"158463\",\"source:addr\"=>\"FHRS Open Data\",\"addr:country\"=>\"GB\",\"addr:postcode\"=>\"OL14 7LA\",\"diet:vegetarian\"=>\"only\",\"addr:housenumber\"=>\"29\"" }, "geometry": { "type": "Point", "coordinates": [ -2.0981928, 53.7126552 ] } },
	{ "type": "Feature", "properties": { "osm_id": "1432948690", "amenity": "cafe" }, "geometry": { "type": "Point", "coordinates": [ -1.2598034, 53.6005781 ] } },
	{ "type": "Feature", "properties": { "osm_id": "1520493763", "name": "The Barn", "amenity": "cafe", "other_tags": "\"fhrs:id\"=>\"626737\",\"addr:city\"=>\"Leeds\",\"addr:street\"=>\"Warm Lane\",\"addr:suburb\"=>\"Yeadon\",\"addr:postcode\"=>\"LS19 7DW\",\"addr:housename\"=>\"Green Side Farm\",\"addr:housenumber\"=>\"7\"" }, "geometry": { "type": "Point", "coordinates": [ -1.6931335, 53.8577013 ] } },
	{ "type": "Feature", "properties": { "osm_id": "1563017292", "name": "Dolce Vita", "amenity": "cafe", "other_tags": "\"level\"=>\"10\",\"fhrs:id\"=>\"320327\",\"addr:city\"=>\"Leeds\",\"wheelchair\"=>\"yes\",\"addr:street\"=>\"Woodhouse Lane\",\"addr:suburb\"=>\"Woodhouse\",\"addr:postcode\"=>\"LS2 9JT\",\"addr:housename\"=>\"Mathematics Wing\",\"toilets:wheelchair\"=>\"no\"" }, "geometry": { "type": "Point", "coordinates": [ -1.5546889, 53.8055309 ] } },
	{ "type": "Feature", "properties": { "osm_id": "1563017310", "name": "Waterside Café", "amenity": "cafe", "other_tags": "\"addr:city\"=>\"Leeds\",\"addr:housename\"=>\"Roger Stevens Building\",\"addr:postcode\"=>\"LS2 9JT\",\"addr:street\"=>\"Woodhouse Lane\",\"addr:suburb\"=>\"Woodhouse\",\"fhrs:id\"=>\"320328\",\"level\"=>\"6\",\"toilets\"=>\"yes\",\"toilets:wheelchair\"=>\"yes\",\"wheelchair\"=>\"yes\"" }, "geometry": { "type": "Point", "coordinates": [ -1.5545495, 53.8048655 ] } },
	{ "type": "Feature", "properties": { "osm_id": "1590163356", "name": "Caffè Nero", "amenity": "cafe", "other_tags": "\"addr:city\"=>\"Leeds\",\"addr:country\"=>\"GB\",\"addr:housenumber\"=>\"56-61\",\"addr:postcode\"=>\"LS6 3AB\",\"addr:street\"=>\"Otley Road\",\"brand\"=>\"Caffè Nero\",\"brand:wikidata\"=>\"Q675808\",\"brand:wikipedia\"=>\"en:Caffè Nero\",\"cuisine\"=>\"coffee_shop\",\"fhrs:id\"=>\"1128494\",\"takeaway\"=>\"yes\"" }, "geometry": { "type": "Point", "coordinates": [ -1.5778221, 53.8211398 ] } },
	{ "type": "Feature", "properties": { "osm_id": "1590163358", "name": "The Gatehouse", "amenity": "cafe", "other_tags": "\"fhrs:id\"=>\"918654\",\"addr:street\"=>\"Abbey Walk\",\"addr:postcode\"=>\"LS5 3EH\",\"addr:housename\"=>\"Abbey House Museum\"" }, "geometry": { "type": "Point", "coordinates": [ -1.6069719, 53.8221749 ] } },
	{ "type": "Feature", "properties": { "osm_id": "1603719425", "name": "Red Bus Cafe", "amenity": "cafe" }, "geometry": { "type": "Point", "coordinates": [ -1.4088709, 53.8474412 ] } },
	{ "type": "Feature", "properties": { "osm_id": "1609999302", "name": "YSP Learning", "amenity": "cafe" }, "geometry": { "type": "Point", "coordinates": [ -1.5754257, 53.6129973 ] } },
	{ "type": "Feature", "properties": { "osm_id": "1619064732", "name": "Heart Cafe", "amenity": "cafe", "other_tags": "\"addr:city\"=>\"Leeds\",\"addr:postcode\"=>\"LS6 3HN\",\"addr:street\"=>\"Bennett Road\",\"cuisine\"=>\"regional\",\"fhrs:id\"=>\"564040\",\"internet_access\"=>\"wlan\",\"internet_access:fee\"=>\"no\",\"wheelchair\"=>\"yes\"" }, "geometry": { "type": "Point", "coordinates": [ -1.5777102, 53.8202609 ] } },
	{ "type": "Feature", "properties": { "osm_id": "1619094114", "name": "Maria's", "amenity": "cafe", "other_tags": "\"fhrs:id\"=>\"323517\",\"addr:city\"=>\"Leeds\",\"addr:street\"=>\"Green Road\",\"addr:suburb\"=>\"Meanwood\",\"addr:postcode\"=>\"LS6 4JP\",\"addr:housenumber\"=>\"4\"" }, "geometry": { "type": "Point", "coordinates": [ -1.566647, 53.8286658 ] } },
	{ "type": "Feature", "properties": { "osm_id": "1619153011", "name": "Fratellis Caffe Bar", "amenity": "cafe" }, "geometry": { "type": "Point", "coordinates": [ -1.7790151, 53.7025959 ] } },
	{ "type": "Feature", "properties": { "osm_id": "1650264006", "name": "Victoria Corner Cafe", "amenity": "cafe", "other_tags": "\"fhrs:id\"=>\"1225973\",\"addr:city\"=>\"Leeds\",\"addr:street\"=>\"Victoria Road\",\"addr:suburb\"=>\"Hyde Park\",\"addr:postcode\"=>\"LS6 1DU\",\"addr:housenumber\"=>\"149\"" }, "geometry": { "type": "Point", "coordinates": [ -1.5744003, 53.8142006 ] } },
	{ "type": "Feature", "properties": { "osm_id": "1655189875", "name": "Aroush Cafe", "amenity": "cafe", "other_tags": "\"fhrs:id\"=>\"325160\",\"addr:city\"=>\"Keighley\",\"addr:street\"=>\"Campbell Street\",\"source:addr\"=>\"FHRS Open Data\",\"addr:country\"=>\"GB\",\"addr:postcode\"=>\"BD21 2SR\",\"addr:housenumber\"=>\"6\"" }, "geometry": { "type": "Point", "coordinates": [ -1.9102484, 53.8694308 ] } },
	{ "type": "Feature", "properties": { "osm_id": "1671686153", "name": "Toby's Tea Room", "amenity": "cafe", "other_tags": "\"phone\"=>\"+44 7817 974 926\",\"website\"=>\"http:\/\/www.tobystearoom.co.uk\/home-page.html\",\"opening_hours\"=>\"Fr-Mo\"" }, "geometry": { "type": "Point", "coordinates": [ -1.7179349, 53.842239 ] } },
	{ "type": "Feature", "properties": { "osm_id": "1675775779", "name": "Costa Coffee", "amenity": "cafe", "other_tags": "\"cuisine\"=>\"coffee_shop\",\"fhrs:id\"=>\"325859\",\"smoking\"=>\"outside\",\"addr:city\"=>\"Bradford\",\"wheelchair\"=>\"yes\",\"addr:street\"=>\"New Line\",\"source:addr\"=>\"FHRS Open Data\",\"addr:postcode\"=>\"BD10 0BX\",\"internet_access\"=>\"yes\",\"addr:housenumber\"=>\"122\"" }, "geometry": { "type": "Point", "coordinates": [ -1.7120221, 53.8311276 ] } },
	{ "type": "Feature", "properties": { "osm_id": "1689398038", "name": "Temple Newsam Tea Rooms", "amenity": "cafe", "other_tags": "\"fhrs:id\"=>\"320216\",\"addr:city\"=>\"Leeds\",\"addr:street\"=>\"Templenewsam Road\",\"addr:suburb\"=>\"Halton\",\"addr:postcode\"=>\"LS15 0AD\",\"addr:housename\"=>\"Stable Court\"" }, "geometry": { "type": "Point", "coordinates": [ -1.4583426, 53.7846813 ] } },
	{ "type": "Feature", "properties": { "osm_id": "1695323434", "name": "Rossi's Café", "amenity": "cafe", "other_tags": "\"addr:city\"=>\"Keighley\",\"addr:country\"=>\"GB\",\"addr:housenumber\"=>\"102\",\"addr:postcode\"=>\"BD21 3DE\",\"addr:street\"=>\"Cavendish Street\",\"fhrs:id\"=>\"326691\",\"source:addr\"=>\"FHRS Open Data\"" }, "geometry": { "type": "Point", "coordinates": [ -1.9080733, 53.8683713 ] } },
	{ "type": "Feature", "properties": { "osm_id": "1701666346", "name": "Cafe Lento", "amenity": "cafe", "other_tags": "\"addr:city\"=>\"Leeds\",\"addr:housenumber\"=>\"21a\",\"addr:postcode\"=>\"LS6 3HW\",\"addr:street\"=>\"North Lane\",\"fhrs:id\"=>\"1218786\",\"internet_access\"=>\"wlan\",\"internet_access:fee\"=>\"no\"" }, "geometry": { "type": "Point", "coordinates": [ -1.5809718, 53.8200005 ] } },
	{ "type": "Feature", "properties": { "osm_id": "1701666358", "name": "Vital", "amenity": "cafe", "other_tags": "\"addr:city\"=>\"Headingley\",\"addr:housenumber\"=>\"33\",\"addr:postcode\"=>\"LS6 3HW\",\"addr:street\"=>\"North Lane\",\"cuisine\"=>\"lebanese;coffee_shop\",\"internet_access\"=>\"wlan\",\"internet_access:fee\"=>\"no\",\"opening_hours\"=>\"Mo-Fr 09:00-22:00; Sa-Su 10:00-19:30\",\"outdoor_seating\"=>\"yes\",\"smoking\"=>\"no\",\"url\"=>\"http:\/\/mint-cafe.co.uk\/\"" }, "geometry": { "type": "Point", "coordinates": [ -1.5812779, 53.8197142 ] } },
	{ "type": "Feature", "properties": { "osm_id": "1725285378", "name": "Coffee RAND", "amenity": "cafe", "other_tags": "\"fhrs:id\"=>\"323363\",\"addr:city\"=>\"Leeds\",\"addr:street\"=>\"Blenheim Terrace\",\"addr:postcode\"=>\"LS2 9HD\",\"addr:housenumber\"=>\"28\"" }, "geometry": { "type": "Point", "coordinates": [ -1.5517437, 53.8076979 ] } },
	{ "type": "Feature", "properties": { "osm_id": "1725292395", "name": "Rustica", "amenity": "cafe", "other_tags": "\"level\"=>\"-1\",\"fhrs:id\"=>\"1170185\",\"addr:city\"=>\"Leeds\",\"addr:street\"=>\"Woodhouse Lane\",\"addr:suburb\"=>\"Woodhouse\",\"addr:postcode\"=>\"LS2 9HD\",\"addr:housename\"=>\"Blenheim Terrace\",\"addr:housenumber\"=>\"30\"" }, "geometry": { "type": "Point", "coordinates": [ -1.5519098, 53.8078996 ] } },
	{ "type": "Feature", "properties": { "osm_id": "1835481771", "amenity": "cafe" }, "geometry": { "type": "Point", "coordinates": [ -1.7116036, 53.6908039 ] } },
	{ "type": "Feature", "properties": { "osm_id": "1837017873", "name": "La Stazione", "amenity": "cafe", "other_tags": "\"fhrs:id\"=>\"325074\",\"addr:city\"=>\"Ilkley\",\"addr:street\"=>\"Station Road\",\"source:addr\"=>\"FHRS Open Data\",\"addr:postcode\"=>\"LS29 8HF\",\"addr:housename\"=>\"Unit 10 Station Plaza\"" }, "geometry": { "type": "Point", "coordinates": [ -1.8218292, 53.9246535 ] } },
	{ "type": "Feature", "properties": { "osm_id": "1852211295", "name": "Yum Yum", "amenity": "cafe", "other_tags": "\"phone\"=>\"+44 7917 194516\",\"fhrs:id\"=>\"1156385\",\"addr:city\"=>\"Leeds\",\"addr:street\"=>\"Brewery Place\",\"addr:postcode\"=>\"LS10 1NE\",\"contact:website\"=>\"http:\/\/www.brewerywharf.net\/relaxing\/yum-yum\",\"addr:housenumber\"=>\"5b\"" }, "geometry": { "type": "Point", "coordinates": [ -1.5372815, 53.7936108 ] } },
	{ "type": "Feature", "properties": { "osm_id": "1854027960", "name": "Chellys Deli", "amenity": "cafe", "other_tags": "\"fhrs:id\"=>\"829583\",\"addr:city\"=>\"Leeds\",\"addr:street\"=>\"Amberton Approach\",\"addr:postcode\"=>\"LS8 3JT\",\"addr:housenumber\"=>\"6\"" }, "geometry": { "type": "Point", "coordinates": [ -1.4918124, 53.8157476 ] } },
	{ "type": "Feature", "properties": { "osm_id": "1862252929", "name": "Taag Leeds", "amenity": "cafe", "other_tags": "\"fhrs:id\"=>\"1137706\",\"old_name\"=>\"Colbys Coffee\",\"addr:city\"=>\"Leeds\",\"addr:unit\"=>\"2b\",\"addr:street\"=>\"Great George Street\",\"addr:postcode\"=>\"LS1 3DL\",\"addr:housename\"=>\"St George House\",\"addr:housenumber\"=>\"40\"" }, "geometry": { "type": "Point", "coordinates": [ -1.5500172, 53.800831 ] } },
	{ "type": "Feature", "properties": { "osm_id": "1862252937", "name": "Tiled Hall Cafe", "amenity": "cafe", "other_tags": "\"fhrs:id\"=>\"1007035\",\"wheelchair\"=>\"yes\",\"addr:postcode\"=>\"LS1 3AA\"" }, "geometry": { "type": "Point", "coordinates": [ -1.5487072, 53.8000142 ] } },
	{ "type": "Feature", "properties": { "osm_id": "1877261070", "name": "Milk Bar", "amenity": "cafe", "other_tags": "\"cuisine\"=>\"coffee_shop\",\"fhrs:id\"=>\"1219902\",\"al_fresco\"=>\"yes\",\"addr:street\"=>\"Manor Square\",\"source:addr\"=>\"FHRS Open Data\",\"addr:postcode\"=>\"LS21 3AP\",\"addr:housenumber\"=>\"14\"" }, "geometry": { "type": "Point", "coordinates": [ -1.6948053, 53.9062627 ] } },
	{ "type": "Feature", "properties": { "osm_id": "1932763105", "amenity": "cafe", "other_tags": "\"cuisine\"=>\"coffee\"" }, "geometry": { "type": "Point", "coordinates": [ -1.775613, 53.655184 ] } },
	{ "type": "Feature", "properties": { "osm_id": "1934243496", "name": "Baines Café", "amenity": "cafe", "other_tags": "\"level\"=>\"11\",\"fhrs:id\"=>\"320329\",\"addr:city\"=>\"Leeds\",\"addr:street\"=>\"Woodhouse Lane\",\"addr:suburb\"=>\"Woodhouse\",\"addr:postcode\"=>\"LS2 9JT\"" }, "geometry": { "type": "Point", "coordinates": [ -1.5539007, 53.8075324 ] } },
	{ "type": "Feature", "properties": { "osm_id": "1934244005", "name": "Parkinson Court Costa", "amenity": "cafe", "other_tags": "\"fhrs:id\"=>\"321232\",\"addr:city\"=>\"Leeds\",\"addr:street\"=>\"Woodhouse Lane\",\"addr:suburb\"=>\"Woodhouse\",\"addr:postcode\"=>\"LS2 9JT\"" }, "geometry": { "type": "Point", "coordinates": [ -1.5526773, 53.8080686 ] } },
	{ "type": "Feature", "properties": { "osm_id": "1991375011", "name": "Cafe Maia", "amenity": "cafe", "other_tags": "\"fhrs:id\"=>\"320334\",\"addr:city\"=>\"Leeds\",\"addr:street\"=>\"Woodhouse Lane\",\"addr:suburb\"=>\"Woodhouse\",\"addr:postcode\"=>\"LS2 9JT\",\"addr:housename\"=>\"Houldsworth Building\"" }, "geometry": { "type": "Point", "coordinates": [ -1.5566672, 53.8103208 ] } },
	{ "type": "Feature", "properties": { "osm_id": "2041628061", "name": "Physics Coffee Bar", "amenity": "cafe", "other_tags": "\"level\"=>\"9\",\"fhrs:id\"=>\"320330\",\"addr:city\"=>\"Leeds\",\"addr:street\"=>\"Woodhouse Lane\",\"addr:suburb\"=>\"Woodhouse\",\"addr:postcode\"=>\"LS2 9JT\"" }, "geometry": { "type": "Point", "coordinates": [ -1.5531923, 53.8054771 ] } },
	{ "type": "Feature", "properties": { "osm_id": "2060296509", "amenity": "cafe" }, "geometry": { "type": "Point", "coordinates": [ -1.8090008, 53.6253364 ] } },
	{ "type": "Feature", "properties": { "osm_id": "2090265744", "amenity": "cafe" }, "geometry": { "type": "Point", "coordinates": [ -1.7404557, 53.6392883 ] } },
	{ "type": "Feature", "properties": { "osm_id": "2106070860", "name": "21 Co", "amenity": "cafe", "other_tags": "\"shop\"=>\"vacant\",\"cuisine\"=>\"coffee_shop\"" }, "geometry": { "type": "Point", "coordinates": [ -1.5788485, 53.8227099 ] } },
	{ "type": "Feature", "properties": { "osm_id": "2117006525", "name": "morrisons", "amenity": "cafe" }, "geometry": { "type": "Point", "coordinates": [ -1.5297774, 53.7796431 ] } },
	{ "type": "Feature", "properties": { "osm_id": "2118549255", "name": "Caffe Latte", "amenity": "cafe", "other_tags": "\"shop\"=>\"vacant\",\"cuisine\"=>\"coffee_shop\",\"fhrs:id\"=>\"1155511\",\"addr:city\"=>\"Leeds\",\"addr:unit\"=>\"6\",\"addr:street\"=>\"Otley Road\",\"description\"=>\"Formerly Arthritis Research UK\",\"addr:postcode\"=>\"LS6 2UE\",\"addr:housename\"=>\"Arndale Centre\"" }, "geometry": { "type": "Point", "coordinates": [ -1.5777987, 53.8216895 ] } },
	{ "type": "Feature", "properties": { "osm_id": "2118549256", "name": "Costa", "amenity": "cafe", "other_tags": "\"brand\"=>\"Costa\",\"cuisine\"=>\"coffee_shop\",\"fhrs:id\"=>\"322526\",\"takeaway\"=>\"yes\",\"addr:city\"=>\"Leeds\",\"addr:unit\"=>\"3\",\"wheelchair\"=>\"yes\",\"addr:street\"=>\"Otley Road\",\"addr:postcode\"=>\"LS6 2UE\",\"addr:housename\"=>\"Arndale Centre\",\"brand:wikidata\"=>\"Q608845\",\"brand:wikipedia\"=>\"en:Costa Coffee\"" }, "geometry": { "type": "Point", "coordinates": [ -1.5776834, 53.821568 ] } },
	{ "type": "Feature", "properties": { "osm_id": "2125804304", "name": "Reggies Cafe & Takeaway", "amenity": "cafe", "other_tags": "\"fhrs:id\"=>\"1101708\",\"addr:city\"=>\"Wakefield\",\"addr:street\"=>\"Leeds Road\",\"addr:postcode\"=>\"WF3 3LW\",\"addr:housenumber\"=>\"253\"" }, "geometry": { "type": "Point", "coordinates": [ -1.4972847, 53.7304716 ] } },
	{ "type": "Feature", "properties": { "osm_id": "2134260273", "name": "Cafe 164", "amenity": "cafe", "other_tags": "\"fhrs:id\"=>\"555762\",\"addr:city\"=>\"Leeds\",\"addr:unit\"=>\"2b\",\"addr:street\"=>\"Duke Street\",\"addr:postcode\"=>\"LS9 8AG\",\"addr:housename\"=>\"Munro House\"" }, "geometry": { "type": "Point", "coordinates": [ -1.5339258, 53.7967618 ] } },
	{ "type": "Feature", "properties": { "osm_id": "2134629661", "name": "Taste", "amenity": "cafe", "other_tags": "\"fhrs:id\"=>\"1194690\",\"addr:city\"=>\"Leeds\",\"addr:street\"=>\"Saw Mill Yard\",\"addr:postcode\"=>\"LS11 5WH\",\"addr:housenumber\"=>\"3\"" }, "geometry": { "type": "Point", "coordinates": [ -1.5523732, 53.7912542 ] } },
	{ "type": "Feature", "properties": { "osm_id": "2134637002", "name": "David Street Cafe", "amenity": "cafe", "other_tags": "\"fhrs:id\"=>\"591803\",\"addr:city\"=>\"Leeds\",\"addr:street\"=>\"Water Lane\",\"addr:postcode\"=>\"LS11 5WD\",\"addr:housenumber\"=>\"109\"" }, "geometry": { "type": "Point", "coordinates": [ -1.5530881, 53.7916891 ] } },
	{ "type": "Feature", "properties": { "osm_id": "2134871082", "name": "Out of the Woods", "amenity": "cafe", "other_tags": "\"fhrs:id\"=>\"1066939\",\"website\"=>\"https:\/\/outofthewoods.me.uk\/\",\"addr:city\"=>\"Leeds\",\"addr:unit\"=>\"C\",\"addr:street\"=>\"Wharf Approach\",\"addr:suburb\"=>\"Holbeck\",\"addr:postcode\"=>\"LS1 4GL\",\"addr:housename\"=>\"Watermans Place\",\"addr:housenumber\"=>\"3\"" }, "geometry": { "type": "Point", "coordinates": [ -1.5487252, 53.7935428 ] } },
	{ "type": "Feature", "properties": { "osm_id": "2135006003", "name": "Philpotts", "amenity": "cafe", "other_tags": "\"cuisine\"=>\"sandwich\",\"fhrs:id\"=>\"1174803\",\"addr:city\"=>\"Leeds\",\"addr:street\"=>\"Water Lane\",\"addr:suburb\"=>\"Holbeck\",\"source:addr\"=>\"FHRS Open Data\",\"addr:postcode\"=>\"LS11 5BZ\",\"addr:housename\"=>\"Bridgewater Place\"" }, "geometry": { "type": "Point", "coordinates": [ -1.5475539, 53.7913436 ] } },
	{ "type": "Feature", "properties": { "osm_id": "2135006317", "name": "Starbucks", "amenity": "cafe", "other_tags": "\"brand\"=>\"Starbucks\",\"cuisine\"=>\"coffee_shop\",\"fhrs:id\"=>\"868193\",\"takeaway\"=>\"yes\",\"addr:postcode\"=>\"LS11 5QS\",\"official_name\"=>\"Starbucks Coffee\",\"brand:wikidata\"=>\"Q37158\",\"brand:wikipedia\"=>\"en:Starbucks\"" }, "geometry": { "type": "Point", "coordinates": [ -1.5478202, 53.7913347 ] } },
	{ "type": "Feature", "properties": { "osm_id": "2135315776", "name": "Doghouse", "amenity": "cafe", "other_tags": "\"shop\"=>\"music\",\"fhrs:id\"=>\"1193325\",\"addr:city\"=>\"Leeds\",\"addr:street\"=>\"Kirkgate\",\"addr:postcode\"=>\"LS2 7DJ\",\"addr:housenumber\"=>\"90\"" }, "geometry": { "type": "Point", "coordinates": [ -1.5387858, 53.7961175 ] } },
	{ "type": "Feature", "properties": { "osm_id": "2135741093", "name": "Panini Shack", "amenity": "cafe", "other_tags": "\"cuisine\"=>\"sandwich\",\"fhrs:id\"=>\"706375\",\"addr:postcode\"=>\"LS11 5QR\"" }, "geometry": { "type": "Point", "coordinates": [ -1.548243, 53.7915908 ] } },
	{ "type": "Feature", "properties": { "osm_id": "2136037367", "name": "Juici Sushi", "amenity": "cafe", "other_tags": "\"fhrs:id\"=>\"1073663\",\"addr:city\"=>\"Leeds\",\"addr:unit\"=>\"2C\",\"addr:street\"=>\"Water Lane\",\"addr:suburb\"=>\"Holbeck\",\"addr:postcode\"=>\"LS11 5QS\",\"addr:housename\"=>\"Bridgewater Place\"" }, "geometry": { "type": "Point", "coordinates": [ -1.5478616, 53.7914028 ] } },
	{ "type": "Feature", "properties": { "osm_id": "2142071137", "name": "The New Captain's Table", "amenity": "cafe", "other_tags": "\"fhrs:id\"=>\"855837\",\"addr:city\"=>\"Leeds\",\"addr:street\"=>\"Easy Road\",\"addr:postcode\"=>\"LS9 8LH\",\"addr:housenumber\"=>\"1\"" }, "geometry": { "type": "Point", "coordinates": [ -1.5233939, 53.7900537 ] } },
	{ "type": "Feature", "properties": { "osm_id": "2144729411", "name": "Costa", "amenity": "cafe", "other_tags": "\"brand\"=>\"Costa\",\"cuisine\"=>\"coffee_shop\",\"takeaway\"=>\"yes\",\"addr:city\"=>\"Leeds\",\"addr:street\"=>\"Bond Court\",\"addr:postcode\"=>\"LS1 2JZ\",\"brand:wikidata\"=>\"Q608845\",\"brand:wikipedia\"=>\"en:Costa Coffee\",\"addr:housenumber\"=>\"A 2\"" }, "geometry": { "type": "Point", "coordinates": [ -1.5477045, 53.7978464 ] } },
	{ "type": "Feature", "properties": { "osm_id": "2144729418", "name": "Grindhouse", "amenity": "cafe", "other_tags": "\"addr:city\"=>\"Leeds\",\"addr:housenumber\"=>\"22\",\"addr:postcode\"=>\"LS1 6NU\",\"addr:street\"=>\"New Briggate\",\"cuisine\"=>\"coffee_shop;drinks\",\"old_name\"=>\"Winerack\",\"outdoor_seating\"=>\"yes\"" }, "geometry": { "type": "Point", "coordinates": [ -1.5416094, 53.7995361 ] } },
	{ "type": "Feature", "properties": { "osm_id": "2144729454", "name": "San Co Co", "amenity": "cafe", "other_tags": "\"fhrs:id\"=>\"471145\",\"addr:city\"=>\"Leeds\",\"addr:street\"=>\"New Briggate\",\"addr:postcode\"=>\"LS1 6NU\",\"addr:housenumber\"=>\"12\"" }, "geometry": { "type": "Point", "coordinates": [ -1.5417098, 53.7993591 ] } },
	{ "type": "Feature", "properties": { "osm_id": "2144729463", "name": "Tavassolis", "amenity": "cafe", "other_tags": "\"shop\"=>\"confectionery\",\"fhrs:id\"=>\"1026261\",\"addr:city\"=>\"Leeds\",\"addr:street\"=>\"New Briggate\",\"addr:postcode\"=>\"LS1 6NU\",\"addr:housenumber\"=>\"14\"" }, "geometry": { "type": "Point", "coordinates": [ -1.5416847, 53.7994033 ] } },
	{ "type": "Feature", "properties": { "osm_id": "2157985590", "name": "Laynes Espresso", "amenity": "cafe", "other_tags": "\"phone\"=>\"+44 7828 823189\",\"cuisine\"=>\"coffee_shop;breakfast\",\"fhrs:id\"=>\"471140\",\"website\"=>\"www.laynesespresso.co.uk\",\"addr:city\"=>\"Leeds\",\"addr:street\"=>\"New Station Street\",\"addr:postcode\"=>\"LS1 5DL\",\"addr:housenumber\"=>\"16\"" }, "geometry": { "type": "Point", "coordinates": [ -1.5451618, 53.7952673 ] } },
	{ "type": "Feature", "properties": { "osm_id": "2169740222", "name": "If...", "amenity": "cafe", "other_tags": "\"addr:city\"=>\"Leeds\",\"addr:housename\"=>\"Market Buildings\",\"addr:housenumber\"=>\"14\",\"addr:postcode\"=>\"LS2 7UZ\",\"addr:street\"=>\"Ludgate Hill\",\"cuisine\"=>\"coffee_shop\",\"old_name\"=>\"Market News\"" }, "geometry": { "type": "Point", "coordinates": [ -1.5400004, 53.7975607 ] } },
	{ "type": "Feature", "properties": { "osm_id": "2195805681", "name": "The Inn Plaice", "amenity": "cafe", "other_tags": "\"cuisine\"=>\"fish\",\"fhrs:id\"=>\"324626\",\"addr:city\"=>\"Bradford\",\"addr:street\"=>\"Sunbridge Road\",\"source:addr\"=>\"FHRS Open Data\",\"addr:postcode\"=>\"BD1 2AZ\",\"addr:housenumber\"=>\"1\"" }, "geometry": { "type": "Point", "coordinates": [ -1.7540304, 53.7933334 ] } },
	{ "type": "Feature", "properties": { "osm_id": "2216593103", "name": "Learning Centre Cafe", "amenity": "cafe", "other_tags": "\"fhrs:id\"=>\"1083872\",\"addr:city\"=>\"Wakefield\",\"addr:place\"=>\"Yorkshire Sculpture Park\",\"addr:street\"=>\"Park Lane\",\"addr:suburb\"=>\"Bretton\",\"addr:postcode\"=>\"WF4 4LG\"" }, "geometry": { "type": "Point", "coordinates": [ -1.5691916, 53.6138159 ] } },
	{ "type": "Feature", "properties": { "osm_id": "2255919391", "name": "The Donkey Sanctuary", "amenity": "cafe", "other_tags": "\"fhrs:id\"=>\"542465\",\"addr:city\"=>\"Leeds\",\"addr:street\"=>\"Swan Lane\",\"addr:suburb\"=>\"Eccup\",\"addr:postcode\"=>\"LS16 8AZ\"" }, "geometry": { "type": "Point", "coordinates": [ -1.5769251, 53.8825233 ] } },
	{ "type": "Feature", "properties": { "osm_id": "2306312100", "name": "LIMM café", "amenity": "cafe" }, "geometry": { "type": "Point", "coordinates": [ -1.5200157, 53.8080686 ] } },
	{ "type": "Feature", "properties": { "osm_id": "2351239795", "name": "Outside The Box", "amenity": "cafe", "other_tags": "\"fhrs:id\"=>\"650468\",\"website\"=>\"http:\/\/outsidetheboxcafe.com\",\"addr:city\"=>\"Ilkley\",\"date_start\"=>\"June 2013\",\"addr:street\"=>\"Bridge Lane\",\"description\"=>\"Community cafe, supporting adults with learning disabilities.\",\"source:addr\"=>\"FHRS Open Data\",\"addr:postcode\"=>\"LS29 9HN\",\"addr:housenumber\"=>\"2a\"" }, "geometry": { "type": "Point", "coordinates": [ -1.8255438, 53.9264201 ] } },
	{ "type": "Feature", "properties": { "osm_id": "2353498835", "name": "Salami And Co", "amenity": "cafe", "other_tags": "\"addr:city\"=>\"Otley\",\"addr:country\"=>\"GB\",\"addr:housenumber\"=>\"10\",\"addr:postcode\"=>\"LS21 3AQ\",\"addr:street\"=>\"Market Place\",\"addr:town\"=>\"Otley\",\"fhrs:id\"=>\"937216\",\"is_in:town\"=>\"Otley\"" }, "geometry": { "type": "Point", "coordinates": [ -1.6940267, 53.9058101 ] } },
	{ "type": "Feature", "properties": { "osm_id": "2353548704", "name": "Costa", "amenity": "cafe", "other_tags": "\"addr:city\"=>\"Otley\",\"addr:country\"=>\"GB\",\"addr:housenumber\"=>\"42-48\",\"addr:postcode\"=>\"LS21 3HJ\",\"addr:street\"=>\"Kirkgate\",\"brand\"=>\"Costa\",\"brand:wikidata\"=>\"Q608845\",\"brand:wikipedia\"=>\"en:Costa Coffee\",\"cuisine\"=>\"coffee_shop\",\"fhrs:id\"=>\"1090607\",\"internet_access\"=>\"wlan\",\"old_name\"=>\"Haigh's\",\"opening_hours\"=>\"Mo-Su 07:30-18:30\",\"operator\"=>\"Costa\",\"phone\"=>\"+44 1943 462588\",\"takeaway\"=>\"yes\"" }, "geometry": { "type": "Point", "coordinates": [ -1.6939251, 53.904561 ] } },
	{ "type": "Feature", "properties": { "osm_id": "2353686091", "name": "Snack Bar", "amenity": "cafe", "other_tags": "\"fhrs:id\"=>\"320668\",\"alt_name\"=>\"Bus Station Snack Bar\",\"addr:street\"=>\"New Market\",\"source:addr\"=>\"FHRS Open Data\",\"addr:postcode\"=>\"LS21 3AE\",\"addr:housenumber\"=>\"38\"" }, "geometry": { "type": "Point", "coordinates": [ -1.6927557, 53.9046954 ] } },
	{ "type": "Feature", "properties": { "osm_id": "2353729412", "name": "O'Deli", "amenity": "cafe", "other_tags": "\"addr:city\"=>\"Otley\",\"addr:housenumber\"=>\"4\",\"addr:postcode\"=>\"LS21 3AE\",\"addr:street\"=>\"Newmarket\"" }, "geometry": { "type": "Point", "coordinates": [ -1.6932492, 53.9052326 ] } },
	{ "type": "Feature", "properties": { "osm_id": "2356866785", "name": "Cafe in the Courthouse", "amenity": "cafe", "other_tags": "\"website\"=>\"https:\/\/otleycourthouse.org.uk\/\",\"addr:city\"=>\"Otley\",\"addr:street\"=>\"Courthouse Street\",\"addr:postcode\"=>\"LS21 3AN\",\"opening_hours\"=>\"Mo-Sa 10:00-15:00\",\"addr:housename\"=>\"Otley Courthouse\"" }, "geometry": { "type": "Point", "coordinates": [ -1.6926358, 53.9065017 ] } },
	{ "type": "Feature", "properties": { "osm_id": "2358527837", "name": "Aagrah Food Court", "amenity": "cafe", "other_tags": "\"alt_name\"=>\"Aagrar Saltaire Suite\"" }, "geometry": { "type": "Point", "coordinates": [ -1.7808879, 53.834942 ] } },
	{ "type": "Feature", "properties": { "osm_id": "2358555956", "name": "Spud Hut", "amenity": "cafe", "other_tags": "\"cuisine\"=>\"potato;sandwich;panini\",\"fhrs:id\"=>\"327886\",\"addr:city\"=>\"Shipley\",\"addr:street\"=>\"Westgate\",\"source:addr\"=>\"FHRS Open Data\",\"addr:postcode\"=>\"BD18 3QX\",\"addr:housenumber\"=>\"36\"" }, "geometry": { "type": "Point", "coordinates": [ -1.7786885, 53.8344323 ] } },
	{ "type": "Feature", "properties": { "osm_id": "2358555960", "name": "Roses Cafe", "amenity": "cafe", "other_tags": "\"addr:city\"=>\"Shipley\",\"addr:housenumber\"=>\"35\",\"addr:postcode\"=>\"BD18 3QX\",\"addr:street\"=>\"Westgate\",\"fhrs:id\"=>\"327885\",\"source:addr\"=>\"FHRS Open Data\"" }, "geometry": { "type": "Point", "coordinates": [ -1.7768234, 53.8339502 ] } },
	{ "type": "Feature", "properties": { "osm_id": "2358562638", "name": "Interlude", "amenity": "cafe", "other_tags": "\"cuisine\"=>\"tea_room\",\"fhrs:id\"=>\"327884\",\"addr:city\"=>\"Shipley\",\"addr:street\"=>\"Westgate\",\"source:addr\"=>\"FHRS Open Data\",\"addr:postcode\"=>\"BD18 3QX\",\"addr:housenumber\"=>\"27\"" }, "geometry": { "type": "Point", "coordinates": [ -1.7784981, 53.8345495 ] } },
	{ "type": "Feature", "properties": { "osm_id": "2358562639", "name": "Pan Choice", "amenity": "cafe", "other_tags": "\"cuisine\"=>\"chinese\"" }, "geometry": { "type": "Point", "coordinates": [ -1.7782888, 53.8343183 ] } },
	{ "type": "Feature", "properties": { "osm_id": "2358584618", "name": "Market Choice Cafe", "amenity": "cafe", "other_tags": "\"fhrs:id\"=>\"327517\",\"addr:city\"=>\"Shipley\",\"addr:street\"=>\"Westgate\",\"source:addr\"=>\"FHRS Open Data\",\"addr:postcode\"=>\"BD18 3QU\",\"addr:housename\"=>\"Market Hall\",\"addr:housenumber\"=>\"Unit 41 And 42\"" }, "geometry": { "type": "Point", "coordinates": [ -1.777621, 53.834217 ] } },
	{ "type": "Feature", "properties": { "osm_id": "2358584621", "name": "Mortimer's Coffee House Cafe", "amenity": "cafe", "other_tags": "\"fhrs:id\"=>\"327889\",\"addr:city\"=>\"Shipley\",\"addr:street\"=>\"Westgate\",\"source:addr\"=>\"FHRS Open Data\",\"addr:postcode\"=>\"BD18 3QX\",\"addr:housenumber\"=>\"5\"" }, "geometry": { "type": "Point", "coordinates": [ -1.7775244, 53.8343992 ] } },
	{ "type": "Feature", "properties": { "osm_id": "2358605894", "name": "Natta Cafe", "amenity": "cafe", "other_tags": "\"al_fresco\"=>\"yes\"" }, "geometry": { "type": "Point", "coordinates": [ -1.7778141, 53.8335888 ] } },
	{ "type": "Feature", "properties": { "osm_id": "2358605900", "name": "Costa", "amenity": "cafe", "other_tags": "\"brand\"=>\"Costa\",\"cuisine\"=>\"coffee_shop\",\"fhrs:id\"=>\"325614\",\"takeaway\"=>\"yes\",\"addr:city\"=>\"Shipley\",\"al_fresco\"=>\"no\",\"addr:street\"=>\"Market Street\",\"source:addr\"=>\"FHRS Open Data\",\"addr:postcode\"=>\"BD18 3QD\",\"brand:wikidata\"=>\"Q608845\",\"brand:wikipedia\"=>\"en:Costa Coffee\",\"addr:housenumber\"=>\"11\"" }, "geometry": { "type": "Point", "coordinates": [ -1.7765979, 53.8329339 ] } },
	{ "type": "Feature", "properties": { "osm_id": "2383490809", "name": "The Potters Den", "amenity": "cafe", "other_tags": "\"phone\"=>\"+44 7984 996 479\",\"fhrs:id\"=>\"463822\",\"website\"=>\"http:\/\/www.thepottersden.co.uk\",\"addr:city\"=>\"Holmfirth\",\"addr:street\"=>\"Norridge Bottom\",\"source:addr\"=>\"FHRS Open Data\",\"addr:country\"=>\"GB\",\"addr:postcode\"=>\"HD9 7BB\",\"outdoor_seating\"=>\"yes\",\"addr:housenumber\"=>\"9\"" }, "geometry": { "type": "Point", "coordinates": [ -1.7869925, 53.5706476 ] } },
	{ "type": "Feature", "properties": { "osm_id": "2384102736", "amenity": "cafe" }, "geometry": { "type": "Point", "coordinates": [ -1.7395154, 53.74714 ] } },
	{ "type": "Feature", "properties": { "osm_id": "2398153514", "amenity": "cafe", "other_tags": "\"indoor\"=>\"yes\"" }, "geometry": { "type": "Point", "coordinates": [ -1.7847074, 53.6483267 ] } },
	{ "type": "Feature", "properties": { "osm_id": "2398185088", "amenity": "cafe", "other_tags": "\"layer\"=>\"1\",\"indoor\"=>\"yes\"" }, "geometry": { "type": "Point", "coordinates": [ -1.7847076, 53.6488779 ] } },
	{ "type": "Feature", "properties": { "osm_id": "2400983693", "name": "Watersedge Cafe", "amenity": "cafe" }, "geometry": { "type": "Point", "coordinates": [ -1.9416002, 53.6039878 ] } },
	{ "type": "Feature", "properties": { "osm_id": "2406677460", "name": "The Scar Cafe", "amenity": "cafe" }, "geometry": { "type": "Point", "coordinates": [ -1.7939209, 53.6320289 ] } },
	{ "type": "Feature", "properties": { "osm_id": "2415085152", "name": "Caffè Nero", "amenity": "cafe", "other_tags": "\"addr:city\"=>\"Ilkley\",\"addr:housenumber\"=>\"6\",\"addr:postcode\"=>\"LS29 8DE\",\"addr:street\"=>\"Brook Street\",\"brand\"=>\"Caffè Nero\",\"brand:wikidata\"=>\"Q675808\",\"brand:wikipedia\"=>\"en:Caffè Nero\",\"cuisine\"=>\"coffee_shop\",\"fhrs:id\"=>\"325867\",\"source:addr\"=>\"FHRS Open Data\",\"takeaway\"=>\"yes\"" }, "geometry": { "type": "Point", "coordinates": [ -1.823067, 53.9248695 ] } },
	{ "type": "Feature", "properties": { "osm_id": "2458311891", "name": "Káva", "amenity": "cafe", "other_tags": "\"layer\"=>\"1\",\"alt_name\"=>\"Kava\",\"diet:vegan\"=>\"yes\",\"diet:vegetarian\"=>\"only\",\"diet:gluten_free\"=>\"yes\"" }, "geometry": { "type": "Point", "coordinates": [ -2.0982501, 53.7125872 ] } },
	{ "type": "Feature", "properties": { "osm_id": "2459851975", "name": "The magic sandwich co.", "amenity": "cafe", "other_tags": "\"takeaway\"=>\"yes\"" }, "geometry": { "type": "Point", "coordinates": [ -1.8814488, 53.7146922 ] } },
	{ "type": "Feature", "properties": { "osm_id": "2492651385", "name": "Opposite", "amenity": "cafe", "other_tags": "\"phone\"=>\"+44 113 266 2895\",\"fhrs:id\"=>\"1150685\",\"addr:city\"=>\"Leeds\",\"addr:street\"=>\"Stainbeck Lane\",\"addr:postcode\"=>\"LS7 3QY\",\"addr:housenumber\"=>\"4\"" }, "geometry": { "type": "Point", "coordinates": [ -1.5387536, 53.8291827 ] } },
	{ "type": "Feature", "properties": { "osm_id": "2492651502", "name": "Art And The Secret Garden", "amenity": "cafe", "other_tags": "\"fhrs:id\"=>\"323389\",\"addr:city\"=>\"Leeds\",\"addr:street\"=>\"Weetwood Lane\",\"addr:suburb\"=>\"Weetwood\",\"addr:postcode\"=>\"LS16 5LS\",\"addr:housenumber\"=>\"6-8\"" }, "geometry": { "type": "Point", "coordinates": [ -1.5823491, 53.8277833 ] } },
	{ "type": "Feature", "properties": { "osm_id": "2517193667", "name": "Inkwell", "amenity": "cafe", "other_tags": "\"cuisine\"=>\"regional\",\"fhrs:id\"=>\"471137\",\"tourism\"=>\"attraction\",\"addr:city\"=>\"Leeds\",\"addr:street\"=>\"Potternewton Lane\",\"addr:postcode\"=>\"LS7 3LW\",\"addr:housename\"=>\"Inkwell\",\"internet_access\"=>\"yes\",\"addr:housenumber\"=>\"31\"" }, "geometry": { "type": "Point", "coordinates": [ -1.5347097, 53.8246687 ] } },
	{ "type": "Feature", "properties": { "osm_id": "2589641035", "name": "Costa", "amenity": "cafe", "other_tags": "\"addr:city\"=>\"Bradford\",\"addr:housenumber\"=>\"60\",\"addr:postcode\"=>\"BD1 1QT\",\"addr:street\"=>\"Kirkgate\",\"brand\"=>\"Costa\",\"brand:wikidata\"=>\"Q608845\",\"brand:wikipedia\"=>\"en:Costa Coffee\",\"cuisine\"=>\"coffee_shop\",\"fhrs:id\"=>\"328330\",\"source:addr\"=>\"FHRS Open Data\",\"takeaway\"=>\"yes\"" }, "geometry": { "type": "Point", "coordinates": [ -1.7575079, 53.7929932 ] } },
	{ "type": "Feature", "properties": { "osm_id": "2589641050", "name": "The Deli", "amenity": "cafe", "other_tags": "\"fhrs:id\"=>\"324714\",\"addr:city\"=>\"Bradford\",\"addr:floor\"=>\"Ground Floor\",\"addr:street\"=>\"Thornton Road\",\"addr:postcode\"=>\"BD1 2BX\",\"contact:phone\"=>\"01274 733490\",\"internet_access\"=>\"no\",\"addr:housenumber\"=>\"93\"" }, "geometry": { "type": "Point", "coordinates": [ -1.757862, 53.7927968 ] } },
	{ "type": "Feature", "properties": { "osm_id": "2661206208", "name": "The Veggie", "amenity": "cafe", "other_tags": "\"addr:city\"=>\"Ilkley\",\"addr:housenumber\"=>\"32\",\"addr:postcode\"=>\"LS29 8DS\",\"addr:street\"=>\"Leeds Road\",\"fhrs:id\"=>\"344774\",\"source:addr\"=>\"FHRS Open Data\"" }, "geometry": { "type": "Point", "coordinates": [ -1.8209982, 53.9261596 ] } },
	{ "type": "Feature", "properties": { "osm_id": "2661206209", "name": "The Commute", "amenity": "cafe", "other_tags": "\"addr:city\"=>\"Ilkley\",\"addr:housenumber\"=>\"20\",\"addr:postcode\"=>\"LS29 8DS\",\"addr:street\"=>\"Leeds Road\",\"cuisine\"=>\"coffee_shop\",\"fhrs:id\"=>\"873172\",\"outdoor_seating\"=>\"yes\"" }, "geometry": { "type": "Point", "coordinates": [ -1.8214444, 53.926164 ] } },
	{ "type": "Feature", "properties": { "osm_id": "2661206217", "name": "Toast House", "amenity": "cafe", "other_tags": "\"fhrs:id\"=>\"617135\",\"addr:city\"=>\"Ilkley\",\"addr:street\"=>\"Leeds Road\",\"source:addr\"=>\"FHRS Open Data\",\"addr:postcode\"=>\"LS29 8DS\",\"addr:housenumber\"=>\"22\"" }, "geometry": { "type": "Point", "coordinates": [ -1.8213736, 53.9261606 ] } },
	{ "type": "Feature", "properties": { "osm_id": "2725605359", "name": "Pit Stop Cafe", "amenity": "cafe", "other_tags": "\"fhrs:id\"=>\"324926\",\"addr:city\"=>\"Shipley\",\"addr:street\"=>\"Queen Street\",\"addr:village\"=>\"Baildon\",\"addr:postcode\"=>\"BD17 6AA\",\"addr:housenumber\"=>\"8\"" }, "geometry": { "type": "Point", "coordinates": [ -1.7682212, 53.8407367 ] } },
	{ "type": "Feature", "properties": { "osm_id": "2734299592", "name": "Tasty Toasties", "amenity": "cafe", "other_tags": "\"cuisine\"=>\"Sandwich,_Panini,_Wraps\",\"fhrs:id\"=>\"323630\",\"addr:city\"=>\"Leeds\",\"addr:street\"=>\"Wellington Street\",\"addr:postcode\"=>\"LS1 4LT\",\"internet_access\"=>\"no\",\"addr:housenumber\"=>\"104\"" }, "geometry": { "type": "Point", "coordinates": [ -1.5556421, 53.796951 ] } },
	{ "type": "Feature", "properties": { "osm_id": "2772598091", "name": "Pure North's Cider Press & Cafe", "amenity": "cafe", "other_tags": "\"wifi\"=>\"yes\",\"cuisine\"=>\"regional\",\"designation\"=>\"Artisan Cider Press\"" }, "geometry": { "type": "Point", "coordinates": [ -1.7905747, 53.5864724 ] } },
	{ "type": "Feature", "properties": { "osm_id": "2797640562", "name": "Viaduct Cafe", "amenity": "cafe", "other_tags": "\"addr:city\"=>\"Halifax\",\"addr:street\"=>\"Dean Clough Mills\",\"addr:postcode\"=>\"HX3 5AX\"" }, "geometry": { "type": "Point", "coordinates": [ -1.8629172, 53.7280623 ] } },
	{ "type": "Feature", "properties": { "osm_id": "2822958770", "name": "Shine", "amenity": "cafe", "other_tags": "\"fhrs:id\"=>\"546094\",\"website\"=>\"https:\/\/shinecollective.co.uk\/\",\"addr:city\"=>\"Leeds\",\"wheelchair\"=>\"yes\",\"addr:street\"=>\"Harehills Road\",\"addr:postcode\"=>\"LS8 5HS\",\"internet_access\"=>\"yes\"" }, "geometry": { "type": "Point", "coordinates": [ -1.5168078, 53.8119906 ] } },
	{ "type": "Feature", "properties": { "osm_id": "2888250301", "name": "Sainsburys Cafe", "amenity": "cafe", "other_tags": "\"cuisine\"=>\"coffee_shop\",\"smoking\"=>\"no\",\"operator\"=>\"Sainsburys\",\"takeaway\"=>\"no\",\"outdoor_seating\"=>\"no\"" }, "geometry": { "type": "Point", "coordinates": [ -1.434754, 53.794679 ] } },
	{ "type": "Feature", "properties": { "osm_id": "2909129813", "name": "Cranberries", "amenity": "cafe", "other_tags": "\"fhrs:id\"=>\"321350\",\"addr:city\"=>\"Leeds\",\"addr:street\"=>\"Otley Road\",\"addr:postcode\"=>\"LS16 7NR\",\"addr:housenumber\"=>\"471\"" }, "geometry": { "type": "Point", "coordinates": [ -1.591622, 53.8546125 ] } },
	{ "type": "Feature", "properties": { "osm_id": "3045379706", "name": "The Sticky Bun Play Cafe", "amenity": "cafe", "other_tags": "\"fhrs:id\"=>\"1171474\",\"old_name\"=>\"Old Crown\",\"addr:town\"=>\"Pontefract\",\"addr:street\"=>\"Barnsley Road\",\"addr:suburb\"=>\"South Kirkby\",\"addr:postcode\"=>\"WF9 3BH\",\"addr:housenumber\"=>\"104\"" }, "geometry": { "type": "Point", "coordinates": [ -1.3116481, 53.5944526 ] } },
	{ "type": "Feature", "properties": { "osm_id": "3057247704", "name": "WinneBagel Cafe", "amenity": "cafe", "other_tags": "\"addr:housenumber\"=>\"82\",\"addr:postcode\"=>\"LS28 8LE\",\"addr:street\"=>\"Galloway Lane\",\"addr:suburb\"=>\"Stanningley\",\"addr:town\"=>\"Pudsey\",\"fhrs:id\"=>\"1271711\",\"old_name\"=>\"The Sandwich Shop\"" }, "geometry": { "type": "Point", "coordinates": [ -1.6896257, 53.8006524 ] } },
	{ "type": "Feature", "properties": { "osm_id": "3094828451", "name": "Chelle's Deli Cafe", "amenity": "cafe", "other_tags": "\"fhrs:id\"=>\"229511\",\"addr:city\"=>\"Mirfield\",\"addr:street\"=>\"Sunny Bank Road\",\"source:addr\"=>\"FHRS Open Data\",\"addr:country\"=>\"GB\",\"addr:postcode\"=>\"WF14 0NL\",\"addr:housenumber\"=>\"80\"" }, "geometry": { "type": "Point", "coordinates": [ -1.6965354, 53.6909766 ] } },
	{ "type": "Feature", "properties": { "osm_id": "3094828452", "name": "Elves Kitchen", "amenity": "cafe" }, "geometry": { "type": "Point", "coordinates": [ -1.6963312, 53.6998774 ] } },
	{ "type": "Feature", "properties": { "osm_id": "3187336469", "name": "The Swine That Dines", "amenity": "cafe", "other_tags": "\"cuisine\"=>\"sandwich\",\"fhrs:id\"=>\"323420\",\"addr:city\"=>\"Leeds\",\"addr:street\"=>\"North Street\",\"addr:postcode\"=>\"LS2 7PN\",\"internet_access\"=>\"no\",\"addr:housenumber\"=>\"58\"" }, "geometry": { "type": "Point", "coordinates": [ -1.5383417, 53.8013931 ] } },
	{ "type": "Feature", "properties": { "osm_id": "3188559659", "name": "Cafe 54", "amenity": "cafe", "other_tags": "\"fhrs:id\"=>\"1019106\",\"addr:city\"=>\"Heckmondwike\",\"addr:hamlet\"=>\"High Street\",\"addr:street\"=>\"High Street\",\"source:addr\"=>\"FHRS Open Data\",\"addr:country\"=>\"GB\",\"addr:postcode\"=>\"WF16 0HX\",\"addr:housenumber\"=>\"54\"" }, "geometry": { "type": "Point", "coordinates": [ -1.6741017, 53.7072159 ] } },
	{ "type": "Feature", "properties": { "osm_id": "3194894614", "name": "Lincoln Green Internet Cafe", "amenity": "cafe", "other_tags": "\"addr:city\"=>\"Leeds\",\"addr:housenumber\"=>\"74\",\"addr:postcode\"=>\"LS9 7SU\",\"addr:street\"=>\"Lincoln Green Road\",\"fhrs:id\"=>\"1280340\",\"internet_access\"=>\"yes\"" }, "geometry": { "type": "Point", "coordinates": [ -1.5265014, 53.8020029 ] } },
	{ "type": "Feature", "properties": { "osm_id": "3222612966", "name": "Symposium", "amenity": "cafe", "other_tags": "\"fhrs:id\"=>\"1052947\",\"addr:city\"=>\"Leeds\",\"addr:street\"=>\"The Crescent\",\"addr:suburb\"=>\"Woodhouse\",\"addr:postcode\"=>\"LS6 2NW\",\"addr:housenumber\"=>\"8\"" }, "geometry": { "type": "Point", "coordinates": [ -1.5611833, 53.8147579 ] } },
	{ "type": "Feature", "properties": { "osm_id": "3222614366", "name": "La Cafetiere", "amenity": "cafe", "other_tags": "\"cuisine\"=>\"mediterranean\",\"fhrs:id\"=>\"321225\",\"smoking\"=>\"no\",\"capacity\"=>\"75\",\"catering\"=>\"yes\",\"delivery\"=>\"no\",\"takeaway\"=>\"yes\",\"addr:city\"=>\"Leeds\",\"addr:street\"=>\"The Crescent\",\"addr:postcode\"=>\"LS6 2NW\",\"opening_hours\"=>\"Mo-Fr 10:00-22:00, Sa-Su 09:00-22:00\",\"addr:housename\"=>\"La Cafetiere\",\"internet_access\"=>\"wlan\",\"outdoor_seating\"=>\"yes\",\"addr:housenumber\"=>\"6\",\"internet_access:fee\"=>\"no\"" }, "geometry": { "type": "Point", "coordinates": [ -1.5612238, 53.8146379 ] } },
	{ "type": "Feature", "properties": { "osm_id": "3222614367", "name": "The Story of O", "amenity": "cafe" }, "geometry": { "type": "Point", "coordinates": [ -1.5612014, 53.8146014 ] } },
	{ "type": "Feature", "properties": { "osm_id": "3222614871", "name": "Coffee On The Crescent", "amenity": "cafe", "other_tags": "\"fhrs:id\"=>\"1028713\",\"old_name\"=>\"Morrison Watts Property\",\"addr:city\"=>\"Leeds\",\"addr:street\"=>\"The Crescent\",\"addr:suburb\"=>\"Woodhouse\",\"addr:postcode\"=>\"LS6 2NW\",\"addr:housenumber\"=>\"2\"" }, "geometry": { "type": "Point", "coordinates": [ -1.5610327, 53.8144721 ] } },
	{ "type": "Feature", "properties": { "osm_id": "3225929664", "name": "Peach and Pear", "amenity": "cafe" }, "geometry": { "type": "Point", "coordinates": [ -1.5713039, 53.8118305 ] } },
	{ "type": "Feature", "properties": { "osm_id": "3225929761", "name": "Vital Punk", "amenity": "cafe", "other_tags": "\"fhrs:id\"=>\"1137695\",\"old_name\"=>\"Go Food\",\"addr:city\"=>\"Leeds\",\"addr:street\"=>\"Brudenell Road\",\"addr:suburb\"=>\"Hyde Park\",\"addr:postcode\"=>\"LS6 1EG\",\"addr:housenumber\"=>\"82-84\"" }, "geometry": { "type": "Point", "coordinates": [ -1.5702911, 53.812115 ] } },
	{ "type": "Feature", "properties": { "osm_id": "3225929774", "name": "Popina's", "amenity": "cafe", "other_tags": "\"fhrs:id\"=>\"322741\",\"addr:city\"=>\"Leeds\",\"wheelchair\"=>\"limited\",\"addr:street\"=>\"Brudenell Road\",\"addr:postcode\"=>\"LS6 1HA\",\"addr:housenumber\"=>\"31\",\"toilets:wheelchair\"=>\"no\"" }, "geometry": { "type": "Point", "coordinates": [ -1.5666866, 53.812724 ] } },
	{ "type": "Feature", "properties": { "osm_id": "3260506982", "name": "Old Stables Coffee House", "amenity": "cafe" }, "geometry": { "type": "Point", "coordinates": [ -1.6238185, 53.6836483 ] } },
	{ "type": "Feature", "properties": { "osm_id": "3286373979", "name": "Caffè Ritazza", "amenity": "cafe", "other_tags": "\"layer\"=>\"1\",\"cuisine\"=>\"coffee_shop\",\"addr:city\"=>\"Leeds\",\"addr:unit\"=>\"3 South Concourse\",\"addr:street\"=>\"New Station Street\",\"addr:postcode\"=>\"LS1 4DT\",\"addr:housename\"=>\"City Station\"" }, "geometry": { "type": "Point", "coordinates": [ -1.5477769, 53.7949147 ] } },
	{ "type": "Feature", "properties": { "osm_id": "3310851888", "name": "Mully's Kitchen", "amenity": "cafe", "other_tags": "\"fhrs:id\"=>\"760691\",\"addr:city\"=>\"Wakefield\",\"addr:street\"=>\"Leeds Road\",\"addr:postcode\"=>\"WF3 3LR\"" }, "geometry": { "type": "Point", "coordinates": [ -1.496482, 53.7232856 ] } },
	{ "type": "Feature", "properties": { "osm_id": "3348582583", "name": "The Pie Shed", "amenity": "cafe", "other_tags": "\"shop\"=>\"cag\"" }, "geometry": { "type": "Point", "coordinates": [ -1.6522793, 53.6984011 ] } },
	{ "type": "Feature", "properties": { "osm_id": "3392490130", "name": "Global Tribe Cafe", "amenity": "cafe", "other_tags": "\"addr:city\"=>\"Leeds\",\"addr:housenumber\"=>\"18\",\"addr:postcode\"=>\"LS1 6LG\",\"addr:street\"=>\"Swan Street\",\"diet:vegan\"=>\"yes\",\"fhrs:id\"=>\"495536\",\"internet_access\"=>\"yes\",\"opening_hours\"=>\"Mo-Fr 10:00-17:00; Sa 10:00-18:00 \\\" last food orders 5pm\\\"; Su 11:00-17:00 \\\"last food orders 4pm\\\"\",\"payment:bitcoin\"=>\"yes\",\"smoking\"=>\"no\",\"website\"=>\"http:\/\/www.globaltribecafe.com\/\"" }, "geometry": { "type": "Point", "coordinates": [ -1.5427713, 53.7988422 ] } },
	{ "type": "Feature", "properties": { "osm_id": "3404524410", "name": "The Coffee Pot Cafe", "amenity": "cafe" }, "geometry": { "type": "Point", "coordinates": [ -1.8809485, 53.6215798 ] } },
	{ "type": "Feature", "properties": { "osm_id": "3450373633", "name": "The Hepworth Cafe", "amenity": "cafe", "other_tags": "\"addr:city\"=>\"Wakefield\",\"addr:postcode\"=>\"WF1 5AW\",\"addr:street\"=>\"Gallery Walk\",\"fhrs:id\"=>\"1296412\"" }, "geometry": { "type": "Point", "coordinates": [ -1.4914908, 53.6761015 ] } },
	{ "type": "Feature", "properties": { "osm_id": "3457153665", "name": "Weaving Shed Cafe", "amenity": "cafe", "other_tags": "\"cuisine\"=>\"coffee_shop\",\"website\"=>\"https:\/\/www.nationaltrust.org.uk\/hardcastle-crags\",\"internet_access\"=>\"no\",\"outdoor_seating\"=>\"yes\"" }, "geometry": { "type": "Point", "coordinates": [ -2.0425031, 53.7650293 ] } },
	{ "type": "Feature", "properties": { "osm_id": "3518087595", "name": "Cafe @ Penny Lane", "amenity": "cafe", "other_tags": "\"level\"=>\"1\"" }, "geometry": { "type": "Point", "coordinates": [ -1.785616, 53.5703292 ] } },
	{ "type": "Feature", "properties": { "osm_id": "3557381801", "name": "Harts Coffee House", "amenity": "cafe", "other_tags": "\"fhrs:id\"=>\"1069746\",\"old_name\"=>\"Moo\",\"addr:street\"=>\"High Street\",\"source:addr\"=>\"FHRS Open Data\",\"addr:postcode\"=>\"LS23 6BW\",\"addr:housenumber\"=>\"160A\"" }, "geometry": { "type": "Point", "coordinates": [ -1.3472821, 53.9051125 ] } },
	{ "type": "Feature", "properties": { "osm_id": "3579045971", "name": "Seed Room Cafe", "amenity": "cafe", "other_tags": "\"fhrs:id\"=>\"805849\",\"addr:street\"=>\"New Road\",\"addr:postcode\"=>\"WF4 4RG\"" }, "geometry": { "type": "Point", "coordinates": [ -1.6107705, 53.6488157 ] } },
	{ "type": "Feature", "properties": { "osm_id": "3584031876", "name": "Whistlestop Cafe", "amenity": "cafe", "other_tags": "\"fhrs:id\"=>\"324968\",\"addr:city\"=>\"Keighley\",\"addr:street\"=>\"Steeton Grove\",\"addr:village\"=>\"Steeton With Eastburn\",\"addr:postcode\"=>\"BD20 6TT\",\"addr:housenumber\"=>\"unit 21\"" }, "geometry": { "type": "Point", "coordinates": [ -1.9504058, 53.9004033 ] } },
	{ "type": "Feature", "properties": { "osm_id": "3584497285", "name": "Ziff Cafe", "amenity": "cafe", "other_tags": "\"toilets\"=>\"yes\",\"toilets:wheelchair\"=>\"yes\",\"wheelchair\"=>\"yes\"" }, "geometry": { "type": "Point", "coordinates": [ -1.5535127, 53.806702 ] } },
	{ "type": "Feature", "properties": { "osm_id": "3585959697", "name": "La Bottega Milanese", "amenity": "cafe", "other_tags": "\"addr:city\"=>\"Leeds\",\"addr:housenumber\"=>\"2\",\"addr:postcode\"=>\"LS1 2JZ\",\"addr:street\"=>\"Bond Court\",\"cuisine\"=>\"coffee_shop\",\"fhrs:id\"=>\"1225955\",\"outdoor_seating\"=>\"yes\",\"takeaway\"=>\"yes\",\"website\"=>\"https:\/\/www.labottegamilanese.co.uk\/\"" }, "geometry": { "type": "Point", "coordinates": [ -1.5478135, 53.797957 ] } },
	{ "type": "Feature", "properties": { "osm_id": "3620307901", "name": "Cranmer Bank Community Cafe", "amenity": "cafe", "other_tags": "\"fhrs:id\"=>\"1089476\",\"old_name\"=>\"Nosh @ Northcall Cafe\",\"addr:city\"=>\"Leeds\",\"addr:street\"=>\"Cranmer Bank\",\"addr:suburb\"=>\"Moortown\",\"addr:postcode\"=>\"LS17 5JD\",\"addr:housenumber\"=>\"53-55\"" }, "geometry": { "type": "Point", "coordinates": [ -1.557811, 53.8473813 ] } },
	{ "type": "Feature", "properties": { "osm_id": "3625917115", "name": "The Billing Tea Room", "amenity": "cafe", "other_tags": "\"fhrs:id\"=>\"639182\",\"addr:city\"=>\"Leeds\",\"addr:street\"=>\"Town Street\",\"addr:suburb\"=>\"Rawdon\",\"addr:postcode\"=>\"LS19 6PU\",\"addr:housenumber\"=>\"11a\"" }, "geometry": { "type": "Point", "coordinates": [ -1.6713533, 53.8498441 ] } },
	{ "type": "Feature", "properties": { "osm_id": "3626724736", "name": "Residence 74 Café & Bar", "amenity": "cafe", "other_tags": "\"fhrs:id\"=>\"1098252\",\"old_name\"=>\"Mochaccino\",\"addr:city\"=>\"Leeds\",\"addr:street\"=>\"Otley Old Road\",\"addr:postcode\"=>\"LS16 6LQ\",\"addr:housenumber\"=>\"74\"" }, "geometry": { "type": "Point", "coordinates": [ -1.6037929, 53.8486298 ] } },
	{ "type": "Feature", "properties": { "osm_id": "3635957894", "name": "Handmade Bakery", "amenity": "cafe", "other_tags": "\"cuisine\"=>\"coffee_shop_and_artisan_bakery\",\"fhrs:id\"=>\"226954\",\"addr:city\"=>\"Huddersfield\",\"addr:unit\"=>\"Unit 6\",\"addr:hamlet\"=>\"Slaithwaite\",\"addr:street\"=>\"Canal Side\",\"source:addr\"=>\"FHRS Open Data\",\"addr:country\"=>\"GB\",\"addr:postcode\"=>\"HD7 5HA\",\"addr:housename\"=>\"Upper Mills\"" }, "geometry": { "type": "Point", "coordinates": [ -1.8854621, 53.6212586 ] } },
	{ "type": "Feature", "properties": { "osm_id": "3660972796", "name": "Coldspring Mill Cafe", "amenity": "cafe" }, "geometry": { "type": "Point", "coordinates": [ -1.9115971, 53.821209 ] } },
	{ "type": "Feature", "properties": { "osm_id": "3716852688", "name": "Never Enough Thyme", "amenity": "cafe", "other_tags": "\"fhrs:id\"=>\"931776\",\"website\"=>\"https:\/\/www.neverenoughthyme.co.uk\/\",\"addr:city\"=>\"Yeadon\",\"addr:street\"=>\"High Street\",\"addr:postcode\"=>\"LS19 7TA\",\"addr:housenumber\"=>\"97\"" }, "geometry": { "type": "Point", "coordinates": [ -1.6792382, 53.8661685 ] } },
	{ "type": "Feature", "properties": { "osm_id": "3718205539", "name": "Heebie Jeebies Cafe", "amenity": "cafe", "other_tags": "\"phone\"=>\"+44 113 250 2466\",\"fhrs:id\"=>\"617488\",\"addr:city\"=>\"Leeds\",\"addr:street\"=>\"High Street\",\"addr:suburb\"=>\"Yeadon\",\"addr:postcode\"=>\"LS19 7SP\",\"addr:housenumber\"=>\"37\"" }, "geometry": { "type": "Point", "coordinates": [ -1.684041, 53.8662699 ] } },
	{ "type": "Feature", "properties": { "osm_id": "3736655709", "name": "The Hollybush Cafe", "amenity": "cafe", "other_tags": "\"addr:city\"=>\"Leeds\",\"addr:postcode\"=>\"LS5 3BP\",\"addr:street\"=>\"Broad Lane\",\"addr:suburb\"=>\"Bramley\",\"fhrs:id\"=>\"559039\",\"opening_hours:covid19\"=>\"off\",\"operator\"=>\"TCV Hollybush\"" }, "geometry": { "type": "Point", "coordinates": [ -1.6079434, 53.8156349 ] } },