{
"type": "FeatureCollection",
"crs": { "type": "name", "properties": { "name": "urn:ogc:def:crs:OGC:1.3:CRS84" } },
"features": [
	{ "type": "Feature", "properties": { "osm_id": "28168202", "name": "Canker Well", "other_tags": "\"leisure\"=>\"park\",\"description\"=>\"Until approx. 1980, there used to be an iron-mineral natural spring here for drinking.\"" }, "geometry": { "type": "Point", "coordinates": [ -1.826768, 53.9247328 ] } },
	{ "type": "Feature", "properties": { "osm_id": "266683731", "name": "Scaur Bank \/ King George's Field", "other_tags": "\"leisure\"=>\"park\"" }, "geometry": { "type": "Point", "coordinates": [ -1.3960047, 53.9283672 ] } },
	{ "type": "Feature", "properties": { "osm_id": "314716504", "name": "Wetherby Ings", "other_tags": "\"leisure\"=>\"park\",\"uk_postcode_centroid\"=>\"LS22\",\"wikidata\"=>\"Q7990082\"" }, "geometry": { "type": "Point", "coordinates": [ -1.39195, 53.927977 ] } },
	{ "type": "Feature", "properties": { "osm_id": "389460215", "name": "Holbeck Moor Park", "other_tags": "\"leisure\"=>\"park\"" }, "geometry": { "type": "Point", "coordinates": [ -1.5547318, 53.7827922 ] } },
	{ "type": "Feature", "properties": { "osm_id": "986125586", "name": "Stile Common Park", "other_tags": "\"leisure\"=>\"park\"" }, "geometry": { "type": "Point", "coordinates": [ -1.7795394, 53.6344542 ] } },
	{ "type": "Feature", "properties": { "osm_id": "998210303", "name": "Wilton Park", "other_tags": "\"leisure\"=>\"park\"" }, "geometry": { "type": "Point", "coordinates": [ -1.6494906, 53.7275722 ] } }
]
}
