{
"type": "FeatureCollection",
"crs": { "type": "name", "properties": { "name": "urn:ogc:def:crs:OGC:1.3:CRS84" } },
"features": [
	{ "type": "Feature", "properties": { "osm_id": "320998140", "name": "CC Hair and Beauty", "other_tags": "\"shop\"=>\"cosmetics\"" }, "geometry": { "type": "Point", "coordinates": [ -1.5392695, 53.796631 ] } },
	{ "type": "Feature", "properties": { "osm_id": "333467298", "name": "The Body Shop", "other_tags": "\"addr:city\"=>\"Leeds\",\"addr:housenumber\"=>\"64\",\"addr:postcode\"=>\"LS1 6LH\",\"addr:street\"=>\"Briggate\",\"brand\"=>\"The Body Shop\",\"brand:wikidata\"=>\"Q837851\",\"brand:wikipedia\"=>\"en:The Body Shop\",\"shop\"=>\"cosmetics\"" }, "geometry": { "type": "Point", "coordinates": [ -1.5424439, 53.7978903 ] } },
	{ "type": "Feature", "properties": { "osm_id": "3621975754", "name": "L'Occitane", "other_tags": "\"addr:city\"=>\"Leeds\",\"addr:housenumber\"=>\"1\",\"addr:postcode\"=>\"LS1 6BW\",\"addr:street\"=>\"County Arcade\",\"brand\"=>\"L'Occitane\",\"brand:wikidata\"=>\"Q1880676\",\"brand:wikipedia\"=>\"en:L'Occitane en Provence\",\"shop\"=>\"cosmetics\",\"website\"=>\"https:\/\/www.loccitane.com\/\"" }, "geometry": { "type": "Point", "coordinates": [ -1.541888, 53.7983833 ] } },
	{ "type": "Feature", "properties": { "osm_id": "4237364590", "name": "Lush", "other_tags": "\"addr:city\"=>\"Leeds\",\"addr:housenumber\"=>\"12-13\",\"addr:postcode\"=>\"LS1 6AL\",\"addr:street\"=>\"Commercial Street\",\"brand\"=>\"Lush\",\"brand:wikidata\"=>\"Q1585448\",\"brand:wikipedia\"=>\"en:Lush (company)\",\"shop\"=>\"cosmetics\"" }, "geometry": { "type": "Point", "coordinates": [ -1.5439706, 53.7974965 ] } },
	{ "type": "Feature", "properties": { "osm_id": "4411803743", "name": "Made Up", "other_tags": "\"shop\"=>\"cosmetics\",\"addr:street\"=>\"Westmorland Street\",\"addr:postcode\"=>\"WF1 1PJ\",\"addr:housenumber\"=>\"18a\"" }, "geometry": { "type": "Point", "coordinates": [ -1.4966035, 53.6832426 ] } },
	{ "type": "Feature", "properties": { "osm_id": "4489200798", "name": "Scentiments", "other_tags": "\"shop\"=>\"cosmetics\"" }, "geometry": { "type": "Point", "coordinates": [ -1.4504143, 53.8064394 ] } }
]
}
