{
"type": "FeatureCollection",
"crs": { "type": "name", "properties": { "name": "urn:ogc:def:crs:OGC:1.3:CRS84" } },
"features": [
	{ "type": "Feature", "properties": { "osm_id": "20940636", "name": "St.Marys", "amenity": "place_of_worship", "other_tags": "\"website\"=>\"www.burleyparishchurch.org.uk\",\"religion\"=>\"christian\",\"addr:city\"=>\"Burley-in-Wharfedale\",\"addr:street\"=>\"Main Street\",\"denomination\"=>\"anglican\"" }, "geometry": { "type": "Point", "coordinates": [ -1.7412294, 53.9124675 ] } },
	{ "type": "Feature", "properties": { "osm_id": "27464992", "name": "St. Joseph's Catholic Church", "amenity": "place_of_worship", "other_tags": "\"religion\"=>\"christian\",\"denomination\"=>\"catholic\"" }, "geometry": { "type": "Point", "coordinates": [ -1.3879322, 53.9294758 ] } },
	{ "type": "Feature", "properties": { "osm_id": "29048414", "name": "Guiseley Methodist Church", "amenity": "place_of_worship", "other_tags": "\"religion\"=>\"christian\",\"denomination\"=>\"methodist\"" }, "geometry": { "type": "Point", "coordinates": [ -1.7093418, 53.8759472 ] } },
	{ "type": "Feature", "properties": { "osm_id": "30304811", "name": "Parish Church of Saint Mary's Luddenden", "amenity": "place_of_worship", "other_tags": "\"religion\"=>\"christian\"" }, "geometry": { "type": "Point", "coordinates": [ -1.9391472, 53.7324159 ] } },
	{ "type": "Feature", "properties": { "osm_id": "30810938", "name": "St Mary's Church", "amenity": "place_of_worship", "other_tags": "\"religion\"=>\"christian\",\"denomination\"=>\"anglican\"" }, "geometry": { "type": "Point", "coordinates": [ -1.4174935, 53.7691448 ] } },
	{ "type": "Feature", "properties": { "osm_id": "31418130", "amenity": "place_of_worship" }, "geometry": { "type": "Point", "coordinates": [ -1.4003184, 53.6076082 ] } },
	{ "type": "Feature", "properties": { "osm_id": "31418651", "amenity": "place_of_worship" }, "geometry": { "type": "Point", "coordinates": [ -1.3700416, 53.6260376 ] } },
	{ "type": "Feature", "properties": { "osm_id": "31418652", "name": "St Helens", "amenity": "place_of_worship" }, "geometry": { "type": "Point", "coordinates": [ -1.3532848, 53.6141562 ] } },
	{ "type": "Feature", "properties": { "osm_id": "33115393", "amenity": "place_of_worship", "other_tags": "\"religion\"=>\"christian\",\"denomination\"=>\"primitive_methodist\"" }, "geometry": { "type": "Point", "coordinates": [ -1.8824028, 53.944091 ] } },
	{ "type": "Feature", "properties": { "osm_id": "52761018", "name": "Blenheim Baptist Church", "amenity": "place_of_worship", "other_tags": "\"religion\"=>\"christian\",\"denomination\"=>\"baptist\"" }, "geometry": { "type": "Point", "coordinates": [ -1.5488334, 53.8063609 ] } },
	{ "type": "Feature", "properties": { "osm_id": "114287501", "name": "St. Michael's", "amenity": "place_of_worship", "other_tags": "\"fhrs:id\"=>\"347294\",\"religion\"=>\"christian\"" }, "geometry": { "type": "Point", "coordinates": [ -1.9811997, 53.7301828 ] } },
	{ "type": "Feature", "properties": { "osm_id": "224427399", "name": "Steep Lane Baptist Chapel", "amenity": "place_of_worship", "other_tags": "\"denomination\"=>\"baptist\",\"religion\"=>\"christian\"" }, "geometry": { "type": "Point", "coordinates": [ -1.9573869, 53.7094075 ] } },
	{ "type": "Feature", "properties": { "osm_id": "230259682", "name": "St Mary's Church", "amenity": "place_of_worship", "other_tags": "\"religion\"=>\"christian\",\"denomination\"=>\"anglican\"" }, "geometry": { "type": "Point", "coordinates": [ -1.9578999, 53.6913831 ] } },
	{ "type": "Feature", "properties": { "osm_id": "245978097", "name": "Elim Church", "amenity": "place_of_worship", "other_tags": "\"addr:city\"=>\"Sowerby Bridge\",\"addr:country\"=>\"GB\",\"addr:housename\"=>\"Oasis Family Centre\",\"addr:postcode\"=>\"HX6 3AZ\",\"addr:street\"=>\"Ryburn Street\",\"building\"=>\"church\",\"denomination\"=>\"pentecostal\",\"fhrs:id\"=>\"346849\",\"religion\"=>\"christian\",\"source:addr\"=>\"FHRS Open Data\"" }, "geometry": { "type": "Point", "coordinates": [ -1.9161072, 53.7056637 ] } },
	{ "type": "Feature", "properties": { "osm_id": "249509426", "name": "All Saint's", "amenity": "place_of_worship", "other_tags": "\"religion\"=>\"christian\",\"denomination\"=>\"anglican\"" }, "geometry": { "type": "Point", "coordinates": [ -1.7632306, 53.7845303 ] } },
	{ "type": "Feature", "properties": { "osm_id": "250061946", "name": "Christ Church", "amenity": "place_of_worship", "other_tags": "\"religion\"=>\"christian\",\"denomination\"=>\"anglican\"" }, "geometry": { "type": "Point", "coordinates": [ -1.750363, 53.5745772 ] } },
	{ "type": "Feature", "properties": { "osm_id": "250164025", "name": "Colton Methodist Church", "amenity": "place_of_worship", "other_tags": "\"religion\"=>\"christian\",\"wheelchair\"=>\"yes\",\"denomination\"=>\"methodist\"" }, "geometry": { "type": "Point", "coordinates": [ -1.4434778, 53.7910691 ] } },
	{ "type": "Feature", "properties": { "osm_id": "250240358", "name": "Holy Trinity", "amenity": "place_of_worship", "other_tags": "\"religion\"=>\"christian\",\"denomination\"=>\"anglican\"" }, "geometry": { "type": "Point", "coordinates": [ -1.7556354, 53.5590037 ] } },
	{ "type": "Feature", "properties": { "osm_id": "251390251", "name": "St Paulinus", "amenity": "place_of_worship", "other_tags": "\"religion\"=>\"christian\",\"denomination\"=>\"catholic\"" }, "geometry": { "type": "Point", "coordinates": [ -1.6415959, 53.6873278 ] } },
	{ "type": "Feature", "properties": { "osm_id": "252944665", "name": "Providence Independent Methodist Church", "amenity": "place_of_worship", "other_tags": "\"denomination\"=>\"methodist\",\"religion\"=>\"christian\"" }, "geometry": { "type": "Point", "coordinates": [ -1.6411236, 53.6903366 ] } },
	{ "type": "Feature", "properties": { "osm_id": "267012632", "name": "All Saints Church", "amenity": "place_of_worship", "other_tags": "\"religion\"=>\"christian\",\"denomination\"=>\"anglican\"" }, "geometry": { "type": "Point", "coordinates": [ -1.3923706, 53.8314131 ] } },
	{ "type": "Feature", "properties": { "osm_id": "269032234", "name": "Church on the Way", "amenity": "place_of_worship", "other_tags": "\"addr:city\"=>\"Bradford\",\"addr:housenumber\"=>\"158\",\"addr:postcode\"=>\"BD10 8SA\",\"addr:street\"=>\"Bradford Road\",\"religion\"=>\"christian\"" }, "geometry": { "type": "Point", "coordinates": [ -1.7349434, 53.8256638 ] } },
	{ "type": "Feature", "properties": { "osm_id": "270542648", "name": "Horbury Methodist Church", "amenity": "place_of_worship", "other_tags": "\"religion\"=>\"christian\",\"denomination\"=>\"methodist\"" }, "geometry": { "type": "Point", "coordinates": [ -1.5561936, 53.6604241 ] } },
	{ "type": "Feature", "properties": { "osm_id": "279035007", "name": "South Ossett Baptist Church", "amenity": "place_of_worship", "other_tags": "\"religion\"=>\"christian\",\"denomination\"=>\"baptist\"" }, "geometry": { "type": "Point", "coordinates": [ -1.5604164, 53.6749581 ] } },
	{ "type": "Feature", "properties": { "osm_id": "279035012", "name": "St John's Methodist Church", "amenity": "place_of_worship", "other_tags": "\"fhrs:id\"=>\"679913\",\"religion\"=>\"christian\",\"addr:city\"=>\"Wakefield\",\"addr:street\"=>\"South Parade\",\"denomination\"=>\"methodist\",\"addr:postcode\"=>\"WF5 0EL\"" }, "geometry": { "type": "Point", "coordinates": [ -1.5607546, 53.6764394 ] } },
	{ "type": "Feature", "properties": { "osm_id": "279787249", "name": "Christ Church South Ossett", "amenity": "place_of_worship", "other_tags": "\"religion\"=>\"christian\",\"denomination\"=>\"anglican\"" }, "geometry": { "type": "Point", "coordinates": [ -1.5725716, 53.6705051 ] } },
	{ "type": "Feature", "properties": { "osm_id": "279787271", "name": "St Ignatius Church", "amenity": "place_of_worship", "other_tags": "\"religion\"=>\"christian\",\"denomination\"=>\"catholic\"" }, "geometry": { "type": "Point", "coordinates": [ -1.5745727, 53.6688079 ] } },
	{ "type": "Feature", "properties": { "osm_id": "286836599", "name": "National Spiritualist Church", "amenity": "place_of_worship", "other_tags": "\"religion\"=>\"spiritualist\"" }, "geometry": { "type": "Point", "coordinates": [ -1.5808266, 53.679189 ] } },
	{ "type": "Feature", "properties": { "osm_id": "286836603", "name": "Kings Way Methodist and United Reformed Church", "amenity": "place_of_worship", "other_tags": "\"religion\"=>\"christian\",\"denomination\"=>\"methodist\"" }, "geometry": { "type": "Point", "coordinates": [ -1.5809101, 53.6801911 ] } },
	{ "type": "Feature", "properties": { "osm_id": "286836645", "name": "Trinity Church", "amenity": "place_of_worship", "other_tags": "\"religion\"=>\"christian\",\"denomination\"=>\"anglican\"" }, "geometry": { "type": "Point", "coordinates": [ -1.5828424, 53.68601 ] } },
	{ "type": "Feature", "properties": { "osm_id": "286836660", "name": "Dale Street Evangelical Church", "amenity": "place_of_worship", "other_tags": "\"religion\"=>\"christian\",\"denomination\"=>\"evangelical\"" }, "geometry": { "type": "Point", "coordinates": [ -1.5766636, 53.6850188 ] } },
	{ "type": "Feature", "properties": { "osm_id": "288958109", "name": "Carlton Hill Friends Meeting House", "amenity": "place_of_worship", "other_tags": "\"religion\"=>\"christian\",\"denomination\"=>\"quaker\"" }, "geometry": { "type": "Point", "coordinates": [ -1.5545671, 53.8100502 ] } },
	{ "type": "Feature", "properties": { "osm_id": "290433502", "name": "St Thomas More Catholic Church", "amenity": "place_of_worship", "other_tags": "\"denomination\"=>\"catholic\",\"religion\"=>\"christian\"" }, "geometry": { "type": "Point", "coordinates": [ -1.5997995, 53.6874502 ] } },
	{ "type": "Feature", "properties": { "osm_id": "291122780", "name": "Holy Trinity", "amenity": "place_of_worship", "other_tags": "\"denomination\"=>\"anglican\",\"religion\"=>\"christian\"" }, "geometry": { "type": "Point", "coordinates": [ -1.6358926, 53.7013084 ] } },
	{ "type": "Feature", "properties": { "osm_id": "292238631", "name": "Victory Christian Centre", "amenity": "place_of_worship", "other_tags": "\"religion\"=>\"christian\"" }, "geometry": { "type": "Point", "coordinates": [ -1.5437996, 53.7740807 ] } },
	{ "type": "Feature", "properties": { "osm_id": "292321123", "name": "Salvation Army", "amenity": "place_of_worship", "other_tags": "\"fhrs:id\"=>\"283989\",\"religion\"=>\"christian\",\"addr:street\"=>\"Leeds Road\",\"addr:postcode\"=>\"WF5 9QW\"" }, "geometry": { "type": "Point", "coordinates": [ -1.5921322, 53.6938388 ] } },
	{ "type": "Feature", "properties": { "osm_id": "293115485", "name": "Broomfield Methodist Church", "amenity": "place_of_worship" }, "geometry": { "type": "Point", "coordinates": [ -1.7300424, 53.7214649 ] } },
	{ "type": "Feature", "properties": { "osm_id": "293115486", "name": "Parish Church of St Philip and St James Scholes", "amenity": "place_of_worship" }, "geometry": { "type": "Point", "coordinates": [ -1.7480478, 53.7289764 ] } },
	{ "type": "Feature", "properties": { "osm_id": "293115488", "name": "St Luke's", "amenity": "place_of_worship" }, "geometry": { "type": "Point", "coordinates": [ -1.7295954, 53.7224497 ] } },
	{ "type": "Feature", "properties": { "osm_id": "294182599", "name": "Our Lady Of The Nativity", "amenity": "place_of_worship", "other_tags": "\"religion\"=>\"christian\",\"denomination\"=>\"catholic\"" }, "geometry": { "type": "Point", "coordinates": [ -1.5653526, 53.7240116 ] } },
	{ "type": "Feature", "properties": { "osm_id": "295416224", "name": "Calvary Chapel Otley", "amenity": "place_of_worship", "other_tags": "\"url\"=>\"www.calvarychapel.com\/church-details.cfm?ChurchID=100670\",\"religion\"=>\"christian\",\"addr:city\"=>\"Otley\",\"is_in:town\"=>\"Otley\",\"addr:street\"=>\"Westgate\",\"denomination\"=>\"calvary_chapel\",\"addr:postcode\"=>\"LS21 3AS\",\"addr:housenumber\"=>\"48-52\"" }, "geometry": { "type": "Point", "coordinates": [ -1.697149, 53.9044568 ] } },
	{ "type": "Feature", "properties": { "osm_id": "295417525", "name": "Otley Methodist Church", "amenity": "place_of_worship", "other_tags": "\"website\"=>\"www.oamc.org.uk\",\"religion\"=>\"christian\",\"addr:city\"=>\"Otley\",\"is_in:town\"=>\"Otley\",\"addr:street\"=>\"Walkergate\",\"denomination\"=>\"methodist\",\"addr:postcode\"=>\"LS21 1HB\"" }, "geometry": { "type": "Point", "coordinates": [ -1.6903897, 53.9056324 ] } },
	{ "type": "Feature", "properties": { "osm_id": "295769599", "name": "Tingley Methodist Church", "amenity": "place_of_worship", "other_tags": "\"religion\"=>\"christian\",\"denomination\"=>\"methodist\"" }, "geometry": { "type": "Point", "coordinates": [ -1.5801557, 53.7232699 ] } },
	{ "type": "Feature", "properties": { "osm_id": "299171016", "name": "Al Madina Jamia Mosque", "amenity": "place_of_worship", "other_tags": "\"religion\"=>\"muslim\"" }, "geometry": { "type": "Point", "coordinates": [ -1.5679579, 53.8113009 ] } },
	{ "type": "Feature", "properties": { "osm_id": "300299410", "amenity": "place_of_worship", "other_tags": "\"religion\"=>\"muslim\"" }, "geometry": { "type": "Point", "coordinates": [ -1.7283471, 53.7934212 ] } },
	{ "type": "Feature", "properties": { "osm_id": "300304071", "name": "Al-Amin Jame Masjid & Madrasha", "amenity": "place_of_worship", "other_tags": "\"religion\"=>\"muslim\"" }, "geometry": { "type": "Point", "coordinates": [ -1.7240215, 53.7974726 ] } },
	{ "type": "Feature", "properties": { "osm_id": "300364641", "amenity": "place_of_worship", "other_tags": "\"religion\"=>\"sikh\"" }, "geometry": { "type": "Point", "coordinates": [ -1.7405185, 53.793416 ] } },
	{ "type": "Feature", "properties": { "osm_id": "300370177", "name": "Bradford Mandir", "amenity": "place_of_worship", "other_tags": "\"religion\"=>\"hindu\"" }, "geometry": { "type": "Point", "coordinates": [ -1.7350589, 53.7926172 ] } },
	{ "type": "Feature", "properties": { "osm_id": "300754028", "amenity": "place_of_worship", "other_tags": "\"religion\"=>\"christian\",\"denomination\"=>\"jehovahs_witness\"" }, "geometry": { "type": "Point", "coordinates": [ -1.7599629, 53.7799891 ] } },
	{ "type": "Feature", "properties": { "osm_id": "300992266", "name": "El-Shaddai", "amenity": "place_of_worship", "other_tags": "\"religion\"=>\"christian\",\"denomination\"=>\"evangelical\"" }, "geometry": { "type": "Point", "coordinates": [ -1.7545058, 53.7822872 ] } },
	{ "type": "Feature", "properties": { "osm_id": "301010768", "name": "Jamia Mosque Tabbligh-Ul-Islam", "amenity": "place_of_worship", "other_tags": "\"religion\"=>\"muslim\"" }, "geometry": { "type": "Point", "coordinates": [ -1.7587549, 53.7762355 ] } },
	{ "type": "Feature", "properties": { "osm_id": "301010770", "name": "Bankfoot Spiritualist Church", "amenity": "place_of_worship", "other_tags": "\"religion\"=>\"spiritualist\"" }, "geometry": { "type": "Point", "coordinates": [ -1.7598081, 53.7734587 ] } },
	{ "type": "Feature", "properties": { "osm_id": "301118130", "name": "Tawakkulia Jamia Masjid & Islamia Madrasa", "amenity": "place_of_worship", "other_tags": "\"religion\"=>\"muslim\"" }, "geometry": { "type": "Point", "coordinates": [ -1.758044, 53.8026662 ] } },
	{ "type": "Feature", "properties": { "osm_id": "301136455", "amenity": "place_of_worship", "other_tags": "\"religion\"=>\"muslim\"" }, "geometry": { "type": "Point", "coordinates": [ -1.7646214, 53.8033254 ] } },
	{ "type": "Feature", "properties": { "osm_id": "301153357", "name": "Abundant Life Centre", "amenity": "place_of_worship", "other_tags": "\"tourism\"=>\"attraction\",\"religion\"=>\"christian\"" }, "geometry": { "type": "Point", "coordinates": [ -1.7457186, 53.7997855 ] } },
	{ "type": "Feature", "properties": { "osm_id": "301153367", "name": "Ebenezer methodist Church Centre", "amenity": "place_of_worship", "other_tags": "\"religion\"=>\"christian\"" }, "geometry": { "type": "Point", "coordinates": [ -1.7282868, 53.7757968 ] } },
	{ "type": "Feature", "properties": { "osm_id": "301153375", "name": "New Hey Road Methodist Church", "amenity": "place_of_worship", "other_tags": "\"religion\"=>\"christian\",\"denomination\"=>\"methodist\"" }, "geometry": { "type": "Point", "coordinates": [ -1.7338985, 53.7822334 ] } },
	{ "type": "Feature", "properties": { "osm_id": "301222066", "name": "Tabligh-ul-Islam Mosque", "amenity": "place_of_worship", "other_tags": "\"religion\"=>\"muslim\"" }, "geometry": { "type": "Point", "coordinates": [ -1.7896146, 53.7880267 ] } },
	{ "type": "Feature", "properties": { "osm_id": "301223347", "name": "Church of Jesus Christ Apostolic Inc.", "amenity": "place_of_worship", "other_tags": "\"religion\"=>\"christian\",\"denomination\"=>\"apostolic\"" }, "geometry": { "type": "Point", "coordinates": [ -1.7810515, 53.7908194 ] } },
	{ "type": "Feature", "properties": { "osm_id": "301261553", "name": "Unitarian Cenre", "amenity": "place_of_worship", "other_tags": "\"religion\"=>\"christian\"" }, "geometry": { "type": "Point", "coordinates": [ -1.7605762, 53.7878324 ] } },
	{ "type": "Feature", "properties": { "osm_id": "301261557", "name": "Seventh Day Adventist Church", "amenity": "place_of_worship", "other_tags": "\"religion\"=>\"christian\",\"denomination\"=>\"seventh_day_adventist\"" }, "geometry": { "type": "Point", "coordinates": [ -1.7606816, 53.7883752 ] } },
	{ "type": "Feature", "properties": { "osm_id": "301263328", "name": "Hussainia Islamic Mission", "amenity": "place_of_worship", "other_tags": "\"religion\"=>\"muslim\"" }, "geometry": { "type": "Point", "coordinates": [ -1.7719186, 53.7853939 ] } },
	{ "type": "Feature", "properties": { "osm_id": "301609106", "name": "Jamia Mosque Tabligh-ul-Islam", "amenity": "place_of_worship", "other_tags": "\"religion\"=>\"muslim\"" }, "geometry": { "type": "Point", "coordinates": [ -1.7712511, 53.7909358 ] } },
	{ "type": "Feature", "properties": { "osm_id": "301727907", "name": "Church of God Fellowship", "amenity": "place_of_worship", "other_tags": "\"religion\"=>\"christian\"" }, "geometry": { "type": "Point", "coordinates": [ -1.7567451, 53.7887763 ] } },
	{ "type": "Feature", "properties": { "osm_id": "302739484", "name": "The Light Of The World Gospel Hall Community Church", "amenity": "place_of_worship", "other_tags": "\"religion\"=>\"christian\"" }, "geometry": { "type": "Point", "coordinates": [ -1.7544477, 53.780571 ] } },
	{ "type": "Feature", "properties": { "osm_id": "303151074", "name": "Salvation Army worship and community hall", "amenity": "place_of_worship", "other_tags": "\"religion\"=>\"christian\",\"denomination\"=>\"salvation_army\"" }, "geometry": { "type": "Point", "coordinates": [ -1.7338476, 53.7924121 ] } },
	{ "type": "Feature", "properties": { "osm_id": "304635928", "amenity": "place_of_worship" }, "geometry": { "type": "Point", "coordinates": [ -1.8555422, 53.6389481 ] } },
	{ "type": "Feature", "properties": { "osm_id": "304859383", "name": "Wrose Methodist Church", "amenity": "place_of_worship", "other_tags": "\"addr:city\"=>\"Wrose, Shipley\",\"addr:postcode\"=>\"BD18 1NJ\",\"addr:street\"=>\"Thornacre Road\",\"denomination\"=>\"methodist\",\"fhrs:id\"=>\"327855\",\"religion\"=>\"christian\"" }, "geometry": { "type": "Point", "coordinates": [ -1.7545007, 53.8285632 ] } },
	{ "type": "Feature", "properties": { "osm_id": "304876326", "amenity": "place_of_worship", "other_tags": "\"religion\"=>\"christian\"" }, "geometry": { "type": "Point", "coordinates": [ -1.4810535, 53.7500419 ] } },
	{ "type": "Feature", "properties": { "osm_id": "305074293", "name": "Kingdom Hall of Jehovah's Witnesses", "amenity": "place_of_worship", "other_tags": "\"religion\"=>\"christian\"" }, "geometry": { "type": "Point", "coordinates": [ -1.6226341, 53.7441531 ] } },
	{ "type": "Feature", "properties": { "osm_id": "305197999", "name": "Idle National Spiritualist Church", "amenity": "place_of_worship", "other_tags": "\"religion\"=>\"spiritualist\"" }, "geometry": { "type": "Point", "coordinates": [ -1.7337691, 53.8367241 ] } },
	{ "type": "Feature", "properties": { "osm_id": "305332634", "name": "St Marys", "amenity": "place_of_worship", "other_tags": "\"religion\"=>\"christian\",\"denomination\"=>\"catholic\"" }, "geometry": { "type": "Point", "coordinates": [ -1.4724349, 53.7515087 ] } },
	{ "type": "Feature", "properties": { "osm_id": "305989752", "name": "Bolton Villas United Reformed Church", "amenity": "place_of_worship", "other_tags": "\"religion\"=>\"christian\"" }, "geometry": { "type": "Point", "coordinates": [ -1.7443143, 53.8254746 ] } },
	{ "type": "Feature", "properties": { "osm_id": "306288632", "amenity": "place_of_worship", "other_tags": "\"religion\"=>\"christian\"" }, "geometry": { "type": "Point", "coordinates": [ -1.6137549, 53.8019585 ] } },
	{ "type": "Feature", "properties": { "osm_id": "306585271", "name": "St Cuthbert's Wrose", "amenity": "place_of_worship", "other_tags": "\"religion\"=>\"christian\",\"denomination\"=>\"anglican\"" }, "geometry": { "type": "Point", "coordinates": [ -1.7427264, 53.8248413 ] } },
	{ "type": "Feature", "properties": { "osm_id": "308032716", "name": "Desmond Tutu House", "amenity": "place_of_worship", "other_tags": "\"religion\"=>\"christian\",\"addr:city\"=>\"Bradford\",\"addr:street\"=>\"Ashgrove\",\"denomination\"=>\"anglican\",\"addr:postcode\"=>\"BD7 1BN\",\"addr:housename\"=>\"Desmond Tutu House\",\"addr:housenumber\"=>\"2\"" }, "geometry": { "type": "Point", "coordinates": [ -1.7647125, 53.7901709 ] } },
	{ "type": "Feature", "properties": { "osm_id": "308920095", "amenity": "place_of_worship", "other_tags": "\"religion\"=>\"christian\"" }, "geometry": { "type": "Point", "coordinates": [ -1.7593419, 53.7912018 ] } },
	{ "type": "Feature", "properties": { "osm_id": "308920130", "name": "Friends Meeting House", "amenity": "place_of_worship", "other_tags": "\"religion\"=>\"christian\",\"denomination\"=>\"quaker\"" }, "geometry": { "type": "Point", "coordinates": [ -1.7605811, 53.7877053 ] } },
	{ "type": "Feature", "properties": { "osm_id": "310644680", "name": "Stainland and Holywell Green United Reformed Church", "amenity": "place_of_worship", "other_tags": "\"religion\"=>\"christian\",\"denomination\"=>\"united_reformed\"" }, "geometry": { "type": "Point", "coordinates": [ -1.8674318, 53.6756532 ] } },
	{ "type": "Feature", "properties": { "osm_id": "310749597", "name": "St Anthony's", "amenity": "place_of_worship", "other_tags": "\"religion\"=>\"christian\",\"denomination\"=>\"catholic\"" }, "geometry": { "type": "Point", "coordinates": [ -1.7698846, 53.8329892 ] } },
	{ "type": "Feature", "properties": { "osm_id": "311529884", "name": "St Francis of Assisi", "amenity": "place_of_worship", "other_tags": "\"religion\"=>\"christian\",\"denomination\"=>\"catholic\"" }, "geometry": { "type": "Point", "coordinates": [ -1.7345458, 53.8236149 ] } },
	{ "type": "Feature", "properties": { "osm_id": "313540472", "name": "Ukrainian Autocephalic Orthodox Church", "amenity": "place_of_worship", "other_tags": "\"religion\"=>\"christian\",\"denomination\"=>\"orthodox\"" }, "geometry": { "type": "Point", "coordinates": [ -1.7239198, 53.8211075 ] } },
	{ "type": "Feature", "properties": { "osm_id": "314742261", "name": "New North Road Baptist Church", "amenity": "place_of_worship", "other_tags": "\"addr:city\"=>\"Huddersfield\",\"addr:country\"=>\"GB\",\"addr:postcode\"=>\"HD1 5JU\",\"addr:street\"=>\"New North Parade\",\"denomination\"=>\"baptist\",\"fhrs:id\"=>\"228629\",\"religion\"=>\"christian\",\"source:addr\"=>\"FHRS Open Data\"" }, "geometry": { "type": "Point", "coordinates": [ -1.7870635, 53.647325 ] } },
	{ "type": "Feature", "properties": { "osm_id": "316086438", "name": "Polish Church", "amenity": "place_of_worship", "other_tags": "\"religion\"=>\"christian\",\"denomination\"=>\"catholic\"" }, "geometry": { "type": "Point", "coordinates": [ -1.7600223, 53.7899289 ] } },
	{ "type": "Feature", "properties": { "osm_id": "321512951", "amenity": "place_of_worship", "other_tags": "\"religion\"=>\"christian\"" }, "geometry": { "type": "Point", "coordinates": [ -1.8189138, 53.557238 ] } },
	{ "type": "Feature", "properties": { "osm_id": "325223535", "name": "Meeting House", "amenity": "place_of_worship", "other_tags": "\"religion\"=>\"christian\",\"denomination\"=>\"quaker\"" }, "geometry": { "type": "Point", "coordinates": [ -1.7701025, 53.5781267 ] } },
	{ "type": "Feature", "properties": { "osm_id": "325227181", "name": "The Sikh Temple", "amenity": "place_of_worship", "other_tags": "\"addr:city\"=>\"Leeds\",\"addr:housenumber\"=>\"192\",\"addr:postcode\"=>\"LS7 4HZ\",\"addr:street\"=>\"Chapeltown Road\",\"fhrs:id\"=>\"322847\",\"religion\"=>\"sikh\"" }, "geometry": { "type": "Point", "coordinates": [ -1.5310091, 53.8203398 ] } },
	{ "type": "Feature", "properties": { "osm_id": "329041421", "name": "Hope Baptist Chapel", "amenity": "place_of_worship", "other_tags": "\"religion\"=>\"christian\",\"denomination\"=>\"baptist\"" }, "geometry": { "type": "Point", "coordinates": [ -2.0124083, 53.7409287 ] } },
	{ "type": "Feature", "properties": { "osm_id": "336230887", "name": "Catholic Chaplaincy", "amenity": "place_of_worship", "other_tags": "\"religion\"=>\"christian\",\"addr:city\"=>\"Bradford\",\"addr:street\"=>\"Ashgrove\",\"denomination\"=>\"catholic\",\"addr:postcode\"=>\"BD7 1BN\",\"addr:housenumber\"=>\"1\"" }, "geometry": { "type": "Point", "coordinates": [ -1.7645717, 53.7902461 ] } },
	{ "type": "Feature", "properties": { "osm_id": "343381474", "name": "All Hallows Parish Church", "amenity": "place_of_worship", "other_tags": "\"religion\"=>\"christian\"" }, "geometry": { "type": "Point", "coordinates": [ -1.746916, 53.6317751 ] } },
	{ "type": "Feature", "properties": { "osm_id": "344110644", "name": "St Cuthbert's Church", "amenity": "place_of_worship", "other_tags": "\"religion\"=>\"christian\",\"denomination\"=>\"roman_catholic\"" }, "geometry": { "type": "Point", "coordinates": [ -1.7809006, 53.8122392 ] } },
	{ "type": "Feature", "properties": { "osm_id": "344323972", "name": "Holy Trinity Church", "amenity": "place_of_worship" }, "geometry": { "type": "Point", "coordinates": [ -1.8243073, 53.610994 ] } },
	{ "type": "Feature", "properties": { "osm_id": "344324025", "name": "Christ Church", "amenity": "place_of_worship", "other_tags": "\"religion\"=>\"christian\"" }, "geometry": { "type": "Point", "coordinates": [ -1.8461383, 53.6261635 ] } },
	{ "type": "Feature", "properties": { "osm_id": "344668361", "name": "SS John Fisher & Thomas Moore", "amenity": "place_of_worship", "other_tags": "\"religion\"=>\"christian\",\"addr:city\"=>\"Burley-in-Wharfedale\",\"addr:street\"=>\"Bradford Road\",\"denomination\"=>\"roman_catholic\"" }, "geometry": { "type": "Point", "coordinates": [ -1.7437477, 53.9055303 ] } },
	{ "type": "Feature", "properties": { "osm_id": "344722940", "name": "Bingley Baptist Church", "amenity": "place_of_worship", "other_tags": "\"addr:city\"=>\"Bingley\",\"addr:postcode\"=>\"BD16 4LJ\",\"addr:street\"=>\"Park Road\",\"denomination\"=>\"baptist\",\"fhrs:id\"=>\"327781\",\"listed_status\"=>\"Grade II\",\"religion\"=>\"christian\"" }, "geometry": { "type": "Point", "coordinates": [ -1.8356671, 53.8506775 ] } },
	{ "type": "Feature", "properties": { "osm_id": "362524387", "amenity": "place_of_worship", "other_tags": "\"religion\"=>\"muslim\"" }, "geometry": { "type": "Point", "coordinates": [ -1.7763211, 53.8102001 ] } },
	{ "type": "Feature", "properties": { "osm_id": "367861875", "name": "Church of Our Lady and the First Martyrs of Rome", "amenity": "place_of_worship", "other_tags": "\"religion\"=>\"christian\",\"denomination\"=>\"roman_catholic\"" }, "geometry": { "type": "Point", "coordinates": [ -1.8040752, 53.8127242 ] } },
	{ "type": "Feature", "properties": { "osm_id": "370074687", "name": "Woodlesford Methodist Church", "amenity": "place_of_worship", "other_tags": "\"addr:city\"=>\"Leeds\",\"addr:postcode\"=>\"LS26 8RD\",\"addr:street\"=>\"Church Street\",\"denomination\"=>\"methodist\",\"fhrs:id\"=>\"738489;741905\",\"religion\"=>\"christian\"" }, "geometry": { "type": "Point", "coordinates": [ -1.4476124, 53.7575496 ] } },
	{ "type": "Feature", "properties": { "osm_id": "370075271", "name": "Oulton Methodist Church", "amenity": "place_of_worship", "other_tags": "\"religion\"=>\"christian\",\"denomination\"=>\"methodist\"" }, "geometry": { "type": "Point", "coordinates": [ -1.4492295, 53.7510648 ] } },
	{ "type": "Feature", "properties": { "osm_id": "370347057", "name": "Sunbridge Road Mission", "amenity": "place_of_worship", "other_tags": "\"religion\"=>\"christian\",\"denomination\"=>\"independent_evangelical\"" }, "geometry": { "type": "Point", "coordinates": [ -1.7662001, 53.7976372 ] } },
	{ "type": "Feature", "properties": { "osm_id": "381013874", "name": "St Francis of Assisi", "amenity": "place_of_worship", "other_tags": "\"religion\"=>\"christian\",\"denomination\"=>\"catholic\"" }, "geometry": { "type": "Point", "coordinates": [ -1.6039029, 53.743269 ] } },
	{ "type": "Feature", "properties": { "osm_id": "381913590", "name": "National Spiritualist Church", "amenity": "place_of_worship", "other_tags": "\"religion\"=>\"christian\",\"denomination\"=>\"spiritualist\"" }, "geometry": { "type": "Point", "coordinates": [ -1.600958, 53.7473777 ] } },
	{ "type": "Feature", "properties": { "osm_id": "384951492", "amenity": "place_of_worship", "other_tags": "\"religion\"=>\"muslim\"" }, "geometry": { "type": "Point", "coordinates": [ -1.6565269, 53.6799191 ] } },
	{ "type": "Feature", "properties": { "osm_id": "388505898", "name": "Gospel Hall", "amenity": "place_of_worship", "other_tags": "\"religion\"=>\"christian\",\"start_date\"=>\"1932\"" }, "geometry": { "type": "Point", "coordinates": [ -1.5350655, 53.7791632 ] } },
	{ "type": "Feature", "properties": { "osm_id": "390520621", "name": "South Leeds Christian Fellowship", "amenity": "place_of_worship", "other_tags": "\"addr:city\"=>\"Leeds\",\"addr:housenumber\"=>\"80\",\"addr:postcode\"=>\"LS10 4EY\",\"addr:street\"=>\"Throstle Lane\",\"fhrs:id\"=>\"321792\",\"religion\"=>\"christian\"" }, "geometry": { "type": "Point", "coordinates": [ -1.5461265, 53.7419519 ] } },
	{ "type": "Feature", "properties": { "osm_id": "402973191", "name": "The Church in Cottingley", "amenity": "place_of_worship", "other_tags": "\"religion\"=>\"christian\"" }, "geometry": { "type": "Point", "coordinates": [ -1.5814322, 53.7685774 ] } },
	{ "type": "Feature", "properties": { "osm_id": "403911036", "name": "St Michael and All Angels", "amenity": "place_of_worship", "other_tags": "\"addr:postcode\"=>\"BD16 1AL\",\"addr:street\"=>\"Canon Pinnington Mews\",\"denomination\"=>\"anglican\",\"religion\"=>\"christian\",\"website\"=>\"http:\/\/www.stmichaelscottingley.net\/\"" }, "geometry": { "type": "Point", "coordinates": [ -1.8311499, 53.8299709 ] } },
	{ "type": "Feature", "properties": { "osm_id": "410350868", "name": "St Peters Catholic Church", "amenity": "place_of_worship", "other_tags": "\"religion\"=>\"christian\",\"denomination\"=>\"catholic\"" }, "geometry": { "type": "Point", "coordinates": [ -1.5291634, 53.7601184 ] } },
	{ "type": "Feature", "properties": { "osm_id": "410494873", "name": "Middleton Methodist Church", "amenity": "place_of_worship", "other_tags": "\"religion\"=>\"christian\",\"denomination\"=>\"methodist\"" }, "geometry": { "type": "Point", "coordinates": [ -1.5382574, 53.750455 ] } },
	{ "type": "Feature", "properties": { "osm_id": "410494950", "name": "St Marys Parachial Hall", "amenity": "place_of_worship", "other_tags": "\"religion\"=>\"christian\",\"denomination\"=>\"catholic\"" }, "geometry": { "type": "Point", "coordinates": [ -1.542295, 53.7490466 ] } },
	{ "type": "Feature", "properties": { "osm_id": "410495027", "name": "The Parish Church of St Mary the Virgin", "amenity": "place_of_worship", "other_tags": "\"religion\"=>\"christian\"" }, "geometry": { "type": "Point", "coordinates": [ -1.5430411, 53.7516595 ] } },
	{ "type": "Feature", "properties": { "osm_id": "410674899", "name": "St. Mary the Virgin", "amenity": "place_of_worship", "other_tags": "\"religion\"=>\"christian\",\"denomination\"=>\"anglican\"" }, "geometry": { "type": "Point", "coordinates": [ -1.6813097, 53.6798525 ] } },
	{ "type": "Feature", "properties": { "osm_id": "410968348", "name": "Moorside Church", "amenity": "place_of_worship" }, "geometry": { "type": "Point", "coordinates": [ -1.6590461, 53.7519254 ] } },
	{ "type": "Feature", "properties": { "osm_id": "413272814", "name": "The Parish Church of St Paul Drighlington", "amenity": "place_of_worship", "other_tags": "\"denomination\"=>\"anglican\",\"diocese\"=>\"Wakefield\",\"phone\"=>\"+44 113 285 2402\",\"religion\"=>\"christian\",\"website\"=>\"www.stpaulsdrighlington.co.uk\"" }, "geometry": { "type": "Point", "coordinates": [ -1.6605113, 53.7584887 ] } },
	{ "type": "Feature", "properties": { "osm_id": "413587911", "name": "Birkenshaw Bottoms Methodist Church", "amenity": "place_of_worship", "other_tags": "\"religion\"=>\"christian\",\"denomination\"=>\"methodist\"" }, "geometry": { "type": "Point", "coordinates": [ -1.6813059, 53.7455472 ] } },
	{ "type": "Feature", "properties": { "osm_id": "413588234", "name": "Birkenshaw Methodist Church", "amenity": "place_of_worship" }, "geometry": { "type": "Point", "coordinates": [ -1.6947971, 53.7540595 ] } },
	{ "type": "Feature", "properties": { "osm_id": "413662163", "name": "Friends Meeting House", "amenity": "place_of_worship", "other_tags": "\"religion\"=>\"christian\",\"denomination\"=>\"quaker\"" }, "geometry": { "type": "Point", "coordinates": [ -1.9092039, 53.871781 ] } },
	{ "type": "Feature", "properties": { "osm_id": "413662239", "name": "Kingdom Hall of Jehovah's Witnesses", "amenity": "place_of_worship", "other_tags": "\"religion\"=>\"christian\",\"denomination\"=>\"jehovahs_witness\"" }, "geometry": { "type": "Point", "coordinates": [ -1.9089441, 53.8756331 ] } },
	{ "type": "Feature", "properties": { "osm_id": "413662315", "amenity": "place_of_worship", "other_tags": "\"building\"=>\"mosque\",\"religion\"=>\"muslim\"" }, "geometry": { "type": "Point", "coordinates": [ -1.908748, 53.8732165 ] } },
	{ "type": "Feature", "properties": { "osm_id": "417730971", "name": "Christ Church Bradford", "amenity": "place_of_worship", "other_tags": "\"religion\"=>\"christian\"" }, "geometry": { "type": "Point", "coordinates": [ -1.7335889, 53.832076 ] } },
	{ "type": "Feature", "properties": { "osm_id": "423342211", "name": "Normanton National Spiritualist Church", "amenity": "place_of_worship", "other_tags": "\"religion\"=>\"spiritualist\"" }, "geometry": { "type": "Point", "coordinates": [ -1.4069117, 53.7030813 ] } },
	{ "type": "Feature", "properties": { "osm_id": "423818293", "name": "Idle Baptist Church", "amenity": "place_of_worship", "other_tags": "\"religion\"=>\"christian\",\"denomination\"=>\"baptist\"" }, "geometry": { "type": "Point", "coordinates": [ -1.7307752, 53.8337901 ] } },
	{ "type": "Feature", "properties": { "osm_id": "426894606", "name": "All Saints", "amenity": "place_of_worship", "other_tags": "\"religion\"=>\"christian\",\"denomination\"=>\"anglican\"" }, "geometry": { "type": "Point", "coordinates": [ -1.3347473, 53.9090306 ] } },
	{ "type": "Feature", "properties": { "osm_id": "441335526", "name": "Fartown Christian Fellowship", "amenity": "place_of_worship" }, "geometry": { "type": "Point", "coordinates": [ -1.6687642, 53.7888 ] } },
	{ "type": "Feature", "properties": { "osm_id": "443114856", "name": "Methodist Chapel", "amenity": "place_of_worship", "other_tags": "\"religion\"=>\"christian\",\"denomination\"=>\"methodist\"" }, "geometry": { "type": "Point", "coordinates": [ -1.3692082, 53.7458358 ] } },
	{ "type": "Feature", "properties": { "osm_id": "443115786", "name": "St Mary the Less C of E", "amenity": "place_of_worship", "other_tags": "\"religion\"=>\"christian\"" }, "geometry": { "type": "Point", "coordinates": [ -1.3676998, 53.7453177 ] } },
	{ "type": "Feature", "properties": { "osm_id": "443775651", "name": "Streethouse Methodist Church", "amenity": "place_of_worship", "other_tags": "\"religion\"=>\"christian\",\"denomination\"=>\"methodist\"" }, "geometry": { "type": "Point", "coordinates": [ -1.3983045, 53.6757044 ] } },
	{ "type": "Feature", "properties": { "osm_id": "444410811", "name": "Christ Church", "amenity": "place_of_worship", "other_tags": "\"religion\"=>\"christian\",\"denomination\"=>\"united_reformed\"" }, "geometry": { "type": "Point", "coordinates": [ -1.468508, 53.7971874 ] } },
	{ "type": "Feature", "properties": { "osm_id": "445553572", "name": "Kingdom Hall", "amenity": "place_of_worship", "other_tags": "\"denomination\"=>\"jehovahs_witness\",\"religion\"=>\"christian\"" }, "geometry": { "type": "Point", "coordinates": [ -1.4669189, 53.7977138 ] } },
	{ "type": "Feature", "properties": { "osm_id": "445846753", "name": "Parish Church of Saint Luke", "amenity": "place_of_worship", "other_tags": "\"religion\"=>\"christian\",\"denomination\"=>\"anglican\"" }, "geometry": { "type": "Point", "coordinates": [ -1.4153812, 53.6671473 ] } },
	{ "type": "Feature", "properties": { "osm_id": "471553497", "name": "Thornton Methodist Church", "amenity": "place_of_worship", "other_tags": "\"religion\"=>\"christian\",\"denomination\"=>\"methodist\"" }, "geometry": { "type": "Point", "coordinates": [ -1.8533063, 53.7903675 ] } },
	{ "type": "Feature", "properties": { "osm_id": "471594260", "name": "Brockholes Methodist Church", "amenity": "place_of_worship", "other_tags": "\"denomination\"=>\"methodist\",\"religion\"=>\"christian\"" }, "geometry": { "type": "Point", "coordinates": [ -1.7710875, 53.5942489 ] } },
	{ "type": "Feature", "properties": { "osm_id": "472284351", "name": "St Georges (CofE)", "amenity": "place_of_worship", "other_tags": "\"religion\"=>\"christian\",\"denomination\"=>\"anglican\"" }, "geometry": { "type": "Point", "coordinates": [ -1.772235, 53.5956069 ] } },
	{ "type": "Feature", "properties": { "osm_id": "475027402", "name": "Keighley New Church", "amenity": "place_of_worship", "other_tags": "\"religion\"=>\"christian\",\"denomination\"=>\"swedenborgian\"" }, "geometry": { "type": "Point", "coordinates": [ -1.9433188, 53.8698187 ] } },
	{ "type": "Feature", "properties": { "osm_id": "485697507", "name": "Felkirk Church", "amenity": "place_of_worship" }, "geometry": { "type": "Point", "coordinates": [ -1.4166834, 53.6087875 ] } },
	{ "type": "Feature", "properties": { "osm_id": "493685037", "amenity": "place_of_worship", "other_tags": "\"religion\"=>\"jewish\"" }, "geometry": { "type": "Point", "coordinates": [ -1.7623417, 53.8009641 ] } },
	{ "type": "Feature", "properties": { "osm_id": "494474518", "amenity": "place_of_worship", "other_tags": "\"religion\"=>\"christian\",\"denomination\"=>\"scientist\"" }, "geometry": { "type": "Point", "coordinates": [ -1.7578138, 53.7991836 ] } },
	{ "type": "Feature", "properties": { "osm_id": "497544444", "name": "St Marks", "amenity": "place_of_worship", "other_tags": "\"religion\"=>\"christian\"" }, "geometry": { "type": "Point", "coordinates": [ -1.6392188, 53.6971013 ] } },
	{ "type": "Feature", "properties": { "osm_id": "529091019", "name": "The Church of Jesus Christ of Latter-day Saints", "amenity": "place_of_worship", "other_tags": "\"religion\"=>\"christian\",\"denomination\"=>\"mormon\"" }, "geometry": { "type": "Point", "coordinates": [ -1.7063575, 53.7651796 ] } },
	{ "type": "Feature", "properties": { "osm_id": "530965957", "name": "Westcliffe Road Chapel", "amenity": "place_of_worship", "other_tags": "\"addr:city\"=>\"Shipley\",\"addr:postcode\"=>\"BD18 3EE\",\"addr:street\"=>\"Westcliffe Road\",\"fhrs:id\"=>\"327883\",\"religion\"=>\"christian\",\"source:addr\"=>\"FHRS Open Data\"" }, "geometry": { "type": "Point", "coordinates": [ -1.7805126, 53.8310005 ] } },
	{ "type": "Feature", "properties": { "osm_id": "533730625", "name": "Helme Church", "amenity": "place_of_worship" }, "geometry": { "type": "Point", "coordinates": [ -1.84902, 53.6033673 ] } },
	{ "type": "Feature", "properties": { "osm_id": "533732635", "amenity": "place_of_worship" }, "geometry": { "type": "Point", "coordinates": [ -1.8375206, 53.595163 ] } },
	{ "type": "Feature", "properties": { "osm_id": "536665228", "name": "St Pauls, Esholt", "amenity": "place_of_worship", "other_tags": "\"religion\"=>\"christian\",\"denomination\"=>\"anglican\"" }, "geometry": { "type": "Point", "coordinates": [ -1.7242875, 53.857094 ] } },
	{ "type": "Feature", "properties": { "osm_id": "540189197", "name": "Salvation Army Worship and Community Hall", "amenity": "place_of_worship", "other_tags": "\"website\"=>\"www1.salvationarmy.org.uk\/otley\",\"religion\"=>\"christian\",\"addr:city\"=>\"Otley\",\"is_in:town\"=>\"Otley\",\"addr:street\"=>\"Newmarket\",\"denomination\"=>\"salvation_army\",\"addr:postcode\"=>\"LS21 3AE\"" }, "geometry": { "type": "Point", "coordinates": [ -1.6933175, 53.9046767 ] } },
	{ "type": "Feature", "properties": { "osm_id": "540189992", "name": "Otley Spiritualist Church", "amenity": "place_of_worship", "other_tags": "\"website\"=>\"www.snu.org.uk\/churches\/otley.htm\",\"religion\"=>\"christian\",\"addr:city\"=>\"Otley\",\"is_in:town\"=>\"Otley\",\"addr:street\"=>\"Newmarket\",\"denomination\"=>\"Spiritualist\",\"addr:postcode\"=>\"LS21 3AE\",\"addr:housenumber\"=>\"36\"" }, "geometry": { "type": "Point", "coordinates": [ -1.6929592, 53.9047488 ] } },
	{ "type": "Feature", "properties": { "osm_id": "542674473", "name": "Christian Science Reading Room", "amenity": "place_of_worship", "other_tags": "\"religion\"=>\"christian\",\"denomination\"=>\"scientist\",\"opening_hours\"=>\"Tu 14:00-16:00; We 18:45-19:15; Sa 10:00-12:00\"" }, "geometry": { "type": "Point", "coordinates": [ -1.9090391, 53.8739725 ] } },
	{ "type": "Feature", "properties": { "osm_id": "561462193", "name": "St Margaret", "amenity": "place_of_worship", "other_tags": "\"addr:city\"=>\"Shipley\",\"addr:housename\"=>\"St Margarets Church\",\"addr:housenumber\"=>\"65\",\"addr:postcode\"=>\"BD18 2DH\",\"addr:street\"=>\"Shipley Fields Road\",\"denomination\"=>\"anglican\",\"fhrs:id\"=>\"748377\",\"religion\"=>\"christian\",\"source:addr\"=>\"FHRS Open Data\"" }, "geometry": { "type": "Point", "coordinates": [ -1.7730534, 53.8233983 ] } },
	{ "type": "Feature", "properties": { "osm_id": "599350139", "name": "Salvation Army corps", "amenity": "place_of_worship", "other_tags": "\"religion\"=>\"christian\",\"denomination\"=>\"salvation_army\"" }, "geometry": { "type": "Point", "coordinates": [ -1.2365453, 53.7074513 ] } },
	{ "type": "Feature", "properties": { "osm_id": "600499765", "name": "St Joseph", "amenity": "place_of_worship", "other_tags": "\"addr:city\"=>\"Ingrow, Keighley\",\"addr:postcode\"=>\"BD21 1AT\",\"addr:street\"=>\"South Street\",\"denomination\"=>\"roman_catholic\",\"religion\"=>\"christian\"" }, "geometry": { "type": "Point", "coordinates": [ -1.9166287, 53.8572778 ] } },
	{ "type": "Feature", "properties": { "osm_id": "603899611", "name": "Ukrainian Catholic Church", "amenity": "place_of_worship", "other_tags": "\"religion\"=>\"christian\"" }, "geometry": { "type": "Point", "coordinates": [ -1.7789428, 53.8115116 ] } },
	{ "type": "Feature", "properties": { "osm_id": "621508948", "name": "Frizinghall URC", "amenity": "place_of_worship", "other_tags": "\"religion\"=>\"christian\",\"denomination\"=>\"united_reformed\"" }, "geometry": { "type": "Point", "coordinates": [ -1.774691, 53.8208242 ] } },
	{ "type": "Feature", "properties": { "osm_id": "639282398", "name": "The Salvation Army", "amenity": "place_of_worship", "other_tags": "\"religion\"=>\"christian\",\"denomination\"=>\"salvation_army\"" }, "geometry": { "type": "Point", "coordinates": [ -1.6355646, 53.7168389 ] } },
	{ "type": "Feature", "properties": { "osm_id": "650269249", "name": "St Peter - Hartshead", "amenity": "place_of_worship", "other_tags": "\"website\"=>\"http:\/\/www.achurchnearyou.com\/hartshead-st-peter\/\"" }, "geometry": { "type": "Point", "coordinates": [ -1.7301643, 53.7059698 ] } },
	{ "type": "Feature", "properties": { "osm_id": "676622241", "name": "Holme Church", "amenity": "place_of_worship", "other_tags": "\"religion\"=>\"christian\"" }, "geometry": { "type": "Point", "coordinates": [ -1.7097396, 53.7696997 ] } },
	{ "type": "Feature", "properties": { "osm_id": "676917085", "amenity": "place_of_worship", "other_tags": "\"religion\"=>\"christian\",\"denomination\"=>\"methodist\"" }, "geometry": { "type": "Point", "coordinates": [ -1.6831914, 53.6999268 ] } },
	{ "type": "Feature", "properties": { "osm_id": "676931379", "name": "St Andrews", "amenity": "place_of_worship", "other_tags": "\"addr:city\"=>\"Mirfield\",\"addr:country\"=>\"GB\",\"addr:postcode\"=>\"WF14 0HX\",\"addr:street\"=>\"Old Bank Road\",\"denomination\"=>\"methodist\",\"fhrs:id\"=>\"666903\",\"religion\"=>\"christian\",\"source:addr\"=>\"FHRS Open Data\"" }, "geometry": { "type": "Point", "coordinates": [ -1.6955922, 53.6872341 ] } },
	{ "type": "Feature", "properties": { "osm_id": "682335200", "name": "St John the Evangelist", "amenity": "place_of_worship", "other_tags": "\"addr:city\"=>\"Cullingworth, Bradford\",\"addr:housenumber\"=>\"9\",\"addr:postcode\"=>\"BD13 5HS\",\"addr:street\"=>\"John Street\",\"building\"=>\"church\",\"denomination\"=>\"Church of England\",\"religion\"=>\"christian\",\"website\"=>\"http:\/\/stjohnscullingworth.org.uk\"" }, "geometry": { "type": "Point", "coordinates": [ -1.8992545, 53.8283735 ] } },
	{ "type": "Feature", "properties": { "osm_id": "685937252", "name": "The Salvation Army", "amenity": "place_of_worship" }, "geometry": { "type": "Point", "coordinates": [ -1.7159581, 53.7716141 ] } },
	{ "type": "Feature", "properties": { "osm_id": "685938870", "amenity": "place_of_worship" }, "geometry": { "type": "Point", "coordinates": [ -1.7064365, 53.7799898 ] } },
	{ "type": "Feature", "properties": { "osm_id": "687080949", "name": "Gateway Christian Centre", "amenity": "place_of_worship", "other_tags": "\"religion\"=>\"christian\"" }, "geometry": { "type": "Point", "coordinates": [ -1.7140621, 53.7690059 ] } },
	{ "type": "Feature", "properties": { "osm_id": "687080959", "name": "The Upper Room Church, St Johns, Tong Street (CofE)", "amenity": "place_of_worship", "other_tags": "\"religion\"=>\"christian\"" }, "geometry": { "type": "Point", "coordinates": [ -1.7144326, 53.7692281 ] } },
	{ "type": "Feature", "properties": { "osm_id": "687081063", "name": "Elim Pentecostal Church", "amenity": "place_of_worship", "other_tags": "\"religion\"=>\"christian\"" }, "geometry": { "type": "Point", "coordinates": [ -1.7137549, 53.7688788 ] } },
	{ "type": "Feature", "properties": { "osm_id": "734193034", "name": "St Joseph's RC Church", "amenity": "place_of_worship" }, "geometry": { "type": "Point", "coordinates": [ -2.0976202, 53.7171117 ] } },
	{ "type": "Feature", "properties": { "osm_id": "815950205", "amenity": "place_of_worship" }, "geometry": { "type": "Point", "coordinates": [ -1.9147202, 53.8810601 ] } },
	{ "type": "Feature", "properties": { "osm_id": "823786628", "name": "Holmfirth Methodist Church", "amenity": "place_of_worship", "other_tags": "\"addr:city\"=>\"Holmfirth\",\"addr:country\"=>\"GB\",\"addr:postcode\"=>\"HD9 7EQ\",\"addr:street\"=>\"School Street\",\"denomination\"=>\"methodist\",\"fhrs:id\"=>\"306749\",\"religion\"=>\"christian\",\"source:addr\"=>\"FHRS Open Data\"" }, "geometry": { "type": "Point", "coordinates": [ -1.7857513, 53.5716372 ] } },
	{ "type": "Feature", "properties": { "osm_id": "831582032", "name": "Salvation Army", "amenity": "place_of_worship", "other_tags": "\"addr:city\"=>\"Keighley\",\"addr:country\"=>\"GB\",\"addr:postcode\"=>\"BD21 2LJ\",\"addr:street\"=>\"High Street\",\"denomination\"=>\"salvation_army\",\"fhrs:id\"=>\"456820\",\"religion\"=>\"christian\",\"source:addr\"=>\"FHRS Open Data\"" }, "geometry": { "type": "Point", "coordinates": [ -1.9114854, 53.8652834 ] } },
	{ "type": "Feature", "properties": { "osm_id": "871583863", "amenity": "place_of_worship" }, "geometry": { "type": "Point", "coordinates": [ -1.6222729, 53.7135371 ] } },
	{ "type": "Feature", "properties": { "osm_id": "874292251", "name": "Clayton Heights Methodist", "amenity": "place_of_worship", "other_tags": "\"religion\"=>\"christian\",\"denomination\"=>\"methodist\"" }, "geometry": { "type": "Point", "coordinates": [ -1.823714, 53.7704164 ] } },
	{ "type": "Feature", "properties": { "osm_id": "876161000", "name": "Catholic Church Of St. Anthony of Padua", "amenity": "place_of_worship", "other_tags": "\"religion\"=>\"christian\",\"denomination\"=>\"catholic\"" }, "geometry": { "type": "Point", "coordinates": [ -1.8056797, 53.7847124 ] } },
	{ "type": "Feature", "properties": { "osm_id": "891682647", "name": "Great Horton Methodist Church", "amenity": "place_of_worship", "other_tags": "\"religion\"=>\"christian\",\"denomination\"=>\"methodist\"" }, "geometry": { "type": "Point", "coordinates": [ -1.7851079, 53.7814878 ] } },
	{ "type": "Feature", "properties": { "osm_id": "920423345", "name": "All Saints Church", "amenity": "place_of_worship", "other_tags": "\"religion\"=>\"christian\",\"denomination\"=>\"anglican\"" }, "geometry": { "type": "Point", "coordinates": [ -1.520793, 53.7970906 ] } },
	{ "type": "Feature", "properties": { "osm_id": "921219258", "amenity": "place_of_worship" }, "geometry": { "type": "Point", "coordinates": [ -1.5466018, 53.7808082 ] } },
	{ "type": "Feature", "properties": { "osm_id": "924520340", "name": "St John's Church", "amenity": "place_of_worship", "other_tags": "\"religion\"=>\"christian\",\"denomination\"=>\"anglican\"" }, "geometry": { "type": "Point", "coordinates": [ -1.7882105, 53.6558857 ] } },
	{ "type": "Feature", "properties": { "osm_id": "936565735", "name": "Thorner Methodist Church", "amenity": "place_of_worship", "other_tags": "\"religion\"=>\"christian\",\"denomination\"=>\"methodist\"" }, "geometry": { "type": "Point", "coordinates": [ -1.4286, 53.8570259 ] } },
	{ "type": "Feature", "properties": { "osm_id": "946974394", "name": "St. Andrew's Methodist Church", "amenity": "place_of_worship", "other_tags": "\"addr:city\"=>\"Halifax\",\"addr:country\"=>\"GB\",\"addr:postcode\"=>\"HX3 0AT\",\"addr:street\"=>\"Huddersfield Road\",\"denomination\"=>\"methodist\",\"fhrs:id\"=>\"347755\",\"religion\"=>\"christian\",\"source:addr\"=>\"FHRS Open Data\"" }, "geometry": { "type": "Point", "coordinates": [ -1.8567259, 53.706741 ] } },
	{ "type": "Feature", "properties": { "osm_id": "968123597", "name": "The Salvation Army", "amenity": "place_of_worship", "other_tags": "\"religion\"=>\"christian\",\"denomination\"=>\"salvation_army\"" }, "geometry": { "type": "Point", "coordinates": [ -1.6913305, 53.6743053 ] } },
	{ "type": "Feature", "properties": { "osm_id": "983319696", "name": "Church of the Latter Day Saints", "amenity": "place_of_worship", "other_tags": "\"religion\"=>\"christian\",\"denomination\"=>\"mormon\"" }, "geometry": { "type": "Point", "coordinates": [ -1.446837, 53.8017235 ] } },
	{ "type": "Feature", "properties": { "osm_id": "1080832987", "name": "St Partick's Catholic Church", "amenity": "place_of_worship", "other_tags": "\"religion\"=>\"christian\",\"denomination\"=>\"catholic\"" }, "geometry": { "type": "Point", "coordinates": [ -1.5134338, 53.8005352 ] } },
	{ "type": "Feature", "properties": { "osm_id": "1164235559", "name": "Seacroft Congregational Church", "amenity": "place_of_worship", "other_tags": "\"religion\"=>\"christian\",\"denomination\"=>\"congregational\"" }, "geometry": { "type": "Point", "coordinates": [ -1.469964, 53.8176878 ] } },
	{ "type": "Feature", "properties": { "osm_id": "1164236041", "amenity": "place_of_worship" }, "geometry": { "type": "Point", "coordinates": [ -1.4692156, 53.8222209 ] } },
	{ "type": "Feature", "properties": { "osm_id": "1164236730", "name": "St Richard's", "amenity": "place_of_worship", "other_tags": "\"addr:city\"=>\"Leeds\",\"addr:postcode\"=>\"LS14 1BX\",\"addr:street\"=>\"Kentmere Avenue\",\"addr:suburb\"=>\"Seacroft\",\"denomination\"=>\"anglican\",\"fhrs:id\"=>\"542449\",\"religion\"=>\"christian\"" }, "geometry": { "type": "Point", "coordinates": [ -1.4697574, 53.8275563 ] } },
	{ "type": "Feature", "properties": { "osm_id": "1213018586", "name": "Crosland Hill", "amenity": "place_of_worship", "other_tags": "\"religion\"=>\"christian\",\"denomination\"=>\"methodist\"" }, "geometry": { "type": "Point", "coordinates": [ -1.8234236, 53.6306311 ] } },
	{ "type": "Feature", "properties": { "osm_id": "1222870065", "name": "St Barnabas PC", "amenity": "place_of_worship", "other_tags": "\"religion\"=>\"christian\",\"denomination\"=>\"anglican\"" }, "geometry": { "type": "Point", "coordinates": [ -1.8047642, 53.6365022 ] } },
	{ "type": "Feature", "properties": { "osm_id": "1222870069", "name": "Milnsbridge Baptist Church", "amenity": "place_of_worship", "other_tags": "\"religion\"=>\"christian\",\"denomination\"=>\"baptist\"" }, "geometry": { "type": "Point", "coordinates": [ -1.8248379, 53.6398664 ] } },
	{ "type": "Feature", "properties": { "osm_id": "1222870072", "name": "Linthwaite Methodist Church", "amenity": "place_of_worship" }, "geometry": { "type": "Point", "coordinates": [ -1.8576037, 53.6218364 ] } },
	{ "type": "Feature", "properties": { "osm_id": "1222870076", "name": "Slaithwaite Methodist Church", "amenity": "place_of_worship" }, "geometry": { "type": "Point", "coordinates": [ -1.8782921, 53.624446 ] } },
	{ "type": "Feature", "properties": { "osm_id": "1222870104", "name": "Netherton Methodist Church", "amenity": "place_of_worship" }, "geometry": { "type": "Point", "coordinates": [ -1.8157827, 53.6146324 ] } },
	{ "type": "Feature", "properties": { "osm_id": "1246597828", "name": "Lindley Methodist Church", "amenity": "place_of_worship", "other_tags": "\"religion\"=>\"christian\",\"denomination\"=>\"methodist\"" }, "geometry": { "type": "Point", "coordinates": [ -1.8217892, 53.6629385 ] } },
	{ "type": "Feature", "properties": { "osm_id": "1246597842", "name": "Gledholt Methodist Church", "amenity": "place_of_worship", "other_tags": "\"religion\"=>\"christian\",\"denomination\"=>\"methodist\"" }, "geometry": { "type": "Point", "coordinates": [ -1.8009323, 53.651672 ] } },
	{ "type": "Feature", "properties": { "osm_id": "1246597876", "name": "Outlane Methodist Church", "amenity": "place_of_worship", "other_tags": "\"religion\"=>\"christian\",\"denomination\"=>\"methodist\"" }, "geometry": { "type": "Point", "coordinates": [ -1.8774075, 53.6550485 ] } },
	{ "type": "Feature", "properties": { "osm_id": "1246597883", "name": "Mount Methodist Church", "amenity": "place_of_worship", "other_tags": "\"religion\"=>\"christian\",\"denomination\"=>\"methodist\"" }, "geometry": { "type": "Point", "coordinates": [ -1.8538362, 53.6587165 ] } },
	{ "type": "Feature", "properties": { "osm_id": "1246600452", "name": "Jubilee Centre", "amenity": "place_of_worship", "other_tags": "\"addr:city\"=>\"Huddersfield\",\"addr:country\"=>\"GB\",\"addr:postcode\"=>\"HD1 4SH\",\"addr:street\"=>\"Market Street\",\"addr:suburb\"=>\"Paddock\",\"fhrs:id\"=>\"228736\",\"religion\"=>\"christian\",\"source:addr\"=>\"FHRS Open Data\"" }, "geometry": { "type": "Point", "coordinates": [ -1.8013186, 53.6417764 ] } },
	{ "type": "Feature", "properties": { "osm_id": "1251309973", "name": "Huddersfield Methodist Mission", "amenity": "place_of_worship", "other_tags": "\"religion\"=>\"christian\",\"denomination\"=>\"methodist\"" }, "geometry": { "type": "Point", "coordinates": [ -1.7801525, 53.647581 ] } },
	{ "type": "Feature", "properties": { "osm_id": "1301896013", "name": "Christ Church Centre", "amenity": "place_of_worship", "other_tags": "\"religion\"=>\"christian\"" }, "geometry": { "type": "Point", "coordinates": [ -1.8018776, 53.7281548 ] } },
	{ "type": "Feature", "properties": { "osm_id": "1305689961", "amenity": "place_of_worship" }, "geometry": { "type": "Point", "coordinates": [ -1.350482, 53.7207896 ] } },
	{ "type": "Feature", "properties": { "osm_id": "1305755918", "name": "Smawthorne Community Church", "amenity": "place_of_worship", "other_tags": "\"addr:postcode\"=>\"WF10 5BP\",\"addr:street\"=>\"Beancroft Road\",\"addr:town\"=>\"Castleford\",\"fhrs:id\"=>\"734180\"" }, "geometry": { "type": "Point", "coordinates": [ -1.3552912, 53.721837 ] } },
	{ "type": "Feature", "properties": { "osm_id": "1305944077", "name": "Airedale Methodist Church", "amenity": "place_of_worship", "other_tags": "\"fhrs:id\"=>\"313235\",\"religion\"=>\"christian\",\"addr:street\"=>\"Elizabeth Drive\",\"denomination\"=>\"methodist\",\"addr:postcode\"=>\"WF10 3SD\"" }, "geometry": { "type": "Point", "coordinates": [ -1.3132507, 53.7246124 ] } },
	{ "type": "Feature", "properties": { "osm_id": "1305944092", "amenity": "place_of_worship", "other_tags": "\"religion\"=>\"christian\"" }, "geometry": { "type": "Point", "coordinates": [ -1.3155268, 53.7243547 ] } },
	{ "type": "Feature", "properties": { "osm_id": "1306197298", "amenity": "place_of_worship" }, "geometry": { "type": "Point", "coordinates": [ -1.2994428, 53.6848634 ] } },
	{ "type": "Feature", "properties": { "osm_id": "1308131392", "name": "St Michael's Church", "amenity": "place_of_worship", "other_tags": "\"religion\"=>\"christian\",\"addr:street\"=>\"Carleton Road\",\"addr:postcode\"=>\"WF8 3SU\"" }, "geometry": { "type": "Point", "coordinates": [ -1.2934307, 53.6763535 ] } },
	{ "type": "Feature", "properties": { "osm_id": "1308161049", "name": "Hall Bower Sunday School", "amenity": "place_of_worship", "other_tags": "\"religion\"=>\"christian\",\"denomination\"=>\"anglican\"" }, "geometry": { "type": "Point", "coordinates": [ -1.7734721, 53.6260143 ] } },
	{ "type": "Feature", "properties": { "osm_id": "1310893536", "name": "Micklegate Methodist Church", "amenity": "place_of_worship", "other_tags": "\"addr:postcode\"=>\"WF8 1QG\",\"addr:street\"=>\"Micklegate\",\"addr:town\"=>\"Pontefract\",\"fhrs:id\"=>\"283964\",\"religion\"=>\"christian\"" }, "geometry": { "type": "Point", "coordinates": [ -1.3055544, 53.6940433 ] } },
	{ "type": "Feature", "properties": { "osm_id": "1310893558", "name": "Congregational Church", "amenity": "place_of_worship", "other_tags": "\"addr:postcode\"=>\"WF8 1HE\",\"addr:street\"=>\"Finkle Street\",\"addr:town\"=>\"Pontefract\",\"denomination\"=>\"evangelical\",\"fhrs:id\"=>\"313729\",\"religion\"=>\"christian\"" }, "geometry": { "type": "Point", "coordinates": [ -1.3102176, 53.6928057 ] } },
	{ "type": "Feature", "properties": { "osm_id": "1310893584", "name": "St Andrews", "amenity": "place_of_worship", "other_tags": "\"addr:postcode\"=>\"WF11 8PN\",\"addr:street\"=>\"Pontefract Road\",\"addr:suburb\"=>\"Ferrybridge\",\"addr:town\"=>\"Knottingley\",\"denomination\"=>\"anglican\",\"fhrs:id\"=>\"665003\",\"religion\"=>\"christian\"" }, "geometry": { "type": "Point", "coordinates": [ -1.2736989, 53.711543 ] } },
	{ "type": "Feature", "properties": { "osm_id": "1312728633", "amenity": "place_of_worship" }, "geometry": { "type": "Point", "coordinates": [ -1.3204286, 53.6940323 ] } },
	{ "type": "Feature", "properties": { "osm_id": "1332261520", "name": "Bridge Church", "amenity": "place_of_worship", "other_tags": "\"addr:city\"=>\"Otley\",\"addr:country\"=>\"GB\",\"addr:postcode\"=>\"LS21 1RW\",\"addr:street\"=>\"Bridge Street\",\"denomination\"=>\"united_reformed\",\"fhrs:id\"=>\"953879\",\"religion\"=>\"christian\",\"website\"=>\"www.otleybridgechurch.org.uk\"" }, "geometry": { "type": "Point", "coordinates": [ -1.6936029, 53.9074617 ] } },
	{ "type": "Feature", "properties": { "osm_id": "1357042563", "name": "St Mary of the Angels", "amenity": "place_of_worship", "other_tags": "\"denomination\"=>\"catholic\",\"phone\"=>\"+44 1924 474650\",\"religion\"=>\"christian\"" }, "geometry": { "type": "Point", "coordinates": [ -1.6417206, 53.7170561 ] } },
	{ "type": "Feature", "properties": { "osm_id": "1371042597", "name": "St Anne-in-the-Grove", "amenity": "place_of_worship", "other_tags": "\"religion\"=>\"christian\"" }, "geometry": { "type": "Point", "coordinates": [ -1.8193152, 53.7092237 ] } },
	{ "type": "Feature", "properties": { "osm_id": "1380997713", "name": "Aldersgate Methodish Church", "amenity": "place_of_worship", "other_tags": "\"addr:city\"=>\"Bradford\",\"addr:postcode\"=>\"BD12 0TW\",\"addr:street\"=>\"Common Road\",\"denomination\"=>\"methodist\",\"fhrs:id\"=>\"327633\",\"religion\"=>\"christian\",\"source:addr\"=>\"FHRS Open Data\"" }, "geometry": { "type": "Point", "coordinates": [ -1.7614232, 53.7566896 ] } },
	{ "type": "Feature", "properties": { "osm_id": "1416718801", "name": "Lumbutts Church", "amenity": "place_of_worship" }, "geometry": { "type": "Point", "coordinates": [ -2.0654508, 53.7068049 ] } },
	{ "type": "Feature", "properties": { "osm_id": "1420486306", "amenity": "place_of_worship" }, "geometry": { "type": "Point", "coordinates": [ -2.063452, 53.7449642 ] } },
	{ "type": "Feature", "properties": { "osm_id": "1447474031", "amenity": "place_of_worship", "other_tags": "\"religion\"=>\"christian\"" }, "geometry": { "type": "Point", "coordinates": [ -1.6281229, 53.7213256 ] } },
	{ "type": "Feature", "properties": { "osm_id": "1474265437", "name": "Pepper Hill Unitarian Chapel", "amenity": "place_of_worship" }, "geometry": { "type": "Point", "coordinates": [ -1.8309907, 53.7558762 ] } },
	{ "type": "Feature", "properties": { "osm_id": "1487515537", "name": "St Columba's Catholic church", "amenity": "place_of_worship", "other_tags": "\"religion\"=>\"christian\",\"denomination\"=>\"roman_catholic\"" }, "geometry": { "type": "Point", "coordinates": [ -1.7193075, 53.7709604 ] } },
	{ "type": "Feature", "properties": { "osm_id": "1501411956", "name": "Golcar Baptist Church", "amenity": "place_of_worship", "other_tags": "\"religion\"=>\"christian\",\"denomination\"=>\"baptist\"" }, "geometry": { "type": "Point", "coordinates": [ -1.8526877, 53.6356969 ] } },
	{ "type": "Feature", "properties": { "osm_id": "1535922116", "name": "Jamia Masjid Abu-Bakr & Islamic Centre", "amenity": "place_of_worship", "other_tags": "\"addr:street\"=>\"Church Street\",\"phone\"=>\"+44 1484 450183\",\"religion\"=>\"muslim\"" }, "geometry": { "type": "Point", "coordinates": [ -1.8071282, 53.6430078 ] } },
	{ "type": "Feature", "properties": { "osm_id": "1535922348", "amenity": "place_of_worship", "other_tags": "\"denomination\"=>\"quaker\",\"phone\"=>\"+44 1484 845330\",\"religion\"=>\"christian\"" }, "geometry": { "type": "Point", "coordinates": [ -1.8038798, 53.6428806 ] } },
	{ "type": "Feature", "properties": { "osm_id": "1538119858", "name": "St Theresa's", "amenity": "place_of_worship", "other_tags": "\"religion\"=>\"christian\",\"denomination\"=>\"catholic\"" }, "geometry": { "type": "Point", "coordinates": [ -1.85132, 53.7659809 ] } },
	{ "type": "Feature", "properties": { "osm_id": "1542303004", "name": "Ben Rhydding Methodist Church", "amenity": "place_of_worship", "other_tags": "\"addr:city\"=>\"Ilkley\",\"addr:postcode\"=>\"LS29 8AY\",\"addr:street\"=>\"Ben Rhydding Drive\",\"denomination\"=>\"methodist\",\"fhrs:id\"=>\"327307\",\"religion\"=>\"christian\",\"source:addr\"=>\"FHRS Open Data\"" }, "geometry": { "type": "Point", "coordinates": [ -1.7972415, 53.9242819 ] } },
	{ "type": "Feature", "properties": { "osm_id": "1542532832", "name": "Pool Methodist Church", "amenity": "place_of_worship", "other_tags": "\"religion\"=>\"christian\",\"denomination\"=>\"methodist\"" }, "geometry": { "type": "Point", "coordinates": [ -1.6303555, 53.9032725 ] } },
	{ "type": "Feature", "properties": { "osm_id": "1543964169", "name": "The Methodist Church", "amenity": "place_of_worship", "other_tags": "\"religion\"=>\"christian\",\"addr:street\"=>\"Main Street\",\"denomination\"=>\"methodist\"" }, "geometry": { "type": "Point", "coordinates": [ -1.7448719, 53.9125663 ] } },
	{ "type": "Feature", "properties": { "osm_id": "1544027699", "name": "The Church of the Sacred Heart", "amenity": "place_of_worship", "other_tags": "\"religion\"=>\"christian\",\"denomination\"=>\"catholic\"" }, "geometry": { "type": "Point", "coordinates": [ -1.8304496, 53.927692 ] } },
	{ "type": "Feature", "properties": { "osm_id": "1574851102", "name": "Longley and Lowerhouses Community Church", "amenity": "place_of_worship" }, "geometry": { "type": "Point", "coordinates": [ -1.7665046, 53.6326246 ] } },
	{ "type": "Feature", "properties": { "osm_id": "1575546606", "name": "Addingham Methodist Church", "amenity": "place_of_worship", "other_tags": "\"website\"=>\"bradforddistrictfaithsforum.org.uk\/...\/addingham-methodist-church\",\"religion\"=>\"christian\",\"addr:street\"=>\"Chapel Street\",\"denomination\"=>\"methodist\",\"addr:postcode\"=>\"LS29 0JE\"" }, "geometry": { "type": "Point", "coordinates": [ -1.8864144, 53.9455912 ] } },
	{ "type": "Feature", "properties": { "osm_id": "1581251163", "name": "The Methodist Church Wetherby", "amenity": "place_of_worship", "other_tags": "\"religion\"=>\"christian\",\"wheelchair\"=>\"yes\",\"denomination\"=>\"methodist\"" }, "geometry": { "type": "Point", "coordinates": [ -1.3870276, 53.9291499 ] } },
	{ "type": "Feature", "properties": { "osm_id": "1619301724", "name": "All Saints", "amenity": "place_of_worship", "other_tags": "\"religion\"=>\"christian\",\"denomination\"=>\"anglican\"" }, "geometry": { "type": "Point", "coordinates": [ -1.3090222, 53.7623141 ] } },
	{ "type": "Feature", "properties": { "osm_id": "1620639194", "name": "Doncaster Road Methodist Chapel", "amenity": "place_of_worship", "other_tags": "\"denomination\"=>\"methodist\",\"religion\"=>\"christian\"" }, "geometry": { "type": "Point", "coordinates": [ -1.2684524, 53.711146 ] } },
	{ "type": "Feature", "properties": { "osm_id": "1623552793", "name": "Kippax Methodist Church", "amenity": "place_of_worship", "other_tags": "\"religion\"=>\"christian\",\"denomination\"=>\"methodist\"" }, "geometry": { "type": "Point", "coordinates": [ -1.3682404, 53.767549 ] } },
	{ "type": "Feature", "properties": { "osm_id": "1623940767", "name": "Wesleyan Methodist Chapel", "amenity": "place_of_worship", "other_tags": "\"religion\"=>\"christian\",\"addr:street\"=>\"Chapel Hill\",\"denomination\"=>\"methodist\",\"addr:postcode\"=>\"LS19 7RG\"" }, "geometry": { "type": "Point", "coordinates": [ -1.685073, 53.8653781 ] } },
	{ "type": "Feature", "properties": { "osm_id": "1627024079", "name": "Leeds Islamic Centre", "amenity": "place_of_worship", "other_tags": "\"addr:city\"=>\"Leeds\",\"addr:housenumber\"=>\"46-48\",\"addr:postcode\"=>\"LS7 4BR\",\"addr:street\"=>\"Spencer Place\",\"addr:suburb\"=>\"Chapeltown\",\"fhrs:id\"=>\"320958\",\"religion\"=>\"muslim\"" }, "geometry": { "type": "Point", "coordinates": [ -1.5254897, 53.8132335 ] } },
	{ "type": "Feature", "properties": { "osm_id": "1627024081", "name": "Church of the Three Hierarchs", "amenity": "place_of_worship", "other_tags": "\"religion\"=>\"christian\",\"denomination\"=>\"greek_orthodox\"" }, "geometry": { "type": "Point", "coordinates": [ -1.5205228, 53.8183953 ] } },
	{ "type": "Feature", "properties": { "osm_id": "1627024177", "name": "Harehills Gospel Hall", "amenity": "place_of_worship", "other_tags": "\"religion\"=>\"christian\"" }, "geometry": { "type": "Point", "coordinates": [ -1.5134149, 53.816204 ] } },
	{ "type": "Feature", "properties": { "osm_id": "1627024211", "name": "Mount Zion Pentecostal Apostolic Church", "amenity": "place_of_worship", "other_tags": "\"religion\"=>\"christian\",\"denomination\"=>\"pentecostal\"" }, "geometry": { "type": "Point", "coordinates": [ -1.5232688, 53.816958 ] } },
	{ "type": "Feature", "properties": { "osm_id": "1627024219", "name": "Harehills Lane Baptist Church", "amenity": "place_of_worship", "other_tags": "\"fhrs:id\"=>\"321239\",\"religion\"=>\"christian\",\"addr:street\"=>\"Hilton Place\",\"fixme:addr4\"=>\"Leeds\",\"source:addr\"=>\"FHRS Open Data\",\"denomination\"=>\"baptist\",\"addr:postcode\"=>\"LS8 4HE\"" }, "geometry": { "type": "Point", "coordinates": [ -1.5199118, 53.8196616 ] } },
	{ "type": "Feature", "properties": { "osm_id": "1627024232", "name": "Trinity United Reform Church", "amenity": "place_of_worship", "other_tags": "\"religion\"=>\"christian\",\"denomination\"=>\"united_reformed\"" }, "geometry": { "type": "Point", "coordinates": [ -1.5231186, 53.8180031 ] } },
	{ "type": "Feature", "properties": { "osm_id": "1627024237", "name": "Church of Jesus Christ Apostolic", "amenity": "place_of_worship", "other_tags": "\"religion\"=>\"christian\",\"denomination\"=>\"pentecostal\"" }, "geometry": { "type": "Point", "coordinates": [ -1.5241593, 53.8095023 ] } },
	{ "type": "Feature", "properties": { "osm_id": "1628054314", "amenity": "place_of_worship" }, "geometry": { "type": "Point", "coordinates": [ -1.9276183, 53.6019979 ] } },
	{ "type": "Feature", "properties": { "osm_id": "1628093529", "amenity": "place_of_worship" }, "geometry": { "type": "Point", "coordinates": [ -1.8505616, 53.5944365 ] } },
	{ "type": "Feature", "properties": { "osm_id": "1628093530", "amenity": "place_of_worship" }, "geometry": { "type": "Point", "coordinates": [ -1.8538339, 53.5926726 ] } },
	{ "type": "Feature", "properties": { "osm_id": "1628108112", "amenity": "place_of_worship" }, "geometry": { "type": "Point", "coordinates": [ -1.6513368, 53.832729 ] } },
	{ "type": "Feature", "properties": { "osm_id": "1628108125", "amenity": "place_of_worship" }, "geometry": { "type": "Point", "coordinates": [ -1.6373271, 53.8396678 ] } },
	{ "type": "Feature", "properties": { "osm_id": "1628338766", "amenity": "place_of_worship" }, "geometry": { "type": "Point", "coordinates": [ -1.8784251, 53.6207363 ] } },
	{ "type": "Feature", "properties": { "osm_id": "1628553717", "name": "Gospel Hall", "amenity": "place_of_worship", "other_tags": "\"religion\"=>\"christian\"" }, "geometry": { "type": "Point", "coordinates": [ -1.3159216, 53.7259373 ] } },
	{ "type": "Feature", "properties": { "osm_id": "1632931995", "name": "Lidgett Park Methodist Church", "amenity": "place_of_worship", "other_tags": "\"religion\"=>\"christian\",\"denomination\"=>\"methodist\"" }, "geometry": { "type": "Point", "coordinates": [ -1.5172693, 53.8375202 ] } },
	{ "type": "Feature", "properties": { "osm_id": "1633040723", "amenity": "place_of_worship" }, "geometry": { "type": "Point", "coordinates": [ -1.7325793, 53.8101737 ] } },
	{ "type": "Feature", "properties": { "osm_id": "1633040725", "amenity": "place_of_worship" }, "geometry": { "type": "Point", "coordinates": [ -1.7296932, 53.8081845 ] } },
	{ "type": "Feature", "properties": { "osm_id": "1633040737", "name": "Holmewood Kingdom Hall of Jehovahs Witnesses", "amenity": "place_of_worship", "other_tags": "\"wheelchair\"=>\"yes\",\"toilets:wheelchair\"=>\"yes\"" }, "geometry": { "type": "Point", "coordinates": [ -1.7184494, 53.7866387 ] } },
	{ "type": "Feature", "properties": { "osm_id": "1633681331", "name": "St Mark's", "amenity": "place_of_worship", "other_tags": "\"religion\"=>\"christian\"" }, "geometry": { "type": "Point", "coordinates": [ -1.8331974, 53.6462219 ] } },
	{ "type": "Feature", "properties": { "osm_id": "1633801300", "amenity": "place_of_worship" }, "geometry": { "type": "Point", "coordinates": [ -1.7736535, 53.7758856 ] } },
	{ "type": "Feature", "properties": { "osm_id": "1633801332", "amenity": "place_of_worship" }, "geometry": { "type": "Point", "coordinates": [ -1.7737474, 53.7757556 ] } },
	{ "type": "Feature", "properties": { "osm_id": "1633801371", "name": "St Oswalds", "amenity": "place_of_worship", "other_tags": "\"denomination\"=>\"anglican\",\"religion\"=>\"christian\"" }, "geometry": { "type": "Point", "coordinates": [ -1.7705377, 53.7757419 ] } },
	{ "type": "Feature", "properties": { "osm_id": "1634144868", "amenity": "place_of_worship" }, "geometry": { "type": "Point", "coordinates": [ -1.8499601, 53.7128433 ] } },
	{ "type": "Feature", "properties": { "osm_id": "1634144918", "amenity": "place_of_worship" }, "geometry": { "type": "Point", "coordinates": [ -1.8497992, 53.7133386 ] } },
	{ "type": "Feature", "properties": { "osm_id": "1634912103", "amenity": "place_of_worship" }, "geometry": { "type": "Point", "coordinates": [ -1.6563775, 53.7285034 ] } },
	{ "type": "Feature", "properties": { "osm_id": "1634912109", "name": "St John the Evangelist", "amenity": "place_of_worship", "other_tags": "\"religion\"=>\"christian\"" }, "geometry": { "type": "Point", "coordinates": [ -1.6472644, 53.7206225 ] } },
	{ "type": "Feature", "properties": { "osm_id": "1636250486", "amenity": "place_of_worship" }, "geometry": { "type": "Point", "coordinates": [ -1.8267261, 53.5844465 ] } },
	{ "type": "Feature", "properties": { "osm_id": "1639297549", "amenity": "place_of_worship" }, "geometry": { "type": "Point", "coordinates": [ -1.7937369, 53.6068885 ] } },
	{ "type": "Feature", "properties": { "osm_id": "1639297597", "amenity": "place_of_worship" }, "geometry": { "type": "Point", "coordinates": [ -1.7954315, 53.6015919 ] } },
	{ "type": "Feature", "properties": { "osm_id": "1639297673", "amenity": "place_of_worship" }, "geometry": { "type": "Point", "coordinates": [ -1.7927826, 53.6049214 ] } },
	{ "type": "Feature", "properties": { "osm_id": "1639306039", "name": "St Paul", "amenity": "place_of_worship", "other_tags": "\"religion\"=>\"christian\",\"denomination\"=>\"anglican\"" }, "geometry": { "type": "Point", "coordinates": [ -1.7984307, 53.6196529 ] } },
	{ "type": "Feature", "properties": { "osm_id": "1651479635", "amenity": "place_of_worship" }, "geometry": { "type": "Point", "coordinates": [ -1.8606042, 53.8241985 ] } },
	{ "type": "Feature", "properties": { "osm_id": "1651479638", "amenity": "place_of_worship" }, "geometry": { "type": "Point", "coordinates": [ -1.8626003, 53.8250132 ] } },
	{ "type": "Feature", "properties": { "osm_id": "1651495260", "amenity": "place_of_worship" }, "geometry": { "type": "Point", "coordinates": [ -1.7669449, 53.8039992 ] } },
	{ "type": "Feature", "properties": { "osm_id": "1652565484", "amenity": "place_of_worship" }, "geometry": { "type": "Point", "coordinates": [ -1.7677982, 53.8069752 ] } },
	{ "type": "Feature", "properties": { "osm_id": "1652846882", "amenity": "place_of_worship" }, "geometry": { "type": "Point", "coordinates": [ -1.7443408, 53.7882675 ] } },
	{ "type": "Feature", "properties": { "osm_id": "1654165560", "amenity": "place_of_worship" }, "geometry": { "type": "Point", "coordinates": [ -1.7499903, 53.8073041 ] } },
	{ "type": "Feature", "properties": { "osm_id": "1654187748", "amenity": "place_of_worship" }, "geometry": { "type": "Point", "coordinates": [ -1.7656407, 53.7740953 ] } },
	{ "type": "Feature", "properties": { "osm_id": "1660258031", "name": "Seventh-day Adventist Church", "amenity": "place_of_worship", "other_tags": "\"religion\"=>\"christian\",\"source:name\"=>\"survey\"" }, "geometry": { "type": "Point", "coordinates": [ -1.8078331, 53.6373993 ] } },
	{ "type": "Feature", "properties": { "osm_id": "1660258132", "name": "Jam-E-Masjid-Bilal", "amenity": "place_of_worship", "other_tags": "\"religion\"=>\"muslim\"" }, "geometry": { "type": "Point", "coordinates": [ -1.8025952, 53.6358478 ] } },
	{ "type": "Feature", "properties": { "osm_id": "1660623766", "amenity": "place_of_worship" }, "geometry": { "type": "Point", "coordinates": [ -1.7906701, 53.685609 ] } },
	{ "type": "Feature", "properties": { "osm_id": "1661994570", "amenity": "place_of_worship" }, "geometry": { "type": "Point", "coordinates": [ -1.8410592, 53.6571953 ] } },
	{ "type": "Feature", "properties": { "osm_id": "1685139707", "name": "The Green Room", "amenity": "place_of_worship", "other_tags": "\"religion\"=>\"muslim\"" }, "geometry": { "type": "Point", "coordinates": [ -1.55311, 53.8040001 ] } },
	{ "type": "Feature", "properties": { "osm_id": "1715871349", "amenity": "place_of_worship" }, "geometry": { "type": "Point", "coordinates": [ -1.3407465, 53.7181028 ] } },
	{ "type": "Feature", "properties": { "osm_id": "1717745698", "name": "The Parish Church of St Andrew Thongsbridge", "amenity": "place_of_worship", "other_tags": "\"religion\"=>\"christian\"" }, "geometry": { "type": "Point", "coordinates": [ -1.7771797, 53.5832814 ] } },
	{ "type": "Feature", "properties": { "osm_id": "1717746106", "name": "St Augustine", "amenity": "place_of_worship", "other_tags": "\"religion\"=>\"christian\",\"denomination\"=>\"anglican\"" }, "geometry": { "type": "Point", "coordinates": [ -1.6262353, 53.5898011 ] } },
	{ "type": "Feature", "properties": { "osm_id": "1783933787", "amenity": "place_of_worship" }, "geometry": { "type": "Point", "coordinates": [ -1.7542298, 53.6512203 ] } },
	{ "type": "Feature", "properties": { "osm_id": "1783933907", "amenity": "place_of_worship" }, "geometry": { "type": "Point", "coordinates": [ -1.7546053, 53.649166 ] } },
	{ "type": "Feature", "properties": { "osm_id": "1784740934", "name": "Christ Church Moldgreen", "amenity": "place_of_worship", "other_tags": "\"building\"=>\"church\",\"religion\"=>\"christian\",\"denomination\"=>\"evangelical\"" }, "geometry": { "type": "Point", "coordinates": [ -1.7650654, 53.6456871 ] } },
	{ "type": "Feature", "properties": { "osm_id": "1880133400", "name": "St John's Church", "amenity": "place_of_worship", "other_tags": "\"religion\"=>\"christian\",\"denomination\"=>\"anglican\"" }, "geometry": { "type": "Point", "coordinates": [ -1.6598359, 53.5605866 ] } },
	{ "type": "Feature", "properties": { "osm_id": "2008929184", "amenity": "place_of_worship", "other_tags": "\"religion\"=>\"christian\"" }, "geometry": { "type": "Point", "coordinates": [ -1.6355138, 53.6788197 ] } },
	{ "type": "Feature", "properties": { "osm_id": "2050786894", "name": "Shahjalal Jamia Masjid", "amenity": "place_of_worship", "other_tags": "\"religion\"=>\"muslim\"" }, "geometry": { "type": "Point", "coordinates": [ -1.5200402, 53.8170858 ] } },
	{ "type": "Feature", "properties": { "osm_id": "2102972617", "name": "Holy Family Catholic Church", "amenity": "place_of_worship", "other_tags": "\"religion\"=>\"christian\"" }, "geometry": { "type": "Point", "coordinates": [ -1.878803, 53.6190245 ] } },
	{ "type": "Feature", "properties": { "osm_id": "2104115926", "amenity": "place_of_worship" }, "geometry": { "type": "Point", "coordinates": [ -1.8225227, 53.6588981 ] } },
	{ "type": "Feature", "properties": { "osm_id": "2104911034", "name": "Jamyang", "amenity": "place_of_worship", "other_tags": "\"level\"=>\"1\",\"website\"=>\"http:\/\/www.jamyangleeds.co.uk\/\",\"religion\"=>\"buddhist\",\"addr:street\"=>\"Saint Paul's Street\",\"denomination\"=>\"tibetan\",\"addr:postcode\"=>\"LS1 2JG\",\"addr:housenumber\"=>\"31\"" }, "geometry": { "type": "Point", "coordinates": [ -1.551275, 53.7979479 ] } },
	{ "type": "Feature", "properties": { "osm_id": "2106890101", "amenity": "place_of_worship" }, "geometry": { "type": "Point", "coordinates": [ -1.7694529, 53.7514829 ] } },
	{ "type": "Feature", "properties": { "osm_id": "2106890139", "amenity": "place_of_worship" }, "geometry": { "type": "Point", "coordinates": [ -1.7629297, 53.7356837 ] } },
	{ "type": "Feature", "properties": { "osm_id": "2110747522", "name": "Christ Church", "amenity": "place_of_worship", "other_tags": "\"religion\"=>\"christian\",\"denomination\"=>\"anglican\"" }, "geometry": { "type": "Point", "coordinates": [ -1.6941419, 53.7118478 ] } },
	{ "type": "Feature", "properties": { "osm_id": "2140182068", "name": "St Thomas Thurstonland", "amenity": "place_of_worship", "other_tags": "\"denomination\"=>\"anglican\",\"religion\"=>\"christian\"" }, "geometry": { "type": "Point", "coordinates": [ -1.7505293, 53.5931819 ] } },
	{ "type": "Feature", "properties": { "osm_id": "2140360932", "name": "St James' Church & Parish Centre", "amenity": "place_of_worship", "other_tags": "\"religion\"=>\"christian\",\"denomination\"=>\"anglican\"" }, "geometry": { "type": "Point", "coordinates": [ -1.7535695, 53.6544808 ] } },
	{ "type": "Feature", "properties": { "osm_id": "2264806541", "amenity": "place_of_worship" }, "geometry": { "type": "Point", "coordinates": [ -1.3149319, 53.6893723 ] } },
	{ "type": "Feature", "properties": { "osm_id": "2360765455", "name": "Sacred Heart &St Patricks", "amenity": "place_of_worship", "other_tags": "\"denomination\"=>\"catholic\",\"religion\"=>\"christian\"" }, "geometry": { "type": "Point", "coordinates": [ -1.8982201, 53.7118998 ] } },
	{ "type": "Feature", "properties": { "osm_id": "2381820911", "name": "St John's Church Calder Grove", "amenity": "place_of_worship", "other_tags": "\"religion\"=>\"christian\"" }, "geometry": { "type": "Point", "coordinates": [ -1.5356944, 53.6475084 ] } },
	{ "type": "Feature", "properties": { "osm_id": "2387207795", "name": "Bolton Methodist Church", "amenity": "place_of_worship", "other_tags": "\"addr:city\"=>\"Bradford\",\"addr:postcode\"=>\"BD2 4HT\",\"addr:street\"=>\"Bolton Road\",\"denomination\"=>\"methodist\",\"fhrs:id\"=>\"326534\",\"religion\"=>\"christian\",\"source:addr\"=>\"FHRS Open Data\"" }, "geometry": { "type": "Point", "coordinates": [ -1.7346337, 53.8161274 ] } },
	{ "type": "Feature", "properties": { "osm_id": "2389313528", "amenity": "place_of_worship" }, "geometry": { "type": "Point", "coordinates": [ -1.8079642, 53.7564148 ] } },
	{ "type": "Feature", "properties": { "osm_id": "2409846118", "name": "New Mill Chapel", "amenity": "place_of_worship", "other_tags": "\"religion\"=>\"christian\"" }, "geometry": { "type": "Point", "coordinates": [ -1.7607809, 53.5786211 ] } },
	{ "type": "Feature", "properties": { "osm_id": "2646065261", "name": "St. Cyprian With St. James", "amenity": "place_of_worship", "other_tags": "\"religion\"=>\"christian\",\"addr:city\"=>\"Leeds\",\"addr:street\"=>\"Coldcotes Avenue\",\"denomination\"=>\"protestant\",\"addr:postcode\"=>\"LS9 6NB\"" }, "geometry": { "type": "Point", "coordinates": [ -1.505566, 53.8086124 ] } },
	{ "type": "Feature", "properties": { "osm_id": "2646065262", "name": "St. Cyprian With St. James Community Hall", "amenity": "place_of_worship", "other_tags": "\"religion\"=>\"non-denominational\",\"addr:city\"=>\"Leeds\",\"addr:street\"=>\"Bellbrooke Avenue\",\"denomination\"=>\"nondenominational\"" }, "geometry": { "type": "Point", "coordinates": [ -1.5057323, 53.8087502 ] } },
	{ "type": "Feature", "properties": { "osm_id": "2667298221", "name": "Morley Community Church", "amenity": "place_of_worship", "other_tags": "\"email\"=>\"info@morleycommunitychurch.org.uk\",\"website\"=>\"http:\/\/www.morleycommunitychurch.org.uk\/\",\"religion\"=>\"christian\",\"addr:city\"=>\"Morley, Leeds, UK\",\"addr:street\"=>\"Fountain Street\",\"denomination\"=>\"EFCC\",\"addr:postcode\"=>\"LS27 0AW\",\"service_times\"=>\"Su 10:00\",\"addr:housename\"=>\"Fountain Primary School\",\"phone:Rev. Steve Wright\"=>\"+44 113 253 5477\"" }, "geometry": { "type": "Point", "coordinates": [ -1.6103779, 53.7380427 ] } },
	{ "type": "Feature", "properties": { "osm_id": "2689724077", "name": "The Holy Cross", "amenity": "place_of_worship", "other_tags": "\"religion\"=>\"christian\"" }, "geometry": { "type": "Point", "coordinates": [ -1.3164255, 53.7235644 ] } },
	{ "type": "Feature", "properties": { "osm_id": "2875090130", "name": "St Joseph's Catholic Church", "amenity": "place_of_worship", "other_tags": "\"religion\"=>\"christian\",\"denomination\"=>\"roman_catholic\"" }, "geometry": { "type": "Point", "coordinates": [ -1.6400102, 53.7009033 ] } },
	{ "type": "Feature", "properties": { "osm_id": "2878952548", "name": "Upton Methodist Church", "amenity": "place_of_worship", "other_tags": "\"religion\"=>\"christian\",\"denomination\"=>\"methodist\"" }, "geometry": { "type": "Point", "coordinates": [ -1.282294, 53.6133528 ] } },
	{ "type": "Feature", "properties": { "osm_id": "2922772996", "name": "Lincoln Green Mosque", "amenity": "place_of_worship", "other_tags": "\"religion\"=>\"muslim\"" }, "geometry": { "type": "Point", "coordinates": [ -1.5282502, 53.804466 ] } },
	{ "type": "Feature", "properties": { "osm_id": "2974877074", "amenity": "place_of_worship" }, "geometry": { "type": "Point", "coordinates": [ -1.7327593, 53.8361881 ] } },
	{ "type": "Feature", "properties": { "osm_id": "3110378284", "amenity": "place_of_worship", "other_tags": "\"religion\"=>\"christian\"" }, "geometry": { "type": "Point", "coordinates": [ -1.3008808, 53.6292294 ] } },
	{ "type": "Feature", "properties": { "osm_id": "3120470553", "name": "St Mary the Virgin", "amenity": "place_of_worship", "other_tags": "\"religion\"=>\"christian\",\"wheelchair\"=>\"yes\",\"denomination\"=>\"anglican\"" }, "geometry": { "type": "Point", "coordinates": [ -1.8378754, 53.6868192 ] } },
	{ "type": "Feature", "properties": { "osm_id": "3134854348", "amenity": "place_of_worship" }, "geometry": { "type": "Point", "coordinates": [ -1.7109333, 53.6338506 ] } },
	{ "type": "Feature", "properties": { "osm_id": "3145784342", "name": "All Saints", "amenity": "place_of_worship", "other_tags": "\"religion\"=>\"christian\",\"denomination\"=>\"anglican\"" }, "geometry": { "type": "Point", "coordinates": [ -1.6106246, 53.5945959 ] } },
	{ "type": "Feature", "properties": { "osm_id": "3185689327", "name": "Gipton Church of the Epiphany", "amenity": "place_of_worship", "other_tags": "\"religion\"=>\"christian\",\"denomination\"=>\"anglican\"" }, "geometry": { "type": "Point", "coordinates": [ -1.4918041, 53.8129653 ] } },
	{ "type": "Feature", "properties": { "osm_id": "3185689341", "amenity": "place_of_worship", "other_tags": "\"religion\"=>\"christian\",\"denomination\"=>\"catholic\"" }, "geometry": { "type": "Point", "coordinates": [ -1.4895484, 53.8120546 ] } },
	{ "type": "Feature", "properties": { "osm_id": "3649681932", "name": "Methodist Church", "amenity": "place_of_worship", "other_tags": "\"religion\"=>\"christian\",\"denomination\"=>\"methodist\"" }, "geometry": { "type": "Point", "coordinates": [ -1.5398439, 53.721399 ] } },
	{ "type": "Feature", "properties": { "osm_id": "3772610950", "name": "Fulneck Moravian Church", "amenity": "place_of_worship", "other_tags": "\"religion\"=>\"christian\",\"denomination\"=>\"moravian\"" }, "geometry": { "type": "Point", "coordinates": [ -1.6644821, 53.7838567 ] } },
	{ "type": "Feature", "properties": { "osm_id": "3955682145", "name": "Shri Guru Singh Saba Sikh Temple", "amenity": "place_of_worship", "other_tags": "\"religion\"=>\"sikh\",\"source:name\"=>\"survey\"" }, "geometry": { "type": "Point", "coordinates": [ -1.7807565, 53.6561797 ] } },
	{ "type": "Feature", "properties": { "osm_id": "3955736958", "name": "Vajrapani Kadampa Buddhist Centre", "amenity": "place_of_worship", "other_tags": "\"religion\"=>\"buddhist\",\"source:name\"=>\"survey\"" }, "geometry": { "type": "Point", "coordinates": [ -1.792184, 53.659284 ] } },
	{ "type": "Feature", "properties": { "osm_id": "3955736959", "name": "Markazi Jamia Masjid Riza Islamic Centre", "amenity": "place_of_worship", "other_tags": "\"religion\"=>\"muslim\",\"source:name\"=>\"survey\"" }, "geometry": { "type": "Point", "coordinates": [ -1.7862765, 53.6591761 ] } },
	{ "type": "Feature", "properties": { "osm_id": "3988128775", "amenity": "place_of_worship", "other_tags": "\"religion\"=>\"christian\"" }, "geometry": { "type": "Point", "coordinates": [ -1.2672272, 53.6758483 ] } },
	{ "type": "Feature", "properties": { "osm_id": "4375298138", "name": "Yorkshire Sculpture Park Chapel", "amenity": "place_of_worship" }, "geometry": { "type": "Point", "coordinates": [ -1.5638912, 53.6117954 ] } },
	{ "type": "Feature", "properties": { "osm_id": "4420726190", "name": "Diocese of Leeds - Church House", "amenity": "place_of_worship", "other_tags": "\"addr:housenumber\"=>\"17-19\",\"addr:postcode\"=>\"LS1 2EX\",\"addr:street\"=>\"York Place\",\"name:en\"=>\"Diocese of Leeds - Church House\",\"opening_hours\"=>\"Mo-Fr 09:00-17:00\",\"phone\"=>\"+44 113 2000 540\",\"website\"=>\"http:\/\/www.leeds.anglican.org\"" }, "geometry": { "type": "Point", "coordinates": [ -1.5533218, 53.7971807 ] } },
	{ "type": "Feature", "properties": { "osm_id": "4473357465", "name": "St Lukes Church", "amenity": "place_of_worship", "other_tags": "\"fhrs:id\"=>\"283899\",\"religion\"=>\"christian\",\"addr:city\"=>\"Wakefield\",\"addr:street\"=>\"Old Road\",\"addr:postcode\"=>\"WF4 4RB\"" }, "geometry": { "type": "Point", "coordinates": [ -1.6078513, 53.6469978 ] } },
	{ "type": "Feature", "properties": { "osm_id": "4475496891", "name": "Methodist Trinity Church", "amenity": "place_of_worship", "other_tags": "\"fhrs:id\"=>\"731079\",\"building\"=>\"church\",\"religion\"=>\"christian\",\"addr:city\"=>\"Wakefield\",\"addr:street\"=>\"Netherton Lane\",\"denomination\"=>\"methodist\",\"addr:postcode\"=>\"WF4 4HL\"" }, "geometry": { "type": "Point", "coordinates": [ -1.5785383, 53.6454007 ] } },
	{ "type": "Feature", "properties": { "osm_id": "4475496895", "name": "St Andrews Church", "amenity": "place_of_worship", "other_tags": "\"fhrs:id\"=>\"729913\",\"building\"=>\"church\",\"religion\"=>\"christian\",\"addr:city\"=>\"Wakefield\",\"addr:street\"=>\"Church Lane\",\"addr:postcode\"=>\"WF4 4HE\"" }, "geometry": { "type": "Point", "coordinates": [ -1.5739946, 53.6489931 ] } },
	{ "type": "Feature", "properties": { "osm_id": "4475496896", "name": "The Church in West Bretton", "amenity": "place_of_worship", "other_tags": "\"addr:city\"=>\"Wakefield\",\"addr:housenumber\"=>\"47\",\"addr:postcode\"=>\"WF4 4JP\",\"addr:street\"=>\"Huddersfield Road\",\"building\"=>\"church\",\"denomination\"=>\"anglican;methodist\",\"religion\"=>\"christian\"" }, "geometry": { "type": "Point", "coordinates": [ -1.5684089, 53.6194963 ] } },
	{ "type": "Feature", "properties": { "osm_id": "4480933457", "name": "Chapel", "amenity": "place_of_worship" }, "geometry": { "type": "Point", "coordinates": [ -1.4850487, 53.7971273 ] } },
	{ "type": "Feature", "properties": { "osm_id": "4562147934", "name": "Kingdom Hall of Jehovah's Witnesses", "amenity": "place_of_worship", "other_tags": "\"denomination\"=>\"jehovahs_witness\",\"religion\"=>\"christian\"" }, "geometry": { "type": "Point", "coordinates": [ -1.6709781, 53.7051728 ] } },
	{ "type": "Feature", "properties": { "osm_id": "4598617049", "name": "High Flatts Quaker Meeting House", "amenity": "place_of_worship", "other_tags": "\"website\"=>\"http:\/\/www.highflattsquakers.org.uk\/\",\"religion\"=>\"christian\",\"denomination\"=>\"quaker\"" }, "geometry": { "type": "Point", "coordinates": [ -1.6804096, 53.5631672 ] } },
	{ "type": "Feature", "properties": { "osm_id": "4600623255", "amenity": "place_of_worship" }, "geometry": { "type": "Point", "coordinates": [ -1.6584522, 53.570761 ] } },
	{ "type": "Feature", "properties": { "osm_id": "4681753175", "name": "Rothwell Methodist Church, Leeds", "amenity": "place_of_worship", "other_tags": "\"addr:city\"=>\"Rothwell\",\"addr:housename\"=>\"Rothwell Methodist Church\",\"addr:postcode\"=>\"LS26 0DB\",\"addr:street\"=>\"Butcher Lane\",\"denomination\"=>\"methodist\",\"fhrs:id\"=>\"553154\",\"religion\"=>\"christian\",\"website\"=>\"http:\/\/www.aireandcaldercircuit.org.uk\/churches\/rothwell\"" }, "geometry": { "type": "Point", "coordinates": [ -1.4808283, 53.7479701 ] } },
	{ "type": "Feature", "properties": { "osm_id": "4716588749", "amenity": "place_of_worship", "other_tags": "\"religion\"=>\"christian\"" }, "geometry": { "type": "Point", "coordinates": [ -1.88567, 53.76481 ] } },
	{ "type": "Feature", "properties": { "osm_id": "4846499691", "amenity": "place_of_worship" }, "geometry": { "type": "Point", "coordinates": [ -1.782006, 53.7890482 ] } },
	{ "type": "Feature", "properties": { "osm_id": "4994855569", "name": "St Nicholas Church", "amenity": "place_of_worship", "other_tags": "\"denomination\"=>\"anglican\"" }, "geometry": { "type": "Point", "coordinates": [ -1.6826037, 53.5755737 ] } },
	{ "type": "Feature", "properties": { "osm_id": "5141150323", "name": "Roman Catholic Church", "amenity": "place_of_worship", "other_tags": "\"name:en\"=>\"Roman Catholic Church\",\"name:pl\"=>\"Koci katolicki\"" }, "geometry": { "type": "Point", "coordinates": [ -1.5316548, 53.8232223 ] } },
	{ "type": "Feature", "properties": { "osm_id": "5286824060", "name": "Little Temple", "amenity": "place_of_worship" }, "geometry": { "type": "Point", "coordinates": [ -1.4485097, 53.7836625 ] } },
	{ "type": "Feature", "properties": { "osm_id": "5412006849", "amenity": "place_of_worship", "other_tags": "\"religion\"=>\"christian\"" }, "geometry": { "type": "Point", "coordinates": [ -1.8704128, 53.8410926 ] } },
	{ "type": "Feature", "properties": { "osm_id": "5471282788", "name": "South Featherstone Gospel Hall", "amenity": "place_of_worship", "other_tags": "\"addr:postcode\"=>\"WF7 5BJ\",\"addr:street\"=>\"Station Lane\",\"addr:suburb\"=>\"Featherstone\",\"addr:town\"=>\"Pontefract\",\"denomination\"=>\"evangelical\",\"fhrs:id\"=>\"922352\",\"religion\"=>\"christian\"" }, "geometry": { "type": "Point", "coordinates": [ -1.3588232, 53.6775259 ] } },
	{ "type": "Feature", "properties": { "osm_id": "5471282798", "name": "Featherstone Methodist Church", "amenity": "place_of_worship", "other_tags": "\"addr:postcode\"=>\"WF7 5BH\",\"addr:street\"=>\"Wilson Street\",\"addr:suburb\"=>\"Featherstone\",\"addr:town\"=>\"Pontefract\",\"building\"=>\"church\",\"denomination\"=>\"methodist\",\"fhrs:id\"=>\"283751\",\"religion\"=>\"christian\"" }, "geometry": { "type": "Point", "coordinates": [ -1.3595313, 53.6763565 ] } },
	{ "type": "Feature", "properties": { "osm_id": "5508872774", "name": "Cutsyke Christian Church", "amenity": "place_of_worship", "other_tags": "\"addr:postcode\"=>\"WF10 5HA\",\"addr:street\"=>\"Leeds Road\",\"addr:suburb\"=>\"Cutsyke\",\"addr:town\"=>\"Castleford\",\"fhrs:id\"=>\"639618\",\"religion\"=>\"christian\"" }, "geometry": { "type": "Point", "coordinates": [ -1.3635184, 53.714487 ] } },
	{ "type": "Feature", "properties": { "osm_id": "5533907837", "name": "Kinsley Church Of The Resurrection", "amenity": "place_of_worship", "other_tags": "\"addr:postcode\"=>\"WF9 5BP\",\"addr:street\"=>\"Wakefield Road\",\"addr:suburb\"=>\"Kinsley\",\"addr:town\"=>\"Pontefract\",\"fhrs:id\"=>\"812002\",\"religion\"=>\"christian\"" }, "geometry": { "type": "Point", "coordinates": [ -1.3741601, 53.6305752 ] } },
	{ "type": "Feature", "properties": { "osm_id": "5533907884", "name": "The Living Hope Church", "amenity": "place_of_worship", "other_tags": "\"addr:city\"=>\"Wakefield\",\"addr:postcode\"=>\"WF4 2HG\",\"addr:street\"=>\"Bethan Court\",\"addr:suburb\"=>\"Havercroft\",\"fhrs:id\"=>\"314411\",\"religion\"=>\"christian\"" }, "geometry": { "type": "Point", "coordinates": [ -1.4023715, 53.625525 ] } },
	{ "type": "Feature", "properties": { "osm_id": "5538995104", "amenity": "place_of_worship", "other_tags": "\"religion\"=>\"christian\"" }, "geometry": { "type": "Point", "coordinates": [ -1.4488433, 53.8217136 ] } },
	{ "type": "Feature", "properties": { "osm_id": "5626994516", "name": "St John & St Barnabas Church", "amenity": "place_of_worship", "other_tags": "\"addr:city\"=>\"Leeds\",\"addr:postcode\"=>\"LS10 3PG\",\"addr:street\"=>\"Windmill Approach\",\"addr:suburb\"=>\"Belle Isle\",\"denomination\"=>\"anglican\",\"religion\"=>\"christian\"" }, "geometry": { "type": "Point", "coordinates": [ -1.5264827, 53.7635062 ] } },
	{ "type": "Feature", "properties": { "osm_id": "5626994517", "name": "The United Reformed Church In South Leeds", "amenity": "place_of_worship", "other_tags": "\"religion\"=>\"christian\"" }, "geometry": { "type": "Point", "coordinates": [ -1.5242645, 53.7531848 ] } },
	{ "type": "Feature", "properties": { "osm_id": "5713882434", "name": "St Barnabas", "amenity": "place_of_worship", "other_tags": "\"religion\"=>\"christian\"" }, "geometry": { "type": "Point", "coordinates": [ -1.723156, 53.7141518 ] } },
	{ "type": "Feature", "properties": { "osm_id": 6203201, "centroid": { "latitude": 53.678343, "longitude": -1.513434 }, "name": "Markazi Jamia Masjid", "type": "multipolygon", "amenity": "place_of_worship", "building": "yes", "other_tags": "\"addr:city\"=>\"Wakefield\",\"addr:housenumber\"=>\"12\",\"addr:postcode\"=>\"WF2 8TF\",\"addr:street\"=>\"Grange Street\",\"religion\"=>\"muslim\"" }, "geometry": { "type": "MultiPolygon", "coordinates": [ [ [ [ -1.5132843, 53.6783184 ], [ -1.5134025, 53.6782906 ], [ -1.5134093, 53.6783081 ], [ -1.5135303, 53.6782896 ], [ -1.5135837, 53.6783132 ], [ -1.51346, 53.6783889 ], [ -1.5133415, 53.6783964 ], [ -1.5132843, 53.6783184 ] ] ], [ [ [ -1.5130301, 53.6781876 ], [ -1.5132063, 53.678137 ], [ -1.5132755, 53.6781341 ], [ -1.5134025, 53.6782906 ], [ -1.5132843, 53.6783184 ], [ -1.5132365, 53.6783297 ], [ -1.5131798, 53.6782605 ], [ -1.5131239, 53.6782831 ], [ -1.5130301, 53.6781876 ] ] ] ] } },
	{ "type": "Feature", "properties": { "osm_id": 6743167, "centroid": { "latitude": 53.891102, "longitude": -1.744752 }, "name": "Menston Methodist Church", "type": "multipolygon", "amenity": "place_of_worship", "building": "church", "other_tags": "\"religion\"=>\"christian\",\"denomination\"=>\"methodist\"" }, "geometry": { "type": "MultiPolygon", "coordinates": [ [ [ [ -1.7450839, 53.8910158 ], [ -1.7449394, 53.8909169 ], [ -1.7448822, 53.890946 ], [ -1.7448986, 53.8909572 ], [ -1.7446287, 53.8910943 ], [ -1.7445733, 53.8910565 ], [ -1.7444195, 53.8911346 ], [ -1.7444879, 53.8911814 ], [ -1.7445733, 53.8911381 ], [ -1.7446421, 53.8911851 ], [ -1.7445688, 53.8912223 ], [ -1.7446633, 53.8912869 ], [ -1.7448344, 53.8912 ], [ -1.7448621, 53.891219 ], [ -1.7449953, 53.8911513 ], [ -1.7449114, 53.891094 ], [ -1.7450184, 53.8910397 ], [ -1.7450263, 53.8910451 ], [ -1.7450839, 53.8910158 ] ], [ [ -1.7447895, 53.8911234 ], [ -1.7447549, 53.891141 ], [ -1.744707, 53.8911083 ], [ -1.7447417, 53.8910907 ], [ -1.7447895, 53.8911234 ] ] ] ] } },
	{ "type": "Feature", "properties": { "osm_id": null, "centroid": { "latitude": 53.689605, "longitude": -1.629194 }, "osm_way_id": "24522859", "name": "Dewsbury Minster Church of All Saints", "amenity": "place_of_worship", "building": "yes", "other_tags": "\"addr:city\"=>\"Dewsbury\",\"addr:country\"=>\"GB\",\"addr:postcode\"=>\"WF12 8DD\",\"addr:street\"=>\"Vicarage Road\",\"denomination\"=>\"anglican\",\"fhrs:id\"=>\"227858\",\"religion\"=>\"christian\",\"source:addr\"=>\"FHRS Open Data\"" }, "geometry": { "type": "MultiPolygon", "coordinates": [ [ [ [ -1.6287991, 53.6895867 ], [ -1.6288945, 53.6897591 ], [ -1.6295892, 53.6896243 ], [ -1.6294938, 53.6894519 ], [ -1.6287991, 53.6895867 ] ] ] ] } },
	{ "type": "Feature", "properties": { "osm_id": null, "centroid": { "latitude": 53.831506, "longitude": -1.566466 }, "osm_way_id": "24834429", "name": "Holy Trinity Meanwood", "amenity": "place_of_worship", "building": "church", "other_tags": "\"religion\"=>\"christian\"" }, "geometry": { "type": "MultiPolygon", "coordinates": [ [ [ [ -1.566205, 53.8316138 ], [ -1.5661694, 53.8315353 ], [ -1.5662024, 53.8315301 ], [ -1.5661886, 53.8314998 ], [ -1.5662887, 53.831484 ], [ -1.5662722, 53.8314477 ], [ -1.5663804, 53.8314306 ], [ -1.5663957, 53.8314643 ], [ -1.5665747, 53.831436 ], [ -1.5665622, 53.8314084 ], [ -1.5666274, 53.8313981 ], [ -1.5666377, 53.8314209 ], [ -1.5667105, 53.8314093 ], [ -1.5667632, 53.8315255 ], [ -1.566205, 53.8316138 ] ] ] ] } },
	{ "type": "Feature", "properties": { "osm_id": null, "centroid": { "latitude": 53.709405, "longitude": -1.632104 }, "osm_way_id": "26554233", "name": "Anjuman-e-Zinatul Islam", "amenity": "place_of_worship", "building": "yes", "other_tags": "\"religion\"=>\"muslim\",\"denomination\"=>\"sunni\"" }, "geometry": { "type": "MultiPolygon", "coordinates": [ [ [ [ -1.6321352, 53.7095622 ], [ -1.6323883, 53.7093071 ], [ -1.6320205, 53.7092486 ], [ -1.6318188, 53.7094592 ], [ -1.6321352, 53.7095622 ] ] ] ] } },
	{ "type": "Feature", "properties": { "osm_id": null, "centroid": { "latitude": 53.778311, "longitude": -1.758017 },