{
"type": "FeatureCollection",
"crs": { "type": "name", "properties": { "name": "urn:ogc:def:crs:OGC:1.3:CRS84" } },
"features": [
	{ "type": "Feature", "properties": { "osm_id": "27456695", "name": "The Village Shop", "amenity": "post_office", "other_tags": "\"shop\"=>\"convenience\"" }, "geometry": { "type": "Point", "coordinates": [ -1.5107032, 53.8997963 ] } },
	{ "type": "Feature", "properties": { "osm_id": "146657042", "name": "Keiths Grocery", "other_tags": "\"shop\"=>\"convenience\"" }, "geometry": { "type": "Point", "coordinates": [ -1.5409342, 53.8106735 ] } },
	{ "type": "Feature", "properties": { "osm_id": "244138884", "name": "Kirkstall Lane Off-licence", "other_tags": "\"addr:city\"=>\"Leeds\",\"addr:housenumber\"=>\"201\",\"addr:postcode\"=>\"LS6 3EJ\",\"addr:street\"=>\"Kirkstall Lane\",\"fhrs:id\"=>\"319904\",\"shop\"=>\"convenience\"" }, "geometry": { "type": "Point", "coordinates": [ -1.5834435, 53.8186251 ] } },
	{ "type": "Feature", "properties": { "osm_id": "244220916", "amenity": "post_office", "other_tags": "\"shop\"=>\"convenience\"" }, "geometry": { "type": "Point", "coordinates": [ -1.9253973, 53.7063009 ] } },
	{ "type": "Feature", "properties": { "osm_id": "244220917", "other_tags": "\"shop\"=>\"convenience\"" }, "geometry": { "type": "Point", "coordinates": [ -1.9382563, 53.7053132 ] } },
	{ "type": "Feature", "properties": { "osm_id": "245013881", "name": "Sainsbury's Local", "other_tags": "\"addr:city\"=>\"Halifax\",\"addr:country\"=>\"GB\",\"addr:housenumber\"=>\"21\",\"addr:postcode\"=>\"HX2 7NP\",\"addr:street\"=>\"Park Drive\",\"brand\"=>\"Sainsbury's Local\",\"brand:wikidata\"=>\"Q13218434\",\"brand:wikipedia\"=>\"en:Sainsbury's Local\",\"shop\"=>\"convenience\",\"website\"=>\"www.sainsburys.co.uk\"" }, "geometry": { "type": "Point", "coordinates": [ -1.8974243, 53.7152775 ] } },
	{ "type": "Feature", "properties": { "osm_id": "250250974", "name": "Mona Lisa International Food Store", "other_tags": "\"addr:city\"=>\"Leeds\",\"addr:housenumber\"=>\"12\",\"addr:postcode\"=>\"LS12 3AB\",\"addr:street\"=>\"Town Street\",\"addr:suburb\"=>\"Armley\",\"shop\"=>\"convenience\"" }, "geometry": { "type": "Point", "coordinates": [ -1.5890326, 53.7974063 ] } },
	{ "type": "Feature", "properties": { "osm_id": "250390239", "name": "Monkbridge Off Licence", "other_tags": "\"addr:city\"=>\"Leeds\",\"addr:housenumber\"=>\"38\",\"addr:postcode\"=>\"LS6 4ER\",\"addr:street\"=>\"Monk Bridge Road\",\"shop\"=>\"convenience\"" }, "geometry": { "type": "Point", "coordinates": [ -1.5701099, 53.826083 ] } },
	{ "type": "Feature", "properties": { "osm_id": "250755705", "name": "Stainbeck Stores", "other_tags": "\"addr:city\"=>\"Leeds\",\"addr:housenumber\"=>\"152\",\"addr:postcode\"=>\"LS7 2EA\",\"addr:street\"=>\"Stainbeck Lane\",\"fhrs:id\"=>\"320170\",\"shop\"=>\"convenience\"" }, "geometry": { "type": "Point", "coordinates": [ -1.549422, 53.8290273 ] } },
	{ "type": "Feature", "properties": { "osm_id": "250755706", "name": "Musk News", "other_tags": "\"shop\"=>\"convenience\"" }, "geometry": { "type": "Point", "coordinates": [ -1.5498912, 53.8288193 ] } },
	{ "type": "Feature", "properties": { "osm_id": "250756727", "name": "McColl's", "other_tags": "\"addr:city\"=>\"Leeds\",\"addr:housenumber\"=>\"64-66\",\"addr:postcode\"=>\"LS7 2PW\",\"addr:street\"=>\"Stainbeck Road\",\"addr:suburb\"=>\"Meanwood\",\"brand\"=>\"McColl's\",\"brand:wikidata\"=>\"Q16997477\",\"brand:wikipedia\"=>\"en:McColl's\",\"fhrs:id\"=>\"774201\",\"opening_hours\"=>\"Mo-Su 07:00-22:00\",\"shop\"=>\"convenience\"" }, "geometry": { "type": "Point", "coordinates": [ -1.560379, 53.8273419 ] } },
	{ "type": "Feature", "properties": { "osm_id": "263814402", "name": "Ruby", "is_in": "Dewsbury, West Yorkshire, England, UK", "other_tags": "\"shop\"=>\"convenience\"" }, "geometry": { "type": "Point", "coordinates": [ -1.6551835, 53.7038157 ] } },
	{ "type": "Feature", "properties": { "osm_id": "272005878", "name": "Old Lane Express", "other_tags": "\"addr:city\"=>\"Leeds\",\"addr:housenumber\"=>\"184\",\"addr:postcode\"=>\"LS11 8AG\",\"addr:street\"=>\"Old Lane\",\"addr:suburb\"=>\"Beeston\",\"fhrs:id\"=>\"322226\",\"shop\"=>\"convenience\"" }, "geometry": { "type": "Point", "coordinates": [ -1.5629583, 53.7644221 ] } },
	{ "type": "Feature", "properties": { "osm_id": "274257498", "name": "Londis", "other_tags": "\"addr:city\"=>\"Leeds\",\"addr:housenumber\"=>\"129-133\",\"addr:postcode\"=>\"LS6 2PY\",\"addr:street\"=>\"Woodhouse Street\",\"addr:suburb\"=>\"Woodhouse\",\"brand\"=>\"Londis\",\"brand:wikidata\"=>\"Q21008564\",\"brand:wikipedia\"=>\"en:Londis (United Kingdom)\",\"fhrs:id\"=>\"550344\",\"shop\"=>\"convenience\"" }, "geometry": { "type": "Point", "coordinates": [ -1.5510776, 53.812729 ] } },
	{ "type": "Feature", "properties": { "osm_id": "279580798", "name": "Station Road Off License", "other_tags": "\"addr:city\"=>\"Ossett\",\"addr:housenumber\"=>\"178\",\"addr:postcode\"=>\"WF5 0JQ\",\"addr:street\"=>\"Station Road\",\"fhrs:id\"=>\"971947\",\"shop\"=>\"convenience\"" }, "geometry": { "type": "Point", "coordinates": [ -1.5706422, 53.6735289 ] } },
	{ "type": "Feature", "properties": { "osm_id": "286367596", "name": "One Stop", "other_tags": "\"addr:city\"=>\"Leeds\",\"addr:housenumber\"=>\"33-35\",\"addr:postcode\"=>\"LS12 3EJ\",\"addr:street\"=>\"Whingate\",\"addr:suburb\"=>\"Armley\",\"brand\"=>\"One Stop\",\"brand:wikidata\"=>\"Q65954217\",\"contact:website\"=>\"https:\/\/www.onestop.co.uk\/store?store=c217771e-6929-4857-a512-223e52ce0320\",\"fhrs:id\"=>\"371286\",\"shop\"=>\"convenience\"" }, "geometry": { "type": "Point", "coordinates": [ -1.5992978, 53.7946633 ] } },
	{ "type": "Feature", "properties": { "osm_id": "288953368", "name": "Costcutter", "other_tags": "\"addr:city\"=>\"Leeds\",\"addr:housenumber\"=>\"3\",\"addr:postcode\"=>\"LS2 9QA\",\"addr:street\"=>\"Blenheim View\",\"brand\"=>\"Costcutter\",\"brand:wikidata\"=>\"Q5175072\",\"brand:wikipedia\"=>\"en:Costcutter\",\"fhrs:id\"=>\"1018144\",\"old_name\"=>\"One-Stop\",\"shop\"=>\"convenience\",\"source:addr\"=>\"FHRS Open Data\"" }, "geometry": { "type": "Point", "coordinates": [ -1.551492, 53.8096539 ] } },
	{ "type": "Feature", "properties": { "osm_id": "288963492", "name": "Londis", "other_tags": "\"addr:city\"=>\"Leeds\",\"addr:housenumber\"=>\"20\",\"addr:postcode\"=>\"LS3 1DT\",\"addr:street\"=>\"Woodsley Road\",\"addr:suburb\"=>\"Woodhouse\",\"branch\"=>\"Woodsley Road Londis\",\"brand\"=>\"Londis\",\"brand:wikidata\"=>\"Q21008564\",\"brand:wikipedia\"=>\"en:Londis (United Kingdom)\",\"fhrs:id\"=>\"320344\",\"shop\"=>\"convenience\"" }, "geometry": { "type": "Point", "coordinates": [ -1.5687216, 53.8055193 ] } },
	{ "type": "Feature", "properties": { "osm_id": "290433497", "name": "Duncan Stores", "other_tags": "\"addr:city\"=>\"Dewsbury\",\"addr:country\"=>\"GB\",\"addr:housenumber\"=>\"65-67\",\"addr:postcode\"=>\"WF12 8HE\",\"addr:street\"=>\"Princess Lane\",\"addr:suburb\"=>\"Chickenley\",\"fhrs:id\"=>\"228066\",\"shop\"=>\"convenience\",\"source:addr\"=>\"FHRS Open Data\"" }, "geometry": { "type": "Point", "coordinates": [ -1.60324, 53.6901097 ] } },
	{ "type": "Feature", "properties": { "osm_id": "291601294", "name": "Hough Lane Stores", "other_tags": "\"addr:housename\"=>\"The Parade\",\"addr:housenumber\"=>\"3-5\",\"addr:postcode\"=>\"LS13 3RB\",\"addr:street\"=>\"Hough Lane\",\"addr:town\"=>\"Bramley\",\"fhrs:id\"=>\"319851\",\"shop\"=>\"convenience\"" }, "geometry": { "type": "Point", "coordinates": [ -1.6323404, 53.8085949 ] } },
	{ "type": "Feature", "properties": { "osm_id": "292238267", "name": "Turners", "other_tags": "\"addr:city\"=>\"Leeds\",\"addr:housenumber\"=>\"388-390\",\"addr:postcode\"=>\"LS11 7JX\",\"addr:street\"=>\"Dewsbury Road\",\"fhrs:id\"=>\"949040\",\"shop\"=>\"convenience\"" }, "geometry": { "type": "Point", "coordinates": [ -1.5561487, 53.7670739 ] } },
	{ "type": "Feature", "properties": { "osm_id": "292238600", "other_tags": "\"addr:city\"=>\"Leeds\",\"addr:housenumber\"=>\"334-336\",\"addr:postcode\"=>\"LS11 7DJ\",\"addr:street\"=>\"Dewsbury Road\",\"addr:suburb\"=>\"Hunslet\",\"fhrs:id\"=>\"321762\",\"shop\"=>\"convenience\"" }, "geometry": { "type": "Point", "coordinates": [ -1.5499502, 53.7710143 ] } },
	{ "type": "Feature", "properties": { "osm_id": "293547714", "name": "NPK Stores", "other_tags": "\"addr:city\"=>\"Leeds\",\"addr:housenumber\"=>\"160\",\"addr:postcode\"=>\"LS13 3AD\",\"addr:street\"=>\"Stanningley Road\",\"addr:suburb\"=>\"Bramley\",\"fhrs:id\"=>\"321144\",\"shop\"=>\"convenience\"" }, "geometry": { "type": "Point", "coordinates": [ -1.6267539, 53.8057491 ] } },
	{ "type": "Feature", "properties": { "osm_id": "298051683", "name": "Happy Shopper", "other_tags": "\"shop\"=>\"convenience\"" }, "geometry": { "type": "Point", "coordinates": [ -1.6442076, 53.8074714 ] } },
	{ "type": "Feature", "properties": { "osm_id": "298127816", "name": "Sylhet Continental Foods", "other_tags": "\"addr:city\"=>\"Leeds\",\"addr:housenumber\"=>\"98-100\",\"addr:postcode\"=>\"LS11 6DP\",\"addr:street\"=>\"Lady Pit Lane\",\"fhrs:id\"=>\"1106875\",\"shop\"=>\"convenience\"" }, "geometry": { "type": "Point", "coordinates": [ -1.5473512, 53.7763497 ] } },
	{ "type": "Feature", "properties": { "osm_id": "299515060", "other_tags": "\"shop\"=>\"convenience\"" }, "geometry": { "type": "Point", "coordinates": [ -1.8317858, 53.7088791 ] } },
	{ "type": "Feature", "properties": { "osm_id": "299515727", "other_tags": "\"shop\"=>\"convenience\"" }, "geometry": { "type": "Point", "coordinates": [ -1.8321483, 53.7102209 ] } },
	{ "type": "Feature", "properties": { "osm_id": "300581127", "name": "Beech Stores", "other_tags": "\"addr:city\"=>\"Bradford\",\"addr:housenumber\"=>\"20\",\"addr:postcode\"=>\"BD3 0PW\",\"addr:street\"=>\"Beech Grove\",\"addr:suburb\"=>\"Undercliffe\",\"fhrs:id\"=>\"326129\",\"shop\"=>\"convenience\",\"source:addr\"=>\"FHRS Open Data\"" }, "geometry": { "type": "Point", "coordinates": [ -1.7327352, 53.8029342 ] } },
	{ "type": "Feature", "properties": { "osm_id": "301005481", "name": "Akbar General Food Store", "other_tags": "\"shop\"=>\"convenience\"" }, "geometry": { "type": "Point", "coordinates": [ -1.7586648, 53.777625 ] } },
	{ "type": "Feature", "properties": { "osm_id": "301006025", "name": "Lazeez", "other_tags": "\"addr:city\"=>\"Bradford\",\"addr:housenumber\"=>\"296\",\"addr:postcode\"=>\"BD5 7BB\",\"addr:street\"=>\"Bowling Old Lane\",\"fhrs:id\"=>\"327989\",\"shop\"=>\"convenience\",\"source:addr\"=>\"FHRS Open Data\"" }, "geometry": { "type": "Point", "coordinates": [ -1.756018, 53.7769943 ] } },
	{ "type": "Feature", "properties": { "osm_id": "301011741", "name": "Atique Foodstore", "other_tags": "\"addr:city\"=>\"Bradford\",\"addr:housenumber\"=>\"2\",\"addr:postcode\"=>\"BD5 8DR\",\"addr:street\"=>\"Silverdale Road\",\"fhrs:id\"=>\"326320\",\"shop\"=>\"convenience\",\"source:addr\"=>\"FHRS Open Data\"" }, "geometry": { "type": "Point", "coordinates": [ -1.7570255, 53.7741406 ] } },
	{ "type": "Feature", "properties": { "osm_id": "301222664", "name": "Kumars Convenience Store", "other_tags": "\"addr:city\"=>\"Bradford\",\"addr:housenumber\"=>\"1\",\"addr:postcode\"=>\"BD7 2JL\",\"addr:street\"=>\"Beckside Road\",\"brand\"=>\"Premier\",\"brand:wikidata\"=>\"Q7240340\",\"operator\"=>\"Premier\",\"phone\"=>\"+44 1274 413052\",\"shop\"=>\"convenience\",\"website\"=>\"https:\/\/www.premier-stores.co.uk\/our-stores\/kumars-convenience-store\"" }, "geometry": { "type": "Point", "coordinates": [ -1.7890323, 53.7875715 ] } },
	{ "type": "Feature", "properties": { "osm_id": "301265676", "name": "Horton Park Mini Market", "other_tags": "\"shop\"=>\"convenience\"" }, "geometry": { "type": "Point", "coordinates": [ -1.7760632, 53.78524 ] } },
	{ "type": "Feature", "properties": { "osm_id": "301284478", "name": "Premier", "other_tags": "\"brand\"=>\"Premier\",\"brand:wikidata\"=>\"Q7240340\",\"brand:wikipedia\"=>\"en:Premier Stores\",\"shop\"=>\"convenience\"" }, "geometry": { "type": "Point", "coordinates": [ -1.764357, 53.7829557 ] } },
	{ "type": "Feature", "properties": { "osm_id": "304329354", "name": "Sainsbury's Local", "other_tags": "\"addr:city\"=>\"Leeds\",\"addr:housenumber\"=>\"37-39\",\"addr:postcode\"=>\"LS12 5AS\",\"addr:street\"=>\"Ring Road Farnley\",\"addr:suburb\"=>\"Farnley\",\"brand\"=>\"Sainsbury's Local\",\"brand:wikidata\"=>\"Q13218434\",\"brand:wikipedia\"=>\"en:Sainsbury's Local\",\"fhrs:id\"=>\"321886\",\"opening_hours\"=>\"Mo-Su 07:00-23:00\",\"recycling:batteries\"=>\"yes\",\"shop\"=>\"convenience\"" }, "geometry": { "type": "Point", "coordinates": [ -1.6180343, 53.79221 ] } },
	{ "type": "Feature", "properties": { "osm_id": "306222804", "name": "Ingfield Farm Shop", "other_tags": "\"addr:city\"=>\"Halifax\",\"addr:country\"=>\"GB\",\"addr:hamlet\"=>\"Southowram\",\"addr:housename\"=>\"Law Farm\",\"addr:housenumber\"=>\"1\",\"addr:postcode\"=>\"HX3 9UG\",\"addr:street\"=>\"Law Lane\",\"fhrs:id\"=>\"347062\",\"shop\"=>\"convenience\",\"source:addr\"=>\"FHRS Open Data\"" }, "geometry": { "type": "Point", "coordinates": [ -1.8331307, 53.7146235 ] } },
	{ "type": "Feature", "properties": { "osm_id": "306328546", "name": "Armley Stores", "other_tags": "\"addr:city\"=>\"Leeds\",\"addr:housenumber\"=>\"170\",\"addr:postcode\"=>\"LS12 3RF\",\"addr:street\"=>\"Town Street\",\"fhrs:id\"=>\"467129\",\"shop\"=>\"convenience\"" }, "geometry": { "type": "Point", "coordinates": [ -1.6019182, 53.7977553 ] } },
	{ "type": "Feature", "properties": { "osm_id": "308920992", "name": "Mangla Pricecheck", "other_tags": "\"name:en\"=>\"Kana Peena Supermarket\",\"phone\"=>\"+44 1274 480486\",\"shop\"=>\"convenience\"" }, "geometry": { "type": "Point", "coordinates": [ -1.7727494, 53.8090517 ] } },
	{ "type": "Feature", "properties": { "osm_id": "309147671", "name": "Costcutter", "other_tags": "\"addr:city\"=>\"Shipley\",\"addr:housenumber\"=>\"196-198\",\"addr:postcode\"=>\"BD18 1EA\",\"addr:street\"=>\"Leeds Road\",\"brand\"=>\"Costcutter\",\"brand:wikidata\"=>\"Q5175072\",\"brand:wikipedia\"=>\"en:Costcutter\",\"contact:website\"=>\"https:\/\/store-locator.costcutter.co.uk\/costcutter-a8474a05055c\",\"fhrs:id\"=>\"327591\",\"shop\"=>\"convenience\",\"source:addr\"=>\"FHRS Open Data\"" }, "geometry": { "type": "Point", "coordinates": [ -1.7601318, 53.8361132 ] } },
	{ "type": "Feature", "properties": { "osm_id": "309734418", "name": "Premier", "other_tags": "\"addr:city\"=>\"Shipley\",\"addr:housenumber\"=>\"280-282\",\"addr:postcode\"=>\"BD18 1DZ\",\"addr:street\"=>\"Leeds Road\",\"brand\"=>\"Premier\",\"brand:wikidata\"=>\"Q7240340\",\"brand:wikipedia\"=>\"en:Premier Stores\",\"fhrs:id\"=>\"327599\",\"shop\"=>\"convenience\",\"source:addr\"=>\"FHRS Open Data\"" }, "geometry": { "type": "Point", "coordinates": [ -1.7561064, 53.8372094 ] } },
	{ "type": "Feature", "properties": { "osm_id": "312483922", "name": "Premier Convenience Store", "other_tags": "\"addr:housenumber\"=>\"111\",\"addr:street\"=>\"Bolton Lane\",\"brand\"=>\"Premier\",\"brand:wikidata\"=>\"Q7240340\",\"shop\"=>\"convenience\"" }, "geometry": { "type": "Point", "coordinates": [ -1.7493694, 53.8121386 ] } },
	{ "type": "Feature", "properties": { "osm_id": "312907872", "name": "Best-one", "other_tags": "\"brand\"=>\"Best-one\",\"brand:wikidata\"=>\"Q4896532\",\"brand:wikipedia\"=>\"en:Best-one\",\"shop\"=>\"convenience\"" }, "geometry": { "type": "Point", "coordinates": [ -1.7391461, 53.8143119 ] } },
	{ "type": "Feature", "properties": { "osm_id": "313540506", "name": "Co-Operative", "other_tags": "\"addr:city\"=>\"Bradford\",\"addr:housenumber\"=>\"289\",\"addr:postcode\"=>\"BD2 3RQ\",\"addr:street\"=>\"Harrogate Road\",\"shop\"=>\"convenience\"" }, "geometry": { "type": "Point", "coordinates": [ -1.720794, 53.8163131 ] } },
	{ "type": "Feature", "properties": { "osm_id": "314447069", "name": "Ryans", "other_tags": "\"addr:city\"=>\"Huddersfield\",\"addr:country\"=>\"GB\",\"addr:housenumber\"=>\"18\",\"addr:postcode\"=>\"HD1 2BR\",\"addr:street\"=>\"Imperial Arcade\",\"fhrs:id\"=>\"228971\",\"shop\"=>\"convenience\",\"source:addr\"=>\"FHRS Open Data\"" }, "geometry": { "type": "Point", "coordinates": [ -1.7814747, 53.6470221 ] } },
	{ "type": "Feature", "properties": { "osm_id": "314673921", "other_tags": "\"shop\"=>\"convenience\"" }, "geometry": { "type": "Point", "coordinates": [ -1.7681757, 53.7916822 ] } },
	{ "type": "Feature", "properties": { "osm_id": "316226177", "name": "Chinese Supermarket", "other_tags": "\"shop\"=>\"convenience\"" }, "geometry": { "type": "Point", "coordinates": [ -1.7584977, 53.7901402 ] } },
	{ "type": "Feature", "properties": { "osm_id": "317020599", "name": "Tesco Express", "other_tags": "\"addr:city\"=>\"Leeds\",\"addr:housenumber\"=>\"2\",\"addr:postcode\"=>\"LS10 1PZ\",\"addr:street\"=>\"The Boulevard\",\"brand\"=>\"Tesco Express\",\"brand:wikidata\"=>\"Q98456772\",\"contact:website\"=>\"https:\/\/www.tesco.com\/store-locator\/leeds\/2-the-boulevard\",\"fhrs:id\"=>\"321872\",\"opening_hours\"=>\"Mo-Su 06:00-23:00\",\"shop\"=>\"convenience\",\"wheelchair\"=>\"yes\"" }, "geometry": { "type": "Point", "coordinates": [ -1.5315628, 53.7897809 ] } },
	{ "type": "Feature", "properties": { "osm_id": "319429911", "name": "Sainsbury's Local", "other_tags": "\"addr:city\"=>\"Leeds\",\"addr:housenumber\"=>\"72-74\",\"addr:postcode\"=>\"LS6 1EG\",\"addr:street\"=>\"Brudenell Road\",\"addr:suburb\"=>\"Hyde Park\",\"brand\"=>\"Sainsbury's Local\",\"brand:wikidata\"=>\"Q13218434\",\"brand:wikipedia\"=>\"en:Sainsbury's Local\",\"fhrs:id\"=>\"321890\",\"opening_hours\"=>\"24\/7\",\"shop\"=>\"convenience\",\"wheelchair\"=>\"yes\"" }, "geometry": { "type": "Point", "coordinates": [ -1.5689784, 53.8124765 ] } },
	{ "type": "Feature", "properties": { "osm_id": "319860947", "name": "Village Shop", "other_tags": "\"addr:city\"=>\"Leeds\",\"addr:housenumber\"=>\"25\",\"addr:postcode\"=>\"LS4 2PP\",\"addr:street\"=>\"Knowle Mount\",\"shop\"=>\"convenience\"" }, "geometry": { "type": "Point", "coordinates": [ -1.5816956, 53.8112483 ] } },
	{ "type": "Feature", "properties": { "osm_id": "319860948", "name": "One Stop", "other_tags": "\"addr:city\"=>\"Leeds\",\"addr:housenumber\"=>\"345\",\"addr:postcode\"=>\"LS4 2PX\",\"addr:street\"=>\"Burley Road\",\"addr:suburb\"=>\"Burley\",\"brand\"=>\"One Stop\",\"brand:wikidata\"=>\"Q65954217\",\"contact:website\"=>\"https:\/\/www.onestop.co.uk\/store?store=e94c3ddd-280e-4244-a8ef-3cc337b2082d\",\"fhrs:id\"=>\"319605\",\"shop\"=>\"convenience\"" }, "geometry": { "type": "Point", "coordinates": [ -1.5854813, 53.8104494 ] } },
	{ "type": "Feature", "properties": { "osm_id": "319860952", "name": "St Michaels Stores", "other_tags": "\"addr:city\"=>\"Leeds\",\"addr:housenumber\"=>\"52\",\"addr:postcode\"=>\"LS4 2PD\",\"addr:street\"=>\"St Michaels Lane\",\"addr:suburb\"=>\"Headingley\",\"brand\"=>\"St Michaels Stores\",\"brand:wikidata\"=>\"Q4896532\",\"brand:wikipedia\"=>\"en:St Michaels Stores\",\"fhrs:id\"=>\"322666\",\"opening_hours\"=>\"Mo-Su 10:00-22:00\",\"shop\"=>\"convenience\"" }, "geometry": { "type": "Point", "coordinates": [ -1.5839779, 53.8111973 ] } },
	{ "type": "Feature", "properties": { "osm_id": "329031792", "name": "Oasis", "other_tags": "\"addr:city\"=>\"Hebden Bridge\",\"addr:country\"=>\"GB\",\"addr:housename\"=>\"Carlton Chambers\",\"addr:housenumber\"=>\"4\",\"addr:postcode\"=>\"HX7 8ER\",\"addr:street\"=>\"Crown Street\",\"fhrs:id\"=>\"348801\",\"shop\"=>\"convenience\",\"source:addr\"=>\"FHRS Open Data\"" }, "geometry": { "type": "Point", "coordinates": [ -2.0123681, 53.7416405 ] } },
	{ "type": "Feature", "properties": { "osm_id": "329031797", "name": "One Stop", "other_tags": "\"addr:city\"=>\"Hebden Bridge\",\"addr:housenumber\"=>\"12\",\"addr:postcode\"=>\"HX7 8EH\",\"addr:street\"=>\"Crown Street\",\"brand\"=>\"One Stop\",\"brand:wikidata\"=>\"Q65954217\",\"contact:website\"=>\"https:\/\/www.onestop.co.uk\/store?store=05702165-5840-42e6-8e97-10b23fdb3e01\",\"fhrs:id\"=>\"1546416\",\"shop\"=>\"convenience\"" }, "geometry": { "type": "Point", "coordinates": [ -2.0125146, 53.7414966 ] } },
	{ "type": "Feature", "properties": { "osm_id": "330071181", "name": "Armley Convenience Store", "other_tags": "\"addr:city\"=>\"Leeds\",\"addr:housenumber\"=>\"57-59\",\"addr:postcode\"=>\"LS12 1XD\",\"addr:street\"=>\"Town Street\",\"addr:suburb\"=>\"Armley\",\"fhrs:id\"=>\"1135382\",\"shop\"=>\"convenience\"" }, "geometry": { "type": "Point", "coordinates": [ -1.59121, 53.7965548 ] } },
	{ "type": "Feature", "properties": { "osm_id": "331637214", "name": "Kubus", "other_tags": "\"addr:city\"=>\"Leeds\",\"addr:housenumber\"=>\"13-15\",\"addr:postcode\"=>\"LS12 1UG\",\"addr:street\"=>\"Town Street\",\"fhrs:id\"=>\"1255713\",\"old_name\"=>\"Copper Lamp Cafe\",\"shop\"=>\"convenience\"" }, "geometry": { "type": "Point", "coordinates": [ -1.5892789, 53.7971517 ] } },
	{ "type": "Feature", "properties": { "osm_id": "331654408", "name": "Town Street News", "other_tags": "\"addr:city\"=>\"Leeds\",\"addr:housenumber\"=>\"152-152a\",\"addr:postcode\"=>\"LS12 3RF\",\"addr:street\"=>\"Town Street\",\"fhrs:id\"=>\"323365\",\"shop\"=>\"convenience\"" }, "geometry": { "type": "Point", "coordinates": [ -1.6009051, 53.7976367 ] } },
	{ "type": "Feature", "properties": { "osm_id": "332328172", "name": "J. News", "other_tags": "\"addr:city\"=>\"Leeds\",\"addr:housenumber\"=>\"1-3\",\"addr:postcode\"=>\"LS5 3JT\",\"addr:street\"=>\"Morris Lane\",\"fhrs:id\"=>\"319980\",\"shop\"=>\"convenience\"" }, "geometry": { "type": "Point", "coordinates": [ -1.5990148, 53.8166829 ] } },
	{ "type": "Feature", "properties": { "osm_id": "333452847", "name": "Briggate Convenience Store", "other_tags": "\"addr:city\"=>\"Leeds\",\"addr:housenumber\"=>\"164\",\"addr:postcode\"=>\"LS1 6LY\",\"addr:street\"=>\"Briggate\",\"fhrs:id\"=>\"1211494\",\"old_name\"=>\"Nice 'n' Naughty\",\"shop\"=>\"convenience\"" }, "geometry": { "type": "Point", "coordinates": [ -1.5423616, 53.7952566 ] } },
	{ "type": "Feature", "properties": { "osm_id": "343108214", "name": "Best-one", "other_tags": "\"addr:city\"=>\"Leeds\",\"addr:housenumber\"=>\"30-32\",\"addr:postcode\"=>\"LS12 3SU\",\"addr:street\"=>\"Heights Drive\",\"addr:suburb\"=>\"Armley\",\"brand\"=>\"Best-one\",\"brand:wikidata\"=>\"Q4896532\",\"contact:website\"=>\"https:\/\/stores.best-one.co.uk\/heights-local-convenience-store-best-one-130b065ea2b9\",\"fhrs:id\"=>\"953903\",\"operator\"=>\"best-one\",\"payment:apple_pay\"=>\"yes\",\"payment:cash\"=>\"yes\",\"payment:debit_cards\"=>\"yes\",\"shop\"=>\"convenience\"" }, "geometry": { "type": "Point", "coordinates": [ -1.6164207, 53.796054 ] } },
	{ "type": "Feature", "properties": { "osm_id": "349343427", "other_tags": "\"addr:city\"=>\"Leeds\",\"addr:housenumber\"=>\"51-53\",\"addr:postcode\"=>\"LS13 1AJ\",\"addr:street\"=>\"Summerfield Drive\",\"addr:suburb\"=>\"Bramley\",\"fhrs:id\"=>\"1018430\",\"shop\"=>\"convenience\"" }, "geometry": { "type": "Point", "coordinates": [ -1.6496927, 53.8136347 ] } },
	{ "type": "Feature", "properties": { "osm_id": "352868745", "name": "Mistry's Superette", "other_tags": "\"addr:city\"=>\"Leeds\",\"addr:housename\"=>\"68\",\"addr:postcode\"=>\"LS6 1DD\",\"addr:street\"=>\"Manor Drive\",\"fhrs:id\"=>\"319949\",\"shop\"=>\"convenience\"" }, "geometry": { "type": "Point", "coordinates": [ -1.5739461, 53.814905 ] } },
	{ "type": "Feature", "properties": { "osm_id": "354691444", "other_tags": "\"shop\"=>\"convenience\"" }, "geometry": { "type": "Point", "coordinates": [ -1.8293088, 53.8298092 ] } },
	{ "type": "Feature", "properties": { "osm_id": "354734696", "name": "SAFA", "other_tags": "\"addr:city\"=>\"Leeds\",\"addr:housenumber\"=>\"73\",\"addr:postcode\"=>\"LS2 9DZ\",\"addr:street\"=>\"Raglan Road\",\"fhrs:id\"=>\"687576\",\"shop\"=>\"convenience\",\"source:addr\"=>\"FHRS Open Data\"" }, "geometry": { "type": "Point", "coordinates": [ -1.5560621, 53.8109634 ] } },
	{ "type": "Feature", "properties": { "osm_id": "354734707", "name": "Best-one", "other_tags": "\"brand\"=>\"Best-one\",\"brand:wikidata\"=>\"Q4896532\",\"brand:wikipedia\"=>\"en:Best-one\",\"contact:website\"=>\"https:\/\/stores.best-one.co.uk\/best-one-7fd8dc663769\",\"shop\"=>\"convenience\"" }, "geometry": { "type": "Point", "coordinates": [ -1.5574825, 53.8104744 ] } },
	{ "type": "Feature", "properties": { "osm_id": "356074101", "name": "Nisa Local", "other_tags": "\"addr:city\"=>\"Leeds\",\"addr:housenumber\"=>\"41-45\",\"addr:postcode\"=>\"LS12 5AA\",\"addr:street\"=>\"Cross Lane\",\"brand\"=>\"Nisa Local\",\"brand:wikidata\"=>\"Q16999069\",\"brand:wikipedia\"=>\"en:Nisa (retailer)\",\"opening_hours\"=>\"Mo-Fr 08:00-20:00; Sa 09:00-20:00; Su 09:00-19:00\",\"operator\"=>\"Carlos Superstores Ltd.\",\"payment:cash\"=>\"yes\",\"payment:contactless\"=>\"yes\",\"payment:credit_cards\"=>\"yes\",\"payment:debit_cards\"=>\"yes\",\"shop\"=>\"convenience\",\"website\"=>\"https:\/\/www.nisalocally.co.uk\/stores\/west-yorkshire\/leeds\/41-45-cross-lane\",\"wheelchair\"=>\"yes\"" }, "geometry": { "type": "Point", "coordinates": [ -1.6192448, 53.7870812 ] } },
	{ "type": "Feature", "properties": { "osm_id": "356075695", "name": "Martin's Mini-Market", "other_tags": "\"shop\"=>\"convenience\"" }, "geometry": { "type": "Point", "coordinates": [ -1.6099613, 53.7855706 ] } },
	{ "type": "Feature", "properties": { "osm_id": "358505199", "name": "Spar", "other_tags": "\"brand\"=>\"Spar\",\"brand:wikidata\"=>\"Q610492\",\"brand:wikipedia\"=>\"en:Spar (retailer)\",\"shop\"=>\"convenience\"" }, "geometry": { "type": "Point", "coordinates": [ -1.7574551, 53.7822395 ] } },
	{ "type": "Feature", "properties": { "osm_id": "370074535", "name": "Smiffies", "other_tags": "\"addr:postcode\"=>\"LS26 8RE\",\"addr:street\"=>\"Church Street\",\"fhrs:id\"=>\"550346\",\"shop\"=>\"convenience\"" }, "geometry": { "type": "Point", "coordinates": [ -1.4513283, 53.7570262 ] } },
	{ "type": "Feature", "properties": { "osm_id": "370074834", "name": "Londis", "amenity": "post_office", "other_tags": "\"brand\"=>\"Londis\",\"brand:wikidata\"=>\"Q21008564\",\"opening_hours\"=>\"Mo-Sa 07:00-21:00; Su 08:00-20:00\",\"shop\"=>\"convenience\"" }, "geometry": { "type": "Point", "coordinates": [ -1.4484665, 53.7576012 ] } },
	{ "type": "Feature", "properties": { "osm_id": "370562459", "name": "JET", "amenity": "fuel", "other_tags": "\"brand\"=>\"JET\",\"brand:wikidata\"=>\"Q568940\",\"fuel:diesel\"=>\"yes\",\"fuel:lpg\"=>\"yes\",\"fuel:octane_95\"=>\"yes\",\"operator\"=>\"Jet\",\"shop\"=>\"convenience\",\"wheelchair\"=>\"limited\"" }, "geometry": { "type": "Point", "coordinates": [ -1.9138518, 53.8565819 ] } },
	{ "type": "Feature", "properties": { "osm_id": "380787209", "name": "Nisa Local", "other_tags": "\"addr:city\"=>\"Leeds\",\"addr:postcode\"=>\"LS27 9NU\",\"addr:street\"=>\"Victoria Road\",\"addr:suburb\"=>\"Morley\",\"atm\"=>\"yes\",\"fhrs:id\"=>\"801129\",\"shop\"=>\"convenience\"" }, "geometry": { "type": "Point", "coordinates": [ -1.6014409, 53.7522329 ] } },
	{ "type": "Feature", "properties": { "osm_id": "382568481", "name": "Patson", "other_tags": "\"addr:city\"=>\"Bradford\",\"addr:housenumber\"=>\"87-89\",\"addr:postcode\"=>\"BD8 9DS\",\"addr:street\"=>\"Whetley Lane\",\"fhrs:id\"=>\"324798\",\"shop\"=>\"convenience\",\"source:addr\"=>\"FHRS Open Data\"" }, "geometry": { "type": "Point", "coordinates": [ -1.7798496, 53.802376 ] } },
	{ "type": "Feature", "properties": { "osm_id": "389950786", "name": "Premier Bhambra Convenience Store", "other_tags": "\"addr:city\"=>\"Leeds\",\"addr:housenumber\"=>\"93-95\",\"addr:postcode\"=>\"LS10 4JD\",\"addr:street\"=>\"Throstle Lane\",\"brand\"=>\"Premier\",\"brand:wikidata\"=>\"Q7240340\",\"brand:wikipedia\"=>\"en:Premier Stores\",\"shop\"=>\"convenience\"" }, "geometry": { "type": "Point", "coordinates": [ -1.5497046, 53.7415875 ] } },
	{ "type": "Feature", "properties": { "osm_id": "389950826", "name": "Sainsbury's Local", "other_tags": "\"addr:city\"=>\"Leeds\",\"addr:housenumber\"=>\"7\",\"addr:postcode\"=>\"LS10 4HP\",\"addr:street\"=>\"Middleton Park Avenue\",\"brand\"=>\"Sainsbury's Local\",\"brand:wikidata\"=>\"Q13218434\",\"brand:wikipedia\"=>\"en:Sainsbury's Local\",\"fhrs:id\"=>\"321883\",\"phone\"=>\"+44 113 272 0334\",\"shop\"=>\"convenience\",\"website\"=>\"https:\/\/stores.sainsburys.co.uk\/4754\/middleton-park-local\"" }, "geometry": { "type": "Point", "coordinates": [ -1.5474944, 53.747381 ] } },
	{ "type": "Feature", "properties": { "osm_id": "390942234", "name": "Zayns Mini Market", "other_tags": "\"addr:city\"=>\"Leeds\",\"addr:housenumber\"=>\"162\",\"addr:postcode\"=>\"LS11 7DP\",\"addr:street\"=>\"Burlington Road\",\"addr:suburb\"=>\"Beeston\",\"fhrs:id\"=>\"946027\",\"shop\"=>\"convenience\"" }, "geometry": { "type": "Point", "coordinates": [ -1.5529713, 53.7742328 ] } },
	{ "type": "Feature", "properties": { "osm_id": "391301752", "name": "Saeid Bros Continental Halal Foods", "other_tags": "\"addr:city\"=>\"Leeds\",\"addr:housenumber\"=>\"35\",\"addr:postcode\"=>\"LS11 6EA\",\"addr:street\"=>\"Rowland Road\",\"addr:suburb\"=>\"Hunslet\",\"fhrs:id\"=>\"1095943\",\"shop\"=>\"convenience\"" }, "geometry": { "type": "Point", "coordinates": [ -1.5486684, 53.7758651 ] } },
	{ "type": "Feature", "properties": { "osm_id": "391577797", "name": "Headlands", "amenity": "fuel", "other_tags": "\"operator\"=>\"murco\",\"shop\"=>\"convenience\"" }, "geometry": { "type": "Point", "coordinates": [ -1.8153274, 53.7301369 ] } },
	{ "type": "Feature", "properties": { "osm_id": "391790757", "name": "Tesco Express", "other_tags": "\"addr:city\"=>\"Leeds\",\"addr:housename\"=>\"Bridgewater Place\",\"addr:housenumber\"=>\"2a\",\"addr:postcode\"=>\"LS11 5QS\",\"addr:street\"=>\"Water Lane\",\"alt_name\"=>\"Tesco Leeds Bridgewater Place Express\",\"brand\"=>\"Tesco Express\",\"brand:wikidata\"=>\"Q98456772\",\"brand:wikipedia\"=>\"en:Tesco\",\"contact:website\"=>\"https:\/\/www.tesco.com\/store-locator\/leeds\/bridgewater-place\",\"fhrs:id\"=>\"321957\",\"not:addr:postcode\"=>\"LS11 5BZ\",\"shop\"=>\"convenience\",\"wheelchair\"=>\"yes\"" }, "geometry": { "type": "Point", "coordinates": [ -1.5477402, 53.7911373 ] } },
	{ "type": "Feature", "properties": { "osm_id": "392047381", "name": "Raja Brothers", "other_tags": "\"addr:city\"=>\"Leeds\",\"addr:housenumber\"=>\"105\",\"addr:postcode\"=>\"LS11 6EP\",\"addr:street\"=>\"Lodge Lane\",\"addr:suburb\"=>\"Beeston\",\"fhrs:id\"=>\"319926\",\"shop\"=>\"convenience\"" }, "geometry": { "type": "Point", "coordinates": [ -1.5519986, 53.7752618 ] } },
	{ "type": "Feature", "properties": { "osm_id": "392047408", "name": "Dawson Stores", "other_tags": "\"addr:city\"=>\"Leeds\",\"addr:housenumber\"=>\"2a\",\"addr:postcode\"=>\"LS11 7AS\",\"addr:street\"=>\"Dawson Road\",\"fhrs:id\"=>\"319714\",\"shop\"=>\"convenience\"" }, "geometry": { "type": "Point", "coordinates": [ -1.5553382, 53.7768791 ] } },
	{ "type": "Feature", "properties": { "osm_id": "400962828", "other_tags": "\"shop\"=>\"convenience\"" }, "geometry": { "type": "Point", "coordinates": [ -1.5545139, 53.7777714 ] } },
	{ "type": "Feature", "properties": { "osm_id": "400962845", "name": "The Malvern Shop", "other_tags": "\"addr:city\"=>\"Leeds\",\"addr:housenumber\"=>\"161\",\"addr:postcode\"=>\"LS11 6AH\",\"addr:street\"=>\"Malvern Road\",\"shop\"=>\"convenience\"" }, "geometry": { "type": "Point", "coordinates": [ -1.552553, 53.7798272 ] } },
	{ "type": "Feature", "properties": { "osm_id": "405435121", "other_tags": "\"shop\"=>\"convenience\"" }, "geometry": { "type": "Point", "coordinates": [ -1.557253, 53.7794872 ] } },
	{ "type": "Feature", "properties": { "osm_id": "410920473", "name": "Bownass Newsagents", "other_tags": "\"shop\"=>\"convenience\"" }, "geometry": { "type": "Point", "coordinates": [ -1.6263035, 53.7580012 ] } },
	{ "type": "Feature", "properties": { "osm_id": "410947913", "name": "Tattoo shop", "other_tags": "\"addr:street\"=>\"Moorside Approach\",\"shop\"=>\"convenience\"" }, "geometry": { "type": "Point", "coordinates": [ -1.6584764, 53.7522831 ] } },
	{ "type": "Feature", "properties": { "osm_id": "411901898", "name": "Church View Stores", "other_tags": "\"shop\"=>\"convenience\"" }, "geometry": { "type": "Point", "coordinates": [ -1.4552705, 53.7528498 ] } },
	{ "type": "Feature", "properties": { "osm_id": "413229997", "name": "Willans Road Mini Market", "other_tags": "\"alcohol\"=>\"yes\",\"shop\"=>\"convenience\"" }, "geometry": { "type": "Point", "coordinates": [ -1.6360703, 53.6936845 ] } },
	{ "type": "Feature", "properties": { "osm_id": "413272702", "name": "Appletree Stores", "other_tags": "\"addr:city\"=>\"Bradford\",\"addr:housenumber\"=>\"187a\",\"addr:postcode\"=>\"BD11 1BE\",\"addr:street\"=>\"Whitehall Road\",\"fhrs:id\"=>\"897854\",\"shop\"=>\"convenience\"" }, "geometry": { "type": "Point", "coordinates": [ -1.6691684, 53.7540583 ] } },
	{ "type": "Feature", "properties": { "osm_id": "413587912", "name": "Moor Lane Mini-Market", "other_tags": "\"addr:city\"=>\"Bradford\",\"addr:hamlet\"=>\"Birkenshaw\",\"addr:housenumber\"=>\"262\",\"addr:postcode\"=>\"BD11 2HH\",\"addr:street\"=>\"Moor Lane\",\"fhrs:id\"=>\"228006\",\"shop\"=>\"convenience\",\"source:addr\"=>\"FHRS Open Data\"" }, "geometry": { "type": "Point", "coordinates": [ -1.6815852, 53.7454083 ] } },
	{ "type": "Feature", "properties": { "osm_id": "413588087", "name": "Whitehall Stores", "other_tags": "\"shop\"=>\"convenience\"" }, "geometry": { "type": "Point", "coordinates": [ -1.6875868, 53.7484216 ] } },
	{ "type": "Feature", "properties": { "osm_id": "414633584", "name": "Springfield Stores", "other_tags": "\"addr:city\"=>\"Bradford\",\"addr:housenumber\"=>\"171\",\"addr:postcode\"=>\"BD10 8SN\",\"addr:street\"=>\"Bradford Road\",\"addr:village\"=>\"Idle\",\"fhrs:id\"=>\"326644\",\"shop\"=>\"convenience\",\"source:addr\"=>\"FHRS Open Data\"" }, "geometry": { "type": "Point", "coordinates": [ -1.7322876, 53.8287001 ] } },
	{ "type": "Feature", "properties": { "osm_id": "414998933", "name": "Arthington Stores", "other_tags": "\"addr:city\"=>\"Leeds\",\"addr:housenumber\"=>\"15\",\"addr:postcode\"=>\"LS10 2LU\",\"addr:street\"=>\"Arthington Avenue\",\"fhrs:id\"=>\"319525\",\"shop\"=>\"convenience\"" }, "geometry": { "type": "Point", "coordinates": [ -1.5354658, 53.7731434 ] } },
	{ "type": "Feature", "properties": { "osm_id": "418169001", "other_tags": "\"shop\"=>\"convenience\"" }, "geometry": { "type": "Point", "coordinates": [ -1.7302098, 53.8328271 ] } },
	{ "type": "Feature", "properties": { "osm_id": "423818300", "name": "The Co-operative Food", "other_tags": "\"operator\"=>\"The Co-operative Group\",\"shop\"=>\"convenience\"" }, "geometry": { "type": "Point", "coordinates": [ -1.7299294, 53.8336162 ] } },
	{ "type": "Feature", "properties": { "osm_id": "427159839", "name": "Shipley Convenience Store", "other_tags": "\"addr:city\"=>\"Shipley\",\"addr:housenumber\"=>\"130\",\"addr:postcode\"=>\"BD18 2DD\",\"addr:street\"=>\"Valley Road\",\"brand\"=>\"Premier\",\"brand:wikidata\"=>\"Q7240340\",\"brand:wikipedia\"=>\"en:Premier Stores\",\"fhrs:id\"=>\"1222126\",\"old_name\"=>\"Nisa Local\",\"shop\"=>\"convenience\",\"source:addr\"=>\"FHRS Open Data\"" }, "geometry": { "type": "Point", "coordinates": [ -1.7704563, 53.8248279 ] } },
	{ "type": "Feature", "properties": { "osm_id": "427819402", "name": "Charlie's Supersave", "other_tags": "\"shop\"=>\"convenience\"" }, "geometry": { "type": "Point", "coordinates": [ -1.733906, 53.8426683 ] } },
	{ "type": "Feature", "properties": { "osm_id": "430953151", "name": "Lower Wortley Mini Market", "other_tags": "\"shop\"=>\"convenience\"" }, "geometry": { "type": "Point", "coordinates": [ -1.6021261, 53.7836352 ] } },
	{ "type": "Feature", "properties": { "osm_id": "433857928", "name": "Holbeck Wines", "other_tags": "\"addr:city\"=>\"Leeds\",\"addr:housenumber\"=>\"51-52\",\"addr:postcode\"=>\"LS11 9LH\",\"addr:street\"=>\"Top Moor Side\",\"fhrs:id\"=>\"320249\",\"shop\"=>\"convenience\"" }, "geometry": { "type": "Point", "coordinates": [ -1.5594693, 53.7840985 ] } },
	{ "type": "Feature", "properties": { "osm_id": "441335657", "name": "Best-One Convenience Store", "other_tags": "\"addr:housenumber\"=>\"3\",\"addr:postcode\"=>\"LS28 8AZ\",\"addr:street\"=>\"Southroyd Parade\",\"addr:town\"=>\"Pudsey\",\"fhrs:id\"=>\"322706\",\"shop\"=>\"convenience\"" }, "geometry": { "type": "Point", "coordinates": [ -1.6628557, 53.7862522 ] } },
	{ "type": "Feature", "properties": { "osm_id": "442014318", "other_tags": "\"shop\"=>\"convenience\"" }, "geometry": { "type": "Point", "coordinates": [ -1.6361343, 53.6309096 ] } },
	{ "type": "Feature", "properties": { "osm_id": "443776002", "name": "Dawn's Delight", "other_tags": "\"shop\"=>\"convenience\",\"wheelchair\"=>\"no\"" }, "geometry": { "type": "Point", "coordinates": [ -1.4022518, 53.6783507 ] } },
	{ "type": "Feature", "properties": { "osm_id": "444623062", "name": "Fairdeal Convenience Store", "other_tags": "\"addr:housenumber\"=>\"122-124\",\"addr:postcode\"=>\"LS28 9EU\",\"addr:street\"=>\"Valley Road\",\"addr:town\"=>\"Pudsey\",\"fhrs:id\"=>\"801128\",\"old_name\"=>\"One Stop Shop\",\"shop\"=>\"convenience\"" }, "geometry": { "type": "Point", "coordinates": [ -1.6528621, 53.7901674 ] } },
	{ "type": "Feature", "properties": { "osm_id": "444623104", "name": "Off License & General Store", "other_tags": "\"shop\"=>\"convenience\"" }, "geometry": { "type": "Point", "coordinates": [ -1.6499373, 53.7989592 ] } },
	{ "type": "Feature", "properties": { "osm_id": "445078656", "name": "Tesco Express", "other_tags": "\"brand\"=>\"Tesco Express\",\"brand:wikidata\"=>\"Q98456772\",\"contact:website\"=>\"https:\/\/www.tesco.com\/store-locator\/bradford\/thornton-rd\",\"shop\"=>\"convenience\"" }, "geometry": { "type": "Point", "coordinates": [ -1.8294525, 53.7914673 ] } },
	{ "type": "Feature", "properties": { "osm_id": "446277774", "name": "Wortley Stores", "other_tags": "\"shop\"=>\"convenience\"" }, "geometry": { "type": "Point", "coordinates": [ -1.5955818, 53.7933862 ] } },
	{ "type": "Feature", "properties": { "osm_id": "446308495", "other_tags": "\"shop\"=>\"convenience\",\"wheelchair\"=>\"no\"" }, "geometry": { "type": "Point", "coordinates": [ -1.9155619, 53.8688085 ] } },
	{ "type": "Feature", "properties": { "osm_id": "448707593", "name": "Waterloo Off License & Convenience Store", "other_tags": "\"addr:city\"=>\"Leeds\",\"addr:housenumber\"=>\"83\",\"addr:postcode\"=>\"LS28 8DF\",\"addr:street\"=>\"Waterloo Road\",\"addr:suburb\"=>\"Pudsey\",\"fhrs:id\"=>\"467201\",\"shop\"=>\"convenience\"" }, "geometry": { "type": "Point", "coordinates": [ -1.6848287, 53.796171 ] } },
	{ "type": "Feature", "properties": { "osm_id": "448707828", "name": "One Stop", "other_tags": "\"addr:housenumber\"=>\"68\",\"addr:postcode\"=>\"LS28 8LE\",\"addr:street\"=>\"Galloway Lane\",\"addr:suburb\"=>\"Stanningley\",\"addr:town\"=>\"Pudsey\",\"brand\"=>\"One Stop\",\"brand:wikidata\"=>\"Q65954217\",\"contact:website\"=>\"https:\/\/www.onestop.co.uk\/store?store=f555fc32-ca94-40a0-b56f-8f2b331a594b\",\"fhrs:id\"=>\"320946\",\"opening_hours\"=>\"PH,Mo-Su 07:00-22:00\",\"shop\"=>\"convenience\"" }, "geometry": { "type": "Point", "coordinates": [ -1.6900611, 53.8011035 ] } },
	{ "type": "Feature", "properties": { "osm_id": "451961476", "name": "Fagley Off Licence", "other_tags": "\"addr:city\"=>\"Bradford\",\"addr:housenumber\"=>\"1\",\"addr:postcode\"=>\"BD2 3QT\",\"addr:street\"=>\"Fraisthorpe Mead\",\"fhrs:id\"=>\"324939\",\"shop\"=>\"convenience\",\"source:addr\"=>\"FHRS Open Data\"" }, "geometry": { "type": "Point", "coordinates": [ -1.7141536, 53.8097515 ] } },
	{ "type": "Feature", "properties": { "osm_id": "455593489", "name": "Richardshaw Lane General Store", "other_tags": "\"addr:housenumber\"=>\"23\",\"addr:postcode\"=>\"LS28 7NB\",\"addr:street\"=>\"Richardshaw Lane\",\"addr:town\"=>\"Pudsey\",\"fhrs:id\"=>\"778668\",\"shop\"=>\"convenience\"" }, "geometry": { "type": "Point", "coordinates": [ -1.6640818, 53.7984111 ] } },
	{ "type": "Feature", "properties": { "osm_id": "469404607", "name": "Home & Body", "other_tags": "\"shop\"=>\"convenience\"" }, "geometry": { "type": "Point", "coordinates": [ -1.6931855, 53.6740681 ] } },
	{ "type": "Feature", "properties": { "osm_id": "513911354", "name": "New Crofton Post Office and General Store", "amenity": "post_office", "other_tags": "\"shop\"=>\"convenience\"" }, "geometry": { "type": "Point", "coordinates": [ -1.4228118, 53.6533121 ] } },
	{ "type": "Feature", "properties": { "osm_id": "518142636", "name": "Ganners Convenience Store", "other_tags": "\"addr:city\"=>\"Leeds\",\"addr:housenumber\"=>\"10\",\"addr:postcode\"=>\"LS13 2NZ\",\"addr:street\"=>\"Ganners Hill\",\"addr:suburb\"=>\"Bramley\",\"fhrs:id\"=>\"321876\",\"shop\"=>\"convenience\"" }, "geometry": { "type": "Point", "coordinates": [ -1.6283434, 53.8186119 ] } },
	{ "type": "Feature", "properties": { "osm_id": "523448772", "name": "Hirstwood Stores", "other_tags": "\"addr:city\"=>\"Shipley\",\"addr:housenumber\"=>\"43\",\"addr:postcode\"=>\"BD18 4BU\",\"addr:street\"=>\"Hirst Wood Road\",\"addr:village\"=>\"Saltaire\",\"fhrs:id\"=>\"327551\",\"shop\"=>\"convenience\",\"source:addr\"=>\"FHRS Open Data\"" }, "geometry": { "type": "Point", "coordinates": [ -1.8021488, 53.8375728 ] } },
	{ "type": "Feature", "properties": { "osm_id": "524472779", "name": "Atah Food Store", "other_tags": "\"shop\"=>\"convenience\"" }, "geometry": { "type": "Point", "coordinates": [ -1.9136648, 53.8602719 ] } },
	{ "type": "Feature", "properties": { "osm_id": "529017088", "name": "Battyeford Post Office", "amenity": "post_office", "other_tags": "\"addr:city\"=>\"Mirfield\",\"addr:postcode\"=>\"WF14 0EU\",\"addr:suburb\"=>\"Battyeford\",\"brand\"=>\"Post Office\",\"brand:wikidata\"=>\"Q1783168\",\"contact:website\"=>\"https:\/\/www.postoffice.co.uk\/branch-finder\/4983238\/battyeford\",\"ref:pol_id\"=>\"15547\",\"shop\"=>\"convenience\"" }, "geometry": { "type": "Point", "coordinates": [ -1.7186234, 53.6857831 ] } },
	{ "type": "Feature", "properties": { "osm_id": "529090783", "name": "Karen's Flower & Wholefoods", "other_tags": "\"shop\"=>\"convenience\"" }, "geometry": { "type": "Point", "coordinates": [ -1.7026949, 53.7579347 ] } },
	{ "type": "Feature", "properties": { "osm_id": "533729959", "name": "golocalextra", "other_tags": "\"shop\"=>\"convenience\"" }, "geometry": { "type": "Point", "coordinates": [ -1.8555536, 53.5970783 ] } },
	{ "type": "Feature", "properties": { "osm_id": "549244783", "name": "Birkenshaw Convenience Store", "other_tags": "\"shop\"=>\"convenience\"" }, "geometry": { "type": "Point", "coordinates": [ -1.6954223, 53.7572393 ] } },
	{ "type": "Feature", "properties": { "osm_id": "549245413", "name": "Birkenshaw Convenience Store", "other_tags": "\"addr:city\"=>\"Bradford\",\"addr:hamlet\"=>\"Birkenshaw\",\"addr:housenumber\"=>\"2\",\"addr:postcode\"=>\"BD11 2JX\",\"addr:street\"=>\"Old Lane\",\"fhrs:id\"=>\"226255\",\"shop\"=>\"convenience\",\"source:addr\"=>\"FHRS Open Data\"" }, "geometry": { "type": "Point", "coordinates": [ -1.6854154, 53.7495016 ] } },
	{ "type": "Feature", "properties": { "osm_id": "572311162", "other_tags": "\"shop\"=>\"convenience\"" }, "geometry": { "type": "Point", "coordinates": [ -1.739973, 53.80575 ] } },
	{ "type": "Feature", "properties": { "osm_id": "656735953", "name": "Gobbles Sandwich Shop", "other_tags": "\"addr:city\"=>\"Bradford\",\"addr:housenumber\"=>\"101\",\"addr:postcode\"=>\"BD4 6AW\",\"addr:street\"=>\"Bierley Lane\",\"fhrs:id\"=>\"326268\",\"shop\"=>\"convenience\",\"source:addr\"=>\"FHRS Open Data\"" }, "geometry": { "type": "Point", "coordinates": [ -1.7321758, 53.7654915 ] } },
	{ "type": "Feature", "properties": { "osm_id": "656735968", "name": "Chatha's", "other_tags": "\"shop\"=>\"convenience\"" }, "geometry": { "type": "Point", "coordinates": [ -1.7323692, 53.7655337 ] } },
	{ "type": "Feature", "properties": { "osm_id": "656736083", "name": "Your Local Convenience Store", "other_tags": "\"shop\"=>\"convenience\"" }, "geometry": { "type": "Point", "coordinates": [ -1.729283, 53.7640956 ] } },
	{ "type": "Feature", "properties": { "osm_id": "656736306", "name": "Bierley Superstore", "other_tags": "\"addr:city\"=>\"Bradford\",\"addr:housenumber\"=>\"67-73\",\"addr:postcode\"=>\"BD4 6AX\",\"addr:street\"=>\"Hambledon Avenue\",\"fhrs:id\"=>\"325262\",\"shop\"=>\"convenience\",\"source:addr\"=>\"FHRS Open Data\"" }, "geometry": { "type": "Point", "coordinates": [ -1.7302534, 53.7668067 ] } },
	{ "type": "Feature", "properties": { "osm_id": "656736536", "name": "The Tuk Shop", "other_tags": "\"addr:city\"=>\"Bradford\",\"addr:housenumber\"=>\"30\",\"addr:postcode\"=>\"BD4 6JD\",\"addr:street\"=>\"Dawson Lane\",\"addr:village\"=>\"Bierley\",\"fhrs:id\"=>\"328117\",\"shop\"=>\"convenience\",\"source:addr\"=>\"FHRS Open Data\"" }, "geometry": { "type": "Point", "coordinates": [ -1.7221718, 53.7692278 ] } },
	{ "type": "Feature", "properties": { "osm_id": "676314835", "other_tags": "\"shop\"=>\"convenience\"" }, "geometry": { "type": "Point", "coordinates": [ -1.7306349, 53.657062 ] } },
	{ "type": "Feature", "properties": { "osm_id": "676622175", "other_tags": "\"shop\"=>\"convenience\"" }, "geometry": { "type": "Point", "coordinates": [ -1.7037128, 53.7654969 ] } },
	{ "type": "Feature", "properties": { "osm_id": "676622252", "name": "Morrisons Daily", "other_tags": "\"addr:city\"=>\"Bradford\",\"addr:housenumber\"=>\"42-44\",\"addr:postcode\"=>\"BD4 9SA\",\"addr:street\"=>\"Broadstone Way\",\"brand\"=>\"Morrisons Daily\",\"brand:wikidata\"=>\"Q99752411\",\"contact:website\"=>\"https:\/\/my.morrisons.com\/storefinder\/34948\",\"fhrs:id\"=>\"591549\",\"old_name\"=>\"The Co-operative Food\",\"operator\"=>\"McColl's\",\"operator:website\"=>\"https:\/\/www.mccolls.co.uk\/storelocator\/bradford-broadstone-way\/\",\"operator:wikidata\"=>\"Q16997477\",\"shop\"=>\"convenience\"" }, "geometry": { "type": "Point", "coordinates": [ -1.7095807, 53.7702614 ] } },
	{ "type": "Feature", "properties": { "osm_id": "676622746", "name": "M.N. & D.M. Patel", "other_tags": "\"shop\"=>\"convenience\"" }, "geometry": { "type": "Point", "coordinates": [ -1.705365, 53.7756964 ] } },
	{ "type": "Feature", "properties": { "osm_id": "676623013", "name": "Ash's Ryecroft Village Store", "other_tags": "\"shop\"=>\"convenience\"" }, "geometry": { "type": "Point", "coordinates": [ -1.7023637, 53.7727578 ] } },
	{ "type": "Feature", "properties": { "osm_id": "683271078", "name": "European Foods", "other_tags": "\"addr:city\"=>\"Leeds\",\"addr:housenumber\"=>\"55a\",\"addr:postcode\"=>\"LS11 9LH\",\"addr:street\"=>\"Top Moor Side\",\"fhrs:id\"=>\"1093495\",\"shop\"=>\"convenience\"" }, "geometry": { "type": "Point", "coordinates": [ -1.5595051, 53.7842641 ] } },
	{ "type": "Feature", "properties": { "osm_id": "683271082", "name": "Holbeck Convenience Store", "other_tags": "\"addr:city\"=>\"Leeds\",\"addr:housenumber\"=>\"60\",\"addr:postcode\"=>\"LS11 9LH\",\"addr:street\"=>\"Top Moor Side\",\"brand\"=>\"Premier\",\"brand:wikidata\"=>\"Q7240340\",\"brand:wikipedia\"=>\"en:Premier Stores\",\"fhrs:id\"=>\"1127345\",\"shop\"=>\"convenience\"" }, "geometry": { "type": "Point", "coordinates": [ -1.5595845, 53.7847501 ] } },
	{ "type": "Feature", "properties": { "osm_id": "685937663", "name": "Chahal Store", "other_tags": "\"shop\"=>\"convenience\"" }, "geometry": { "type": "Point", "coordinates": [ -1.7225467, 53.7785314 ] } },
	{ "type": "Feature", "properties": { "osm_id": "685937672", "name": "R.W. & S. Hall - Newsagents & Convenience Store", "other_tags": "\"shop\"=>\"convenience\"" }, "geometry": { "type": "Point", "coordinates": [ -1.7195868, 53.778043 ] } },
	{ "type": "Feature", "properties": { "osm_id": "685938975", "other_tags": "\"shop\"=>\"convenience\"" }, "geometry": { "type": "Point", "coordinates": [ -1.7079962, 53.7818143 ] } },
	{ "type": "Feature", "properties": { "osm_id": "687080950", "name": "Tong Street Convenience Store", "other_tags": "\"shop\"=>\"convenience\"" }, "geometry": { "type": "Point", "coordinates": [ -1.7152228, 53.7693572 ] } },
	{ "type": "Feature", "properties": { "osm_id": "687081055", "name": "ThreeSixy5", "other_tags": "\"shop\"=>\"convenience\"" }, "geometry": { "type": "Point", "coordinates": [ -1.7119045, 53.768284 ] } },
	{ "type": "Feature", "properties": { "osm_id": "687081096", "name": "Tong Street News & General Grocers", "other_tags": "\"shop\"=>\"convenience\"" }, "geometry": { "type": "Point", "coordinates": [ -1.7098544, 53.7678177 ] } },
	{ "type": "Feature", "properties": { "osm_id": "750072952", "name": "Gills", "other_tags": "\"addr:city\"=>\"Leeds\",\"addr:housenumber\"=>\"14\",\"addr:postcode\"=>\"LS19 6PU\",\"addr:street\"=>\"Town Street\",\"addr:suburb\"=>\"Rawdon\",\"opening_hours:post_office\"=>\"Mo-Sa 07:30-21:00; Su 09:30-21:00\",\"payment:cash\"=>\"yes\",\"payment:credit_cards\"=>\"yes\",\"phone\"=>\"+44 113 239 1515\",\"ref:pol_id\"=>\"134469\",\"shop\"=>\"convenience\",\"website\"=>\"https:\/\/www.instagram.com\/gills_rawdon\/\"" }, "geometry": { "type": "Point", "coordinates": [ -1.6709748, 53.8498029 ] } },
	{ "type": "Feature", "properties": { "osm_id": "761999406", "name": "Paddys News", "other_tags": "\"addr:city\"=>\"Leeds\",\"addr:housenumber\"=>\"225\",\"addr:postcode\"=>\"LS16 6EE\",\"addr:street\"=>\"Tinshill Lane\",\"addr:suburb\"=>\"Cookridge\",\"fhrs:id\"=>\"320236\",\"shop\"=>\"convenience\"" }, "geometry": { "type": "Point", "coordinates": [ -1.6291883, 53.8473718 ] } },
	{ "type": "Feature", "properties": { "osm_id": "761999435", "name": "Tesco Express", "other_tags": "\"addr:city\"=>\"Leeds\",\"addr:housenumber\"=>\"15\",\"addr:postcode\"=>\"LS18 5PA\",\"addr:street\"=>\"Station Road\",\"addr:suburb\"=>\"Horsforth\",\"brand\"=>\"Tesco Express\",\"brand:wikidata\"=>\"Q98456772\",\"brand:wikipedia\"=>\"en:Tesco\",\"contact:website\"=>\"https:\/\/www.tesco.com\/store-locator\/leeds\/15-station-rd\",\"fhrs:id\"=>\"322085\",\"opening_hours\"=>\"Mo-Su 06:00-23:00\",\"shop\"=>\"convenience\"" }, "geometry": { "type": "Point", "coordinates": [ -1.6330904, 53.8467098 ] } },
	{ "type": "Feature", "properties": { "osm_id": "762344809", "name": "M&S Simply Food", "other_tags": "\"addr:city\"=>\"Knottingley\",\"addr:postcode\"=>\"WF11 0AF\",\"addr:street\"=>\"Great North Road\",\"brand\"=>\"M&S Simply Food\",\"brand:wikidata\"=>\"Q714491\",\"brand:wikipedia\"=>\"en:Marks & Spencer\",\"contact:website\"=>\"https:\/\/www.marksandspencer.com\/stores\/ferrybridge-m62-moto-simply-food-2341\",\"fhrs:id\"=>\"314153\",\"operator\"=>\"Marks & Spencer\",\"shop\"=>\"convenience\"" }, "geometry": { "type": "Point", "coordinates": [ -1.2663294, 53.6976321 ] } },
	{ "type": "Feature", "properties": { "osm_id": "766752400", "name": "Avtar", "other_tags": "\"shop\"=>\"convenience\"" }, "geometry": { "type": "Point", "coordinates": [ -1.5725968, 53.8155933 ] } },
	{ "type": "Feature", "properties": { "osm_id": "774099297", "name": "Nisa Local Church Street", "amenity": "post_office", "other_tags": "\"addr:street\"=>\"Church Street\",\"opening_hours\"=>\"Mo-Sa 06:30-21:00; Su 08:00-21:00\",\"shop\"=>\"convenience\"" }, "geometry": { "type": "Point", "coordinates": [ -1.8107918, 53.6431126 ] } },
	{ "type": "Feature", "properties": { "osm_id": "778671333", "name": "A and B Convenience Stores", "other_tags": "\"addr:city\"=>\"Bingley\",\"addr:housenumber\"=>\"7\",\"addr:postcode\"=>\"BD16 4LE\",\"addr:street\"=>\"Clyde Street\",\"fhrs:id\"=>\"327440\",\"shop\"=>\"convenience\"" }, "geometry": { "type": "Point", "coordinates": [ -1.8349361, 53.8503873 ] } },
	{ "type": "Feature", "properties": { "osm_id": "778671334", "name": "McColl's", "other_tags": "\"addr:city\"=>\"Bingley\",\"addr:housenumber\"=>\"14\",\"addr:postcode\"=>\"BD16 4NL\",\"addr:street\"=>\"Mornington Road\",\"brand\"=>\"McColl's\",\"brand:wikidata\"=>\"Q16997477\",\"brand:wikipedia\"=>\"en:McColl's\",\"contact:website\"=>\"https:\/\/www.mccolls.co.uk\/storelocator\/bingley-mornington-road\/\",\"fhrs:id\"=>\"327720\",\"shop\"=>\"convenience\"" }, "geometry": { "type": "Point", "coordinates": [ -1.8310336, 53.849197 ] } },
	{ "type": "Feature", "properties": { "osm_id": "778671337", "name": "Co-op Food", "other_tags": "\"addr:city\"=>\"Bingley\",\"addr:housename\"=>\"Unit 6 Five Rise Shopping Centre\",\"addr:postcode\"=>\"BD16 1GL\",\"addr:street\"=>\"Main Street\",\"brand\"=>\"Co-op Food\",\"brand:wikidata\"=>\"Q3277439\",\"brand:wikipedia\"=>\"en:Co-op Food\",\"fhrs:id\"=>\"327729\",\"operator\"=>\"The Co-operative Group\",\"shop\"=>\"convenience\"" }, "geometry": { "type": "Point", "coordinates": [ -1.8363694, 53.8474149 ] } },
	{ "type": "Feature", "properties": { "osm_id": "778675503", "name": "Eldwick Food and Wine Centre", "other_tags": "\"addr:city\"=>\"Bingley\",\"addr:postcode\"=>\"BD16 3BS\",\"addr:street\"=>\"Warren Lane\",\"alt_name\"=>\"Nisa Local\",\"brand\"=>\"Nisa\",\"brand:wikidata\"=>\"Q16999069\",\"brand:wikipedia\"=>\"en:Nisa (retailer)\",\"fhrs:id\"=>\"327876\",\"operator\"=>\"Eldwick Food and Wine Centre\",\"shop\"=>\"convenience\"" }, "geometry": { "type": "Point", "coordinates": [ -1.8207124, 53.8535464 ] } },
	{ "type": "Feature", "properties": { "osm_id": "779175982", "name": "Forge Sotres Off Licence General Store", "other_tags": "\"alcohol\"=>\"yes\",\"shop\"=>\"convenience\"" }, "geometry": { "type": "Point", "coordinates": [ -1.6820964, 53.7013918 ] } },
	{ "type": "Feature", "properties": { "osm_id": "780156087", "amenity": "fuel", "other_tags": "\"addr:city\"=>\"Bradford\",\"addr:postcode\"=>\"BD9 6NT\",\"addr:street\"=>\"Haworth Road\",\"brand\"=>\"Shell\",\"operator\"=>\"Shell\",\"operator:shop\"=>\"Spar\",\"phone\"=>\"+44 1274 545027\",\"ref:navads\"=>\"NVDS353_11335504\",\"shop\"=>\"convenience\"" }, "geometry": { "type": "Point", "coordinates": [ -1.8184544, 53.8158665 ] } },
	{ "type": "Feature", "properties": { "osm_id": "798364147", "name": "Cottingley Bridge Stores", "other_tags": "\"shop\"=>\"convenience\"" }, "geometry": { "type": "Point", "coordinates": [ -1.8308029, 53.8377073 ] } },
	{ "type": "Feature", "properties": { "osm_id": "798527579", "name": "Spar", "other_tags": "\"addr:city\"=>\"Keighley\",\"addr:postcode\"=>\"BD22 8NL\",\"addr:street\"=>\"Station Road\",\"addr:village\"=>\"Haworth\",\"brand\"=>\"Spar\",\"brand:wikidata\"=>\"Q610492\",\"fhrs:id\"=>\"325007\",\"shop\"=>\"convenience\",\"source:addr\"=>\"FHRS Open Data\"" }, "geometry": { "type": "Point", "coordinates": [ -1.9481675, 53.8308479 ] } },
	{ "type": "Feature", "properties": { "osm_id": "854470024", "name": "McColl's", "other_tags": "\"addr:city\"=>\"Bradford\",\"addr:housenumber\"=>\"53\",\"addr:postcode\"=>\"BD7 1AZ\",\"addr:street\"=>\"Great Horton Road\",\"brand\"=>\"McColl's\",\"brand:wikidata\"=>\"Q16997477\",\"check_date\"=>\"2022-10-16\",\"fhrs:id\"=>\"325046\",\"shop\"=>\"convenience\"" }, "geometry": { "type": "Point", "coordinates": [ -1.7629143, 53.7906458 ] } },
	{ "type": "Feature", "properties": { "osm_id": "860157287", "name": "Hunters Park Store", "other_tags": "\"shop\"=>\"convenience\"" }, "geometry": { "type": "Point", "coordinates": [ -1.8082799, 53.7848582 ] } },
	{ "type": "Feature", "properties": { "osm_id": "860158747", "other_tags": "\"shop\"=>\"convenience\"" }, "geometry": { "type": "Point", "coordinates": [ -1.8096379, 53.7813559 ] } },
	{ "type": "Feature", "properties": { "osm_id": "907823135", "name": "Collingham Post Office", "amenity": "post_office", "other_tags": "\"addr:city\"=>\"Wetherby\",\"addr:postcode\"=>\"LS22 5AS\",\"addr:street\"=>\"Main Street\",\"addr:village\"=>\"Collingham\",\"fhrs:id\"=>\"718725\",\"opening_hours:post_office\"=>\"Mo-Th 08:30-17:30; Fr 09:00-17:30; Sa 09:00-12:30\",\"ref:pol_id\"=>\"6562\",\"shop\"=>\"convenience\",\"source:addr\"=>\"FHRS Open Data\"" }, "geometry": { "type": "Point", "coordinates": [ -1.4108178, 53.9079436 ] } },
	{ "type": "Feature", "properties": { "osm_id": "925803562", "name": "Today's Extra", "other_tags": "\"addr:city\"=>\"Bradford\",\"addr:country\"=>\"GB\",\"addr:housenumber\"=>\"14\",\"addr:postcode\"=>\"BD2 3LW\",\"addr:street\"=>\"Gain Lane\",\"fhrs:id\"=>\"656769\",\"shop\"=>\"convenience\"" }, "geometry": { "type": "Point", "coordinates": [ -1.7198848, 53.8061787 ] } },
	{ "type": "Feature", "properties": { "osm_id": "952451273", "name": "Premier", "other_tags": "\"brand\"=>\"Premier\",\"brand:wikidata\"=>\"Q7240340\",\"brand:wikipedia\"=>\"en:Premier Stores\",\"shop\"=>\"convenience\"" }, "geometry": { "type": "Point", "coordinates": [ -1.8561691, 53.6256372 ] } },
	{ "type": "Feature", "properties": { "osm_id": "963201545", "name": "Off Licence", "other_tags": "\"alcohol\"=>\"yes\",\"shop\"=>\"convenience\"" }, "geometry": { "type": "Point", "coordinates": [ -1.6472583, 53.6835398 ] } },
	{ "type": "Feature", "properties": { "osm_id": "963837591", "name": "Salamm Foods", "other_tags": "\"addr:city\"=>\"Dewsbury\",\"addr:country\"=>\"GB\",\"addr:housenumber\"=>\"658-660\",\"addr:postcode\"=>\"WF13 3HP\",\"addr:street\"=>\"Huddersfield Road\",\"addr:suburb\"=>\"Ravensthorpe\",\"fhrs:id\"=>\"228628\",\"phone\"=>\"+44 1924 491333\",\"shop\"=>\"convenience\",\"source:addr\"=>\"FHRS Open Data\"" }, "geometry": { "type": "Point", "coordinates": [ -1.6662892, 53.6784775 ] } },
	{ "type": "Feature", "properties": { "osm_id": "966181130", "name": "best-one Xpress", "other_tags": "\"addr:city\"=>\"Dewsbury\",\"addr:country\"=>\"GB\",\"addr:housenumber\"=>\"708\",\"addr:postcode\"=>\"WF13 3HU\",\"addr:street\"=>\"Huddersfield Road\",\"addr:suburb\"=>\"Ravensthorpe\",\"fhrs:id\"=>\"227404\",\"lottery\"=>\"yes\",\"shop\"=>\"convenience\",\"source:addr\"=>\"FHRS Open Data\"" }, "geometry": { "type": "Point", "coordinates": [ -1.6680323, 53.67772 ] } },
	{ "type": "Feature", "properties": { "osm_id": "966191969", "name": "The Knowle Off Licence", "other_tags": "\"addr:city\"=>\"Mirfield\",\"addr:country\"=>\"GB\",\"addr:housenumber\"=>\"47\",\"addr:postcode\"=>\"WF14 9RN\",\"addr:street\"=>\"The Knowl\",\"alcohol\"=>\"yes\",\"fhrs:id\"=>\"306761\",\"shop\"=>\"convenience\",\"source:addr\"=>\"FHRS Open Data\"" }, "geometry": { "type": "Point", "coordinates": [ -1.7000032, 53.6801425 ] } },
	{ "type": "Feature", "properties": { "osm_id": "972552959", "name": "Bradley Booze & News", "other_tags": "\"alcohol\"=>\"yes\",\"newspapers\"=>\"yes\",\"shop\"=>\"convenience\"" }, "geometry": { "type": "Point", "coordinates": [ -1.7395531, 53.6797485 ] } },
	{ "type": "Feature", "properties": { "osm_id": "1015090447", "name": "Corner Shop", "other_tags": "\"addr:city\"=>\"Wakefield\",\"addr:housenumber\"=>\"43\",\"addr:postcode\"=>\"WF1 1JX\",\"addr:street\"=>\"Westgate\",\"fhrs:id\"=>\"1030803\",\"shop\"=>\"convenience\"" }, "geometry": { "type": "Point", "coordinates": [ -1.4999261, 53.682273 ] } },
	{ "type": "Feature", "properties": { "osm_id": "1028196389", "name": "Milco Supasaver", "other_tags": "\"addr:city\"=>\"Dewsbury\",\"addr:country\"=>\"GB\",\"addr:housenumber\"=>\"604\",\"addr:postcode\"=>\"WF13 3HL\",\"addr:street\"=>\"Huddersfield Road\",\"addr:suburb\"=>\"Ravensthorpe\",\"alcohol\"=>\"yes\",\"fhrs:id\"=>\"228794\",\"lottery\"=>\"yes\",\"shop\"=>\"convenience\",\"source:addr\"=>\"FHRS Open Data\"" }, "geometry": { "type": "Point", "coordinates": [ -1.6639263, 53.6791129 ] } },
	{ "type": "Feature", "properties": { "osm_id": "1037979155", "amenity": "post_office", "other_tags": "\"brand\"=>\"Nisalocal\",\"shop\"=>\"convenience\"" }, "geometry": { "type": "Point", "coordinates": [ -1.6315589, 53.7018479 ] } },
	{ "type": "Feature", "properties": { "osm_id": "1111888926", "name": "Kingswear News", "other_tags": "\"addr:city\"=>\"Leeds\",\"addr:housenumber\"=>\"6\",\"addr:postcode\"=>\"LS15 8PB\",\"addr:street\"=>\"Kingswear Crescent\",\"fhrs:id\"=>\"687540\",\"shop\"=>\"convenience\"" }, "geometry": { "type": "Point", "coordinates": [ -1.4404833, 53.7998596 ] } },
	{ "type": "Feature", "properties": { "osm_id": "1164237451", "name": "One Stop", "other_tags": "\"brand\"=>\"One Stop\",\"brand:wikidata\"=>\"Q65954217\",\"contact:website\"=>\"https:\/\/www.onestop.co.uk\/store?store=de71ade2-d4d8-4638-93f9-0ee5e733f56f\",\"shop\"=>\"convenience\"" }, "geometry": { "type": "Point", "coordinates": [ -1.4690847, 53.8271262 ] } },
	{ "type": "Feature", "properties": { "osm_id": "1182513323", "name": "Lucas's Store", "other_tags": "\"shop\"=>\"convenience\"" }, "geometry": { "type": "Point", "coordinates": [ -1.6948935, 53.7003969 ] } },
	{ "type": "Feature", "properties": { "osm_id": "1217348437", "other_tags": "\"addr:city\"=>\"Knottingley\",\"addr:housenumber\"=>\"2\",\"addr:postcode\"=>\"WF11 0JE\",\"addr:street\"=>\"Northfield Avenue\",\"fhrs:id\"=>\"313375\",\"shop\"=>\"convenience\"" }, "geometry": { "type": "Point", "coordinates": [ -1.2469857, 53.7057864 ] } },
	{ "type": "Feature", "properties": { "osm_id": "1251743041", "name": "Europa Filling Station", "other_tags": "\"addr:postcode\"=>\"LS28 6HQ\",\"addr:street\"=>\"Town Street\",\"addr:suburb\"=>\"Stanningley\",\"addr:town\"=>\"Pudsey\",\"brand\"=>\"Londis\",\"brand:wikidata\"=>\"Q21008564\",\"fhrs:id\"=>\"926944\",\"shop\"=>\"convenience\"" }, "geometry": { "type": "Point", "coordinates": [ -1.6606467, 53.8074149 ] } },
	{ "type": "Feature", "properties": { "osm_id": "1276282018", "other_tags": "\"shop\"=>\"convenience\"" }, "geometry": { "type": "Point", "coordinates": [ -1.7827955, 53.6362207 ] } },
	{ "type": "Feature", "properties": { "osm_id": "1276282022", "other_tags": "\"shop\"=>\"convenience\"" }, "geometry": { "type": "Point", "coordinates": [ -1.7790139, 53.6375304 ] } },
	{ "type": "Feature", "properties": { "osm_id": "1295087613", "name": "Costcutter", "other_tags": "\"brand\"=>\"Costcutter\",\"brand:wikidata\"=>\"Q5175072\",\"shop\"=>\"convenience\"" }, "geometry": { "type": "Point", "coordinates": [ -1.7762649, 53.7232099 ] } },
	{ "type": "Feature", "properties": { "osm_id": "1303437772", "name": "Booze News & Lotto", "other_tags": "\"alcohol\"=>\"yes\",\"lottery\"=>\"yes\",\"shop\"=>\"convenience\"" }, "geometry": { "type": "Point", "coordinates": [ -1.6916476, 53.710234 ] } },
	{ "type": "Feature", "properties": { "osm_id": "1307681730", "name": "Co-op Food", "other_tags": "\"addr:city\"=>\"Leeds\",\"addr:housenumber\"=>\"90-96\",\"addr:postcode\"=>\"LS17 8RE\",\"addr:street\"=>\"High Ash Drive\",\"branch\"=>\"High Ash Drive's Co-op\",\"brand\"=>\"Co-op Food\",\"brand:wikidata\"=>\"Q3277439\",\"brand:wikipedia\"=>\"en:Co-op Food\",\"fhrs:id\"=>\"321194\",\"operator\"=>\"The Co-operative Group\",\"operator:wikidata\"=>\"Q117202\",\"shop\"=>\"convenience\"" }, "geometry": { "type": "Point", "coordinates": [ -1.5202452, 53.8559751 ] } },
	{ "type": "Feature", "properties": { "osm_id": "1323867107", "name": "Green Action Food Co-oprative", "other_tags": "\"addr:city\"=>\"Leeds\",\"addr:housename\"=>\"Leeds University Union\",\"addr:postcode\"=>\"LS2 9JT\",\"addr:street\"=>\"Lifton Place\",\"level\"=>\"-1\",\"shop\"=>\"convenience\",\"toilets:wheelchair\"=>\"yes\",\"wheelchair\"=>\"yes\"" }, "geometry": { "type": "Point", "coordinates": [ -1.5559859, 53.8067987 ] } },
	{ "type": "Feature", "properties": { "osm_id": "1351976920", "name": "Maximus Food & Wine", "other_tags": "\"addr:city\"=>\"Bradford\",\"addr:housenumber\"=>\"1-3\",\"addr:postcode\"=>\"BD4 7LL\",\"addr:street\"=>\"Flockton Drive\",\"fhrs:id\"=>\"324905\",\"shop\"=>\"convenience\",\"source:addr\"=>\"FHRS Open Data\"" }, "geometry": { "type": "Point", "coordinates": [ -1.7382021, 53.7804124 ] } },
	{ "type": "Feature", "properties": { "osm_id": "1385378591", "other_tags": "\"shop\"=>\"convenience\"" }, "geometry": { "type": "Point", "coordinates": [ -1.745825, 53.6781425 ] } },
	{ "type": "Feature", "properties": { "osm_id": "1534826891", "name": "Arif Super Store", "other_tags": "\"addr:city\"=>\"Huddersfield\",\"addr:country\"=>\"GB\",\"addr:housenumber\"=>\"128\",\"addr:postcode\"=>\"HD1 4UD\",\"addr:street\"=>\"Church Street\",\"addr:suburb\"=>\"Paddock\",\"fhrs:id\"=>\"228877\",\"phone\"=>\"+44 1484 423855\",\"shop\"=>\"convenience\",\"source:addr\"=>\"FHRS Open Data\"" }, "geometry": { "type": "Point", "coordinates": [ -1.8115036, 53.6435446 ] } },
	{ "type": "Feature", "properties": { "osm_id": "1534826933", "name": "Premier Express Supermarket", "other_tags": "\"atm\"=>\"yes\",\"opening_hours\"=>\"Mo-We 08:30-22:30; Th-Su 08:30-23:00\",\"shop\"=>\"convenience\"" }, "geometry": { "type": "Point", "coordinates": [ -1.8116615, 53.6432381 ] } },
	{ "type": "Feature", "properties": { "osm_id": "1535922069", "name": "Gohar Superstore", "other_tags": "\"addr:city\"=>\"Huddersfield\",\"addr:country\"=>\"GB\",\"addr:housenumber\"=>\"13\",\"addr:postcode\"=>\"HD1 4TR\",\"addr:street\"=>\"Church Street\",\"addr:suburb\"=>\"Paddock\",\"fhrs:id\"=>\"227744\",\"shop\"=>\"convenience\",\"source:addr\"=>\"FHRS Open Data\"" }, "geometry": { "type": "Point", "coordinates": [ -1.8033838, 53.6423024 ] } },
	{ "type": "Feature", "properties": { "osm_id": "1535922154", "name": "Select & Save", "other_tags": "\"shop\"=>\"convenience\"" }, "geometry": { "type": "Point", "coordinates": [ -1.8140892, 53.6441099 ] } },
	{ "type": "Feature", "properties": { "osm_id": "1567905328", "name": "G & S Convenience Store", "other_tags": "\"addr:city\"=>\"Ilkley\",\"addr:housenumber\"=>\"1\",\"addr:parentstreet\"=>\"Valley Drive\",\"addr:postcode\"=>\"LS29 8NT\",\"addr:street\"=>\"1 The Parade\",\"fhrs:id\"=>\"327270\",\"shop\"=>\"convenience\",\"source:addr\"=>\"FHRS Open Data\"" }, "geometry": { "type": "Point", "coordinates": [ -1.8051659, 53.9265931 ] } },
	{ "type": "Feature", "properties": { "osm_id": "1581387314", "name": "Danyaal Food Store", "other_tags": "\"addr:city\"=>\"Keighley\",\"addr:country\"=>\"GB\",\"addr:housenumber\"=>\"124\",\"addr:postcode\"=>\"BD21 3AL\",\"addr:street\"=>\"North Street\",\"fhrs:id\"=>\"327073\",\"shop\"=>\"convenience\",\"source:addr\"=>\"FHRS Open Data\",\"wheelchair\"=>\"no\"" }, "geometry": { "type": "Point", "coordinates": [ -1.9093458, 53.8707983 ] } },
	{ "type": "Feature", "properties": { "osm_id": "1586384961", "name": "Premier", "other_tags": "\"addr:city\"=>\"Bingley\",\"addr:housenumber\"=>\"10-12\",\"addr:postcode\"=>\"BD16 4NL\",\"addr:street\"=>\"Mornington Road\",\"brand\"=>\"Premier\",\"brand:wikidata\"=>\"Q7240340\",\"brand:wikipedia\"=>\"en:Premier Stores\",\"fhrs:id\"=>\"327719\",\"shop\"=>\"convenience\"" }, "geometry": { "type": "Point", "coordinates": [ -1.831367, 53.8493401 ] } },
	{ "type": "Feature", "properties": { "osm_id": "1626142957", "name": "Tesco Express", "other_tags": "\"addr:city\"=>\"Bradford\",\"addr:housenumber\"=>\"465-469\",\"addr:postcode\"=>\"BD2 4QF\",\"addr:street\"=>\"Otley Road\",\"brand\"=>\"Tesco Express\",\"brand:wikidata\"=>\"Q98456772\",\"brand:wikipedia\"=>\"en:Tesco\",\"fhrs:id\"=>\"325720\",\"shop\"=>\"convenience\",\"source:addr\"=>\"FHRS Open Data\",\"website\"=>\"https:\/\/www.tesco.com\/store-locator\/bradford\/465-469-otley-rd\"" }, "geometry": { "type": "Point", "coordinates": [ -1.7311125, 53.8082484 ] } },
	{ "type": "Feature", "properties": { "osm_id": "1628253468", "name": "Your Local", "other_tags": "\"addr:city\"=>\"Castleford\",\"addr:housenumber\"=>\"45-47\",\"addr:postcode\"=>\"WF10 3SE\",\"addr:street\"=>\"Elizabeth Drive\",\"addr:suburb\"=>\"Airedale\",\"shop\"=>\"convenience\"" }, "geometry": { "type": "Point", "coordinates": [ -1.3098483, 53.7264408 ] } },
	{ "type": "Feature", "properties": { "osm_id": "1628282863", "name": "Jill And Andy's", "other_tags": "\"addr:city\"=>\"Castleford\",\"addr:housenumber\"=>\"18\",\"addr:postcode\"=>\"WF10 2NU\",\"addr:street\"=>\"Borrowdale Drive\",\"addr:suburb\"=>\"Wheldon\",\"brand\"=>\"Premier\",\"brand:wikidata\"=>\"Q7240340\",\"brand:wikipedia\"=>\"en:Premier Stores\",\"fhrs:id\"=>\"284075\",\"shop\"=>\"convenience\"" }, "geometry": { "type": "Point", "coordinates": [ -1.3038871, 53.7302555 ] } },
	{ "type": "Feature", "properties": { "osm_id": "1635183540", "name": "Tesco Express", "other_tags": "\"addr:city\"=>\"Ossett\",\"addr:housenumber\"=>\"99\",\"addr:postcode\"=>\"WF5 9NQ\",\"addr:street\"=>\"Dewsbury Road\",\"brand\"=>\"Tesco Express\",\"brand:wikidata\"=>\"Q98456772\",\"contact:website\"=>\"https:\/\/www.tesco.com\/store-locator\/ossett\/99-dewsbury-road\",\"fhrs:id\"=>\"314189\",\"shop\"=>\"convenience\"" }, "geometry": { "type": "Point", "coordinates": [ -1.5830082, 53.6880589 ] } },
	{ "type": "Feature", "properties": { "osm_id": "1639170963", "name": "Dhillons Go Local", "other_tags": "\"addr:city\"=>\"Huddersfield\",\"addr:housenumber\"=>\"797\",\"addr:postcode\"=>\"HD3 3YP\",\"addr:street\"=>\"New Hey Road\",\"shop\"=>\"convenience\"" }, "geometry": { "type": "Point", "coordinates": [ -1.8725878, 53.6575721 ] } },
	{ "type": "Feature", "properties": { "osm_id": "1650264000", "name": "Davalji Stores", "other_tags": "\"addr:city\"=>\"Leeds\",\"addr:housenumber\"=>\"117-119\",\"addr:postcode\"=>\"LS6 1DR\",\"addr:street\"=>\"Victoria Road\",\"fhrs:id\"=>\"320283\",\"shop\"=>\"convenience\"" }, "geometry": { "type": "Point", "coordinates": [ -1.5723309, 53.8143701 ] } },
	{ "type": "Feature", "properties": { "osm_id": "1654218191", "name": "Sainsbury's Local", "other_tags": "\"addr:city\"=>\"Leeds\",\"addr:housenumber\"=>\"155-157\",\"addr:postcode\"=>\"LS25 7ET\",\"addr:street\"=>\"Moorgate Road\",\"addr:suburb\"=>\"Kippax\",\"brand\"=>\"Sainsbury's Local\",\"brand:wikidata\"=>\"Q13218434\",\"brand:wikipedia\"=>\"en:Sainsbury's Local\",\"fhrs:id\"=>\"321889\",\"shop\"=>\"convenience\",\"wheelchair\"=>\"yes\"" }, "geometry": { "type": "Point", "coordinates": [ -1.3748385, 53.7746139 ] } },
	{ "type": "Feature", "properties": { "osm_id": "1668826170", "name": "Give & Take", "other_tags": "\"alcohol\"=>\"yes\",\"shop\"=>\"convenience\"" }, "geometry": { "type": "Point", "coordinates": [ -1.667174, 53.6780689 ] } },
	{ "type": "Feature", "properties": { "osm_id": "1674063403", "name": "Tesco Express", "other_tags": "\"addr:city\"=>\"Leeds\",\"addr:postcode\"=>\"LS1 5BQ\",\"addr:street\"=>\"Bond Street\",\"brand\"=>\"Tesco Express\",\"brand:wikidata\"=>\"Q98456772\",\"fhrs:id\"=>\"322021\",\"opening_hours\"=>\"Mo-Fr 06:00-00:00; Sa 06:00-22:00; Su 11:00-17:00\",\"shop\"=>\"convenience\"" }, "geometry": { "type": "Point", "coordinates": [ -1.546237, 53.7977282 ] } },
	{ "type": "Feature", "properties": { "osm_id": "1678305336", "other_tags": "\"addr:city\"=>\"Shipley\",\"addr:housenumber\"=>\"99\",\"addr:postcode\"=>\"BD17 7LT\",\"addr:street\"=>\"Coach Road\",\"addr:village\"=>\"Baildon\",\"shop\"=>\"convenience\"" }, "geometry": { "type": "Point", "coordinates": [ -1.7886399, 53.8411901 ] } },
	{ "type": "Feature", "properties": { "osm_id": "1678307294", "other_tags": "\"shop\"=>\"convenience\"" }, "geometry": { "type": "Point", "coordinates": [ -1.7097055, 53.6179439 ] } },
	{ "type": "Feature", "properties": { "osm_id": "1685128132", "other_tags": "\"shop\"=>\"convenience\"" }, "geometry": { "type": "Point", "coordinates": [ -1.7253595, 53.6355294 ] } },
	{ "type": "Feature", "properties": { "osm_id": "1685207188", "name": "M&S Simply Food", "other_tags": "\"addr:housename\"=>\"The Station Plaza\",\"addr:housenumber\"=>\"Unit 12A\",\"addr:postcode\"=>\"LS29 8HF\",\"addr:street\"=>\"Station Road\",\"brand\"=>\"M&S Simply Food\",\"brand:wikidata\"=>\"Q714491\",\"brand:wikipedia\"=>\"en:Marks & Spencer\",\"contact:website\"=>\"https:\/\/www.marksandspencer.com\/stores\/ilkley-simply-food-125\",\"designation\"=>\"Ilkley Simply Food\",\"shop\"=>\"convenience\"" }, "geometry": { "type": "Point", "coordinates": [ -1.8223227, 53.9250031 ] } },
	{ "type": "Feature", "properties": { "osm_id": "1695323463", "name": "Euro Mini Market", "other_tags": "\"addr:city\"=>\"Keighley\",\"addr:country\"=>\"GB\",\"addr:housenumber\"=>\"4\",\"addr:postcode\"=>\"BD21 2SR\",\"addr:street\"=>\"Campbell Street\",\"fhrs:id\"=>\"410677\",\"shop\"=>\"convenience\",\"source:addr\"=>\"FHRS Open Data\"" }, "geometry": { "type": "Point", "coordinates": [ -1.909959, 53.8695228 ] } },
	{ "type": "Feature", "properties": { "osm_id": "1710489287", "name": "Tesco Express", "other_tags": "\"addr:city\"=>\"Leeds\",\"addr:housenumber\"=>\"15\",\"addr:postcode\"=>\"LS1 2JG\",\"addr:street\"=>\"St Paul's Street\",\"branch\"=>\"Lees St Paul's St Express\",\"brand\"=>\"Tesco Express\",\"brand:wikidata\"=>\"Q98456772\",\"brand:wikipedia\"=>\"en:Tesco\",\"contact:website\"=>\"https:\/\/www.tesco.com\/store-locator\/leeds\/15-st-pauls-st\",\"fhrs:id\"=>\"323165\",\"opening_hours\"=>\"Mo-Su 06:00-23:00\",\"shop\"=>\"convenience\"" }, "geometry": { "type": "Point", "coordinates": [ -1.5508102, 53.7978679 ] } },
	{ "type": "Feature", "properties": { "osm_id": "1710719259", "name": "Upper Cumberworth Village Store & Newsagents", "other_tags": "\"shop\"=>\"convenience\"" }, "geometry": { "type": "Point", "coordinates": [ -1.6864648, 53.5748553 ] } },
	{ "type": "Feature", "properties": { "osm_id": "1725331943", "name": "Tesco Express", "other_tags": "\"addr:city\"=>\"Leeds\",\"addr:housenumber\"=>\"19-20\",\"addr:postcode\"=>\"LS2 9HD\",\"addr:street\"=>\"Blenheim Terrace\",\"brand\"=>\"Tesco Express\",\"brand:wikidata\"=>\"Q98456772\",\"brand:wikipedia\"=>\"en:Tesco\",\"contact:website\"=>\"https:\/\/www.tesco.com\/store-locator\/leeds\/19-20-blenheim-terrace\",\"fhrs:id\"=>\"322727\",\"opening_hours\"=>\"Mo-Su 06:00-23:00\",\"shop\"=>\"convenience\",\"wheelchair\"=>\"yes\"" }, "geometry": { "type": "Point", "coordinates": [ -1.5510512, 53.8073066 ] } },
	{ "type": "Feature", "properties": { "osm_id": "1738841583", "name": "Guiseley's Co-op", "other_tags": "\"addr:city\"=>\"Guiseley\",\"addr:housenumber\"=>\"137B\",\"addr:postcode\"=>\"LS20 8LY\",\"addr:street\"=>\"Otley Road\",\"brand\"=>\"Co-op Food\",\"brand:wikidata\"=>\"Q3277439\",\"brand:wikipedia\"=>\"en:Co-op Food\",\"fhrs:id\"=>\"321320\",\"opening_hours\"=>\"Mo-Su 07:00-22:00\",\"shop\"=>\"convenience\",\"source:addr\"=>\"FHRS Open Data\",\"website\"=>\"https:\/\/www.coop.co.uk\/store-finder\/LS20-8LY\/137a138a-otley-road\"" }, "geometry": { "type": "Point", "coordinates": [ -1.7248593, 53.877646 ] } },
	{ "type": "Feature", "properties": { "osm_id": "1744769255", "name": "Woodhouse Stores", "other_tags": "\"shop\"=>\"convenience\"" }, "geometry": { "type": "Point", "coordinates": [ -1.5551894, 53.8141151 ] } },
	{ "type": "Feature", "properties": { "osm_id": "1846007194", "amenity": "post_office", "other_tags": "\"shop\"=>\"convenience\"" }, "geometry": { "type": "Point", "coordinates": [ -1.5792642, 53.644228 ] } },
	{ "type": "Feature", "properties": { "osm_id": "1847520183", "other_tags": "\"shop\"=>\"convenience\"" }, "geometry": { "type": "Point", "coordinates": [ -1.8843285, 53.9444538 ] } },
	{ "type": "Feature", "properties": { "osm_id": "1847520186", "name": "Good Food Shop Deli", "other_tags": "\"shop\"=>\"convenience\"" }, "geometry": { "type": "Point", "coordinates": [ -1.8826147, 53.9438931 ] } },
	{ "type": "Feature", "properties": { "osm_id": "1873402999", "name": "Callaghan News", "other_tags": "\"addr:city\"=>\"Batley\",\"addr:country\"=>\"GB\",\"addr:housenumber\"=>\"59-61\",\"addr:postcode\"=>\"WF17 8PN\",\"addr:street\"=>\"Cross Bank Road\",\"addr:suburb\"=>\"Carlinghow\",\"fhrs:id\"=>\"227908\",\"shop\"=>\"convenience\",\"source:addr\"=>\"FHRS Open Data\"" }, "geometry": { "type": "Point", "coordinates": [ -1.6438606, 53.7184461 ] } },
	{ "type": "Feature", "properties": { "osm_id": "1878217776", "other_tags": "\"shop\"=>\"convenience\"" }, "geometry": { "type": "Point", "coordinates": [ -1.7558636, 53.6704574 ] } },
	{ "type": "Feature", "properties": { "osm_id": "1878217811", "other_tags": "\"shop\"=>\"convenience\"" }, "geometry": { "type": "Point", "coordinates": [ -1.7543777, 53.6732155 ] } },
	{ "type": "Feature", "properties": { "osm_id": "1879999201", "other_tags": "\"shop\"=>\"convenience\"" }, "geometry": { "type": "Point", "coordinates": [ -1.7694997, 53.6681817 ] } },
	{ "type": "Feature", "properties": { "osm_id": "1879999213", "other_tags": "\"shop\"=>\"convenience\"" }, "geometry": { "type": "Point", "coordinates": [ -1.7633033, 53.6684585 ] } },
	{ "type": "Feature", "properties": { "osm_id": "1906669748", "name": "Premier", "other_tags": "\"addr:city\"=>\"Ossett\",\"addr:housenumber\"=>\"7\",\"addr:postcode\"=>\"WF5 0DL\",\"addr:street\"=>\"Storrs Hill Road\",\"brand\"=>\"Premier\",\"brand:wikidata\"=>\"Q7240340\",\"brand:wikipedia\"=>\"en:Premier Stores\",\"fhrs:id\"=>\"660549\",\"shop\"=>\"convenience\"" }, "geometry": { "type": "Point", "coordinates": [ -1.5746833, 53.670343 ] } },
	{ "type": "Feature", "properties": { "osm_id": "1919796092", "other_tags": "\"shop\"=>\"convenience\"" }, "geometry": { "type": "Point", "coordinates": [ -1.7800067, 53.6393356 ] } },
	{ "type": "Feature", "properties": { "osm_id": "1925503505", "name": "B R News", "other_tags": "\"addr:city\"=>\"Bradford\",\"addr:housenumber\"=>\"204\",\"addr:postcode\"=>\"BD7 4BJ\",\"addr:street\"=>\"Hollingwood Lane\",\"fhrs:id\"=>\"325588\",\"shop\"=>\"convenience\"" }, "geometry": { "type": "Point", "coordinates": [ -1.8002416, 53.7793528 ] } },
	{ "type": "Feature", "properties": { "osm_id": "1981758732", "other_tags": "\"shop\"=>\"convenience\"" }, "geometry": { "type": "Point", "coordinates": [ -1.7474254, 53.6716252 ] } },
	{ "type": "Feature", "properties": { "osm_id": "2009134992", "other_tags": "\"shop\"=>\"convenience\"" }, "geometry": { "type": "Point", "coordinates": [ -1.6198267, 53.7123344 ] } },
	{ "type": "Feature", "properties": { "osm_id": "2012914699", "name": "The Co-operative Food", "other_tags": "\"addr:city\"=>\"Huddersfield\",\"addr:country\"=>\"GB\",\"addr:housenumber\"=>\"9\",\"addr:postcode\"=>\"HD4 5RX\",\"addr:street\"=>\"Park Road West\",\"addr:suburb\"=>\"Crosland Moor\",\"fhrs:id\"=>\"227778\",\"opening_hours\"=>\"Mo-Sa 07:00-23:00\",\"operator\"=>\"The Co-operative Group\",\"shop\"=>\"convenience\",\"source:addr\"=>\"FHRS Open Data\",\"wheelchair\"=>\"yes\"" }, "geometry": { "type": "Point", "coordinates": [ -1.809661, 53.6379172 ] } },
	{ "type": "Feature", "properties": { "osm_id": "2031700082", "name": "Tesco Express", "other_tags": "\"addr:city\"=>\"Batley\",\"addr:postcode\"=>\"WF17 9EH\",\"addr:street\"=>\"Smithies Lane\",\"addr:suburb\"=>\"Birstall\",\"brand\"=>\"Tesco Express\",\"brand:wikidata\"=>\"Q98456772\",\"contact:website\"=>\"https:\/\/www.tesco.com\/store-locator\/batley\/3-smithies-ln\",\"fhrs:id\"=>\"226688\",\"shop\"=>\"convenience\",\"source:addr\"=>\"FHRS Open Data\"" }, "geometry": { "type": "Point", "coordinates": [ -1.6606698, 53.73141 ] } },
	{ "type": "Feature", "properties": { "osm_id": "2048180543", "other_tags": "\"shop\"=>\"convenience\"" }, "geometry": { "type": "Point", "coordinates": [ -1.648035, 53.5913158 ] } },
	{ "type": "Feature", "properties": { "osm_id": "2058583957", "name": "Tesco Express", "other_tags": "\"addr:city\"=>\"Wakefield\",\"addr:postcode\"=>\"WF1 4LH\",\"addr:street\"=>\"Stanley Road\",\"brand\"=>\"Tesco Express\",\"brand:wikidata\"=>\"Q98456772\",\"brand:wikipedia\"=>\"en:Tesco\",\"contact:website\"=>\"https:\/\/www.tesco.com\/store-locator\/wakefield\/stanley-rd\",\"fhrs:id\"=>\"314305\",\"operator\"=>\"Tesco\",\"shop\"=>\"convenience\"" }, "geometry": { "type": "Point", "coordinates": [ -1.4896663, 53.6853468 ] } },
	{ "type": "Feature", "properties": { "osm_id": "2068414332", "name": "Kian Stores", "other_tags": "\"addr:city\"=>\"Bradford\",\"addr:housenumber\"=>\"87-89\",\"addr:postcode\"=>\"BD11 1DH\",\"addr:street\"=>\"Wakefield Road\",\"addr:suburb\"=>\"Drighlington\",\"alcohol\"=>\"yes\",\"fhrs:id\"=>\"323194\",\"shop\"=>\"convenience\"" }, "geometry": { "type": "Point", "coordinates": [ -1.6527021, 53.75347 ] } },
	{ "type": "Feature", "properties": { "osm_id": "2072972463", "name": "Bal Newsagents", "other_tags": "\"addr:city\"=>\"Leeds\",\"addr:housenumber\"=>\"434\",\"addr:postcode\"=>\"LS11 7LJ\",\"addr:street\"=>\"Dewsbury Road\",\"fhrs:id\"=>\"829600\",\"shop\"=>\"convenience\"" }, "geometry": { "type": "Point", "coordinates": [ -1.5615822, 53.7647683 ] } },
	{ "type": "Feature", "properties": { "osm_id": "2073457225", "other_tags": "\"shop\"=>\"convenience\"" }, "geometry": { "type": "Point", "coordinates": [ -1.787642, 53.6784677 ] } },
	{ "type": "Feature", "properties": { "osm_id": "2090265626", "other_tags": "\"shop\"=>\"convenience\"" }, "geometry": { "type": "Point", "coordinates": [ -1.748084, 53.6356158 ] } },
	{ "type": "Feature", "properties": { "osm_id": "2090265740", "other_tags": "\"shop\"=>\"convenience\"" }, "geometry": { "type": "Point", "coordinates": [ -1.7401618, 53.6392463 ] } },
	{ "type": "Feature", "properties": { "osm_id": "2090752282", "other_tags": "\"shop\"=>\"convenience\"" }, "geometry": { "type": "Point", "coordinates": [ -1.7424787, 53.6415303 ] } },
	{ "type": "Feature", "properties": { "osm_id": "2117006489", "other_tags": "\"shop\"=>\"convenience\"" }, "geometry": { "type": "Point", "coordinates": [ -1.5287032, 53.7786352 ] } },
	{ "type": "Feature", "properties": { "osm_id": "2125610507", "name": "Co-op Food", "other_tags": "\"addr:city\"=>\"Leeds\",\"addr:housename\"=>\"West Point\",\"addr:postcode\"=>\"LS1 4JY\",\"addr:street\"=>\"Wellington Street\",\"addr:unit\"=>\"B\",\"brand\"=>\"Co-op Food\",\"brand:wikidata\"=>\"Q3277439\",\"brand:wikipedia\"=>\"en:Co-op Food\",\"fhrs:id\"=>\"322049\",\"opening_hours\"=>\"Mo-Su 06:00-22:00\",\"operator\"=>\"The Co-operative Group\",\"operator:wikidata\"=>\"Q117202\",\"shop\"=>\"convenience\"" }, "geometry": { "type": "Point", "coordinates": [ -1.5533098, 53.7961589 ] } },
	{ "type": "Feature", "properties": { "osm_id": "2125610532", "name": "Sainsbury's Local", "other_tags": "\"addr:city\"=>\"Leeds\",\"addr:housenumber\"=>\"63\",\"addr:postcode\"=>\"LS1 6HW\",\"addr:street\"=>\"Boar Lane\",\"brand\"=>\"Sainsbury's Local\",\"brand:wikidata\"=>\"Q13218434\",\"brand:wikipedia\"=>\"en:Sainsbury's Local\",\"fhrs:id\"=>\"537087\",\"opening_hours\"=>\"Mo-Su 07:00-23:00\",\"shop\"=>\"convenience\"" }, "geometry": { "type": "Point", "coordinates": [ -1.5443607, 53.7959546 ] } },
	{ "type": "Feature", "properties": { "osm_id": "2125804303", "name": "Best-one", "other_tags": "\"addr:postcode\"=>\"LS9 8BL\",\"brand\"=>\"Best-one\",\"brand:wikidata\"=>\"Q4896532\",\"brand:wikipedia\"=>\"en:Best-one\",\"fhrs:id\"=>\"471136\",\"shop\"=>\"convenience\"" }, "geometry": { "type": "Point", "coordinates": [ -1.5348149, 53.7977528 ] } },
	{ "type": "Feature", "properties": { "osm_id": "2134260271", "name": "Nisa Local Gateway Express", "other_tags": "\"addr:city\"=>\"Leeds\",\"addr:housename\"=>\"The Gateway West\",\"addr:postcode\"=>\"LS9 8DA\",\"addr:street\"=>\"East Street\",\"addr:unit\"=>\"1\",\"alt_name\"=>\"Gateway Express\",\"brand\"=>\"Nisa Local\",\"brand:wikidata\"=>\"Q16999069\",\"brand:wikipedia\"=>\"en:Nisa (retailer)\",\"fhrs:id\"=>\"1106872\",\"shop\"=>\"convenience\"" }, "geometry": { "type": "Point", "coordinates": [ -1.5325702, 53.7941673 ] } },
	{ "type": "Feature", "properties": { "osm_id": "2135004396", "name": "Granary Express", "other_tags": "\"addr:postcode\"=>\"LS1 4GL\",\"fhrs:id\"=>\"666635\",\"shop\"=>\"convenience\"" }, "geometry": { "type": "Point", "coordinates": [ -1.5488244, 53.7936536 ] } },
	{ "type": "Feature", "properties": { "osm_id": "2148948485", "name": "Tesco Express", "other_tags": "\"addr:city\"=>\"Leeds\",\"addr:housenumber\"=>\"700-702\",\"addr:postcode\"=>\"LS17 7AW\",\"addr:street\"=>\"King Lane\",\"addr:suburb\"=>\"Alwoodley\",\"brand\"=>\"Tesco Express\",\"brand:wikidata\"=>\"Q98456772\",\"brand:wikipedia\"=>\"en:Tesco\",\"contact:website\"=>\"https:\/\/www.tesco.com\/store-locator\/leeds\/700-king-ln\",\"fhrs:id\"=>\"589846\",\"operator\"=>\"Tracing\",\"shop\"=>\"convenience\"" }, "geometry": { "type": "Point", "coordinates": [ -1.5626218, 53.8562166 ] } },
	{ "type": "Feature", "properties": { "osm_id": "2170033471", "other_tags": "\"shop\"=>\"convenience\"" }, "geometry": { "type": "Point", "coordinates": [ -1.7981976, 53.7639318 ] } },
	{ "type": "Feature", "properties": { "osm_id": "2195805670", "other_tags": "\"shop\"=>\"convenience\"" }, "geometry": { "type": "Point", "coordinates": [ -1.75741, 53.7962739 ] } },
	{ "type": "Feature", "properties": { "osm_id": "2195805672", "other_tags": "\"shop\"=>\"convenience\"" }, "geometry": { "type": "Point", "coordinates": [ -1.7577426, 53.796521 ] } },
	{ "type": "Feature", "properties": { "osm_id": "2376472662", "other_tags": "\"shop\"=>\"convenience\"" }, "geometry": { "type": "Point", "coordinates": [ -1.8033815, 53.6364778 ] } },
	{ "type": "Feature", "properties": { "osm_id": "2376501240", "other_tags": "\"shop\"=>\"convenience\"" }, "geometry": { "type": "Point", "coordinates": [ -1.8175794, 53.6334498 ] } },
	{ "type": "Feature", "properties": { "osm_id": "2377667260", "other_tags": "\"shop\"=>\"convenience\"" }, "geometry": { "type": "Point", "coordinates": [ -1.8017472, 53.6398092 ] } },
	{ "type": "Feature", "properties": { "osm_id": "2385766646", "name": "H & A News", "other_tags": "\"addr:city\"=>\"Cleckheaton\",\"addr:country\"=>\"GB\",\"addr:housenumber\"=>\"24\",\"addr:postcode\"=>\"BD19 5BU\",\"addr:street\"=>\"Dewsbury Road\",\"addr:suburb\"=>\"Marsh\",\"alcohol\"=>\"yes\",\"fhrs:id\"=>\"226674\",\"shop\"=>\"convenience\",\"source:addr\"=>\"FHRS Open Data\"" }, "geometry": { "type": "Point", "coordinates": [ -1.7097877, 53.7214913 ] } },
	{ "type": "Feature", "properties": { "osm_id": "2398153516", "other_tags": "\"shop\"=>\"convenience\"" }, "geometry": { "type": "Point", "coordinates": [ -1.7843195, 53.6486402 ] } },
	{ "type": "Feature", "properties": { "osm_id": "2407082641", "name": "Anwars", "other_tags": "\"addr:city\"=>\"Leeds\",\"addr:housename\"=>\"Eldon Court\",\"addr:postcode\"=>\"LS2 9BQ\",\"addr:street\"=>\"St Marks Road\",\"addr:suburb\"=>\"Woodhouse\",\"addr:unit\"=>\"1B\",\"fhrs:id\"=>\"564069\",\"shop\"=>\"convenience\"" }, "geometry": { "type": "Point", "coordinates": [ -1.5524503, 53.8091186 ] } },
	{ "type": "Feature", "properties": { "osm_id": "2409297727", "other_tags": "\"shop\"=>\"convenience\"" }, "geometry": { "type": "Point", "coordinates": [ -1.7871786, 53.6318707 ] } },
	{ "type": "Feature", "properties": { "osm_id": "2409310886", "name": "Costcutter", "other_tags": "\"brand\"=>\"Costcutter\",\"brand:wikidata\"=>\"Q5175072\",\"contact:website\"=>\"https:\/\/store-locator.costcutter.co.uk\/costcutter-50c8281d43a4\",\"opening_hours\"=>\"closed\",\"shop\"=>\"convenience\"" }, "geometry": { "type": "Point", "coordinates": [ -1.7947306, 53.6198777 ] } },
	{ "type": "Feature", "properties": { "osm_id": "2430346521", "name": "McColl's", "other_tags": "\"addr:housenumber\"=>\"77-79\",\"addr:postcode\"=>\"LS18 5DU\",\"addr:street\"=>\"Broadgate Lane\",\"brand\"=>\"McColl's\",\"brand:wikidata\"=>\"Q16997477\",\"brand:wikipedia\"=>\"en:McColl's\",\"fhrs:id\"=>\"321635\",\"opening_hours\"=>\"Mo-Sa 06:00-22:00; Su 07:00-22:00\",\"shop\"=>\"convenience\",\"source:addr\"=>\"FSA Food Hygiene Ratings Database\"" }, "geometry": { "type": "Point", "coordinates": [ -1.6299482, 53.8387649 ] } },
	{ "type": "Feature", "properties": { "osm_id": "2459685086", "name": "One Stop", "other_tags": "\"addr:city\"=>\"Halifax\",\"addr:country\"=>\"GB\",\"addr:housenumber\"=>\"252\",\"addr:postcode\"=>\"HX1 3JP\",\"addr:street\"=>\"King Cross Road\",\"brand\"=>\"One Stop\",\"brand:wikidata\"=>\"Q65954217\",\"contact:website\"=>\"https:\/\/www.onestop.co.uk\/store?store=ffc3b829-8040-4335-bde3-faba62637844\",\"fhrs:id\"=>\"348507\",\"shop\"=>\"convenience\",\"source:addr\"=>\"FHRS Open Data\"" }, "geometry": { "type": "Point", "coordinates": [ -1.8832264, 53.7147082 ] } },
	{ "type": "Feature", "properties": { "osm_id": "2611488250", "name": "Londis", "other_tags": "\"addr:city\"=>\"Huddersfield\",\"addr:country\"=>\"GB\",\"addr:hamlet\"=>\"Oakes\",\"addr:housenumber\"=>\"204\",\"addr:postcode\"=>\"HD3 4BU\",\"addr:street\"=>\"New Hey Road\",\"brand\"=>\"Londis\",\"brand:wikidata\"=>\"Q21008564\",\"fhrs:id\"=>\"226390\",\"shop\"=>\"convenience\",\"source:addr\"=>\"FHRS Open Data\"" }, "geometry": { "type": "Point", "coordinates": [ -1.8220376, 53.6538843 ] } },
	{ "type": "Feature", "properties": { "osm_id": "2769465575", "name": "Londis", "other_tags": "\"addr:city\"=>\"Holmfirth\",\"addr:country\"=>\"GB\",\"addr:housenumber\"=>\"130\",\"addr:postcode\"=>\"HD9 3XZ\",\"addr:street\"=>\"Town Gate\",\"addr:suburb\"=>\"Netherthong\",\"brand\"=>\"Londis\",\"brand:wikidata\"=>\"Q21008564\",\"brand:wikipedia\"=>\"en:Londis (United Kingdom)\",\"designation\"=>\"Small Post Office Facilities\",\"fhrs:id\"=>\"306752\",\"opening_hours\"=>\"Mo-Sa 06:30-12:30,13:30-21:00; Su 09:00-12:00,17:00-20:00\",\"shop\"=>\"convenience\",\"source:addr\"=>\"FHRS Open Data\"" }, "geometry": { "type": "Point", "coordinates": [ -1.7912175, 53.5834014 ] } },
	{ "type": "Feature", "properties": { "osm_id": "2971244421", "name": "Steeton Newsagents", "other_tags": "\"addr:city\"=>\"Keighley\",\"addr:housenumber\"=>\"1-3\",\"addr:postcode\"=>\"BD20 6SE\",\"addr:street\"=>\"Elmsley Street\",\"addr:village\"=>\"Steeton With Eastburn\",\"fhrs:id\"=>\"326800\",\"shop\"=>\"convenience\",\"source:addr\"=>\"FHRS Open Data\"" }, "geometry": { "type": "Point", "coordinates": [ -1.9514556, 53.8960824 ] } },
	{ "type": "Feature", "properties": { "osm_id": "3137244844", "name": "Pound Bargins", "other_tags": "\"addr:city\"=>\"Heckmondwike\",\"addr:country\"=>\"GB\",\"addr:housename\"=>\"Northgate Centre\",\"addr:housenumber\"=>\"6B\",\"addr:postcode\"=>\"WF16 9RL\",\"addr:street\"=>\"Northgate\",\"fhrs:id\"=>\"455747\",\"shop\"=>\"convenience\",\"source:addr\"=>\"FHRS Open Data\"" }, "geometry": { "type": "Point", "coordinates": [ -1.6761127, 53.7081924 ] } },
	{ "type": "Feature", "properties": { "osm_id": "3153411942", "name": "Village Store", "other_tags": "\"addr:city\"=>\"Leeds\",\"addr:housenumber\"=>\"44\",\"addr:postcode\"=>\"LS14 3DX\",\"addr:street\"=>\"Main Street\",\"addr:suburb\"=>\"Thorner\",\"shop\"=>\"convenience\"" }, "geometry": { "type": "Point", "coordinates": [ -1.4284964, 53.8573633 ] } },
	{ "type": "Feature", "properties": { "osm_id": "3191671091", "name": "Whitecross Convenience Store", "other_tags": "\"addr:housenumber\"=>\"22\",\"addr:postcode\"=>\"LS20 8NH\",\"addr:street\"=>\"Bradford Road\",\"addr:town\"=>\"Guiseley\",\"fhrs:id\"=>\"320508\",\"image\"=>\"https:\/\/www.geograph.org.uk\/photo\/1945906\",\"shop\"=>\"convenience\"" }, "geometry": { "type": "Point", "coordinates": [ -1.7252057, 53.8764693 ] } },
	{ "type": "Feature", "properties": { "osm_id": "3194894613", "name": "MENA Foods", "other_tags": "\"addr:city\"=>\"Leeds\",\"addr:housenumber\"=>\"68 - 72\",\"addr:postcode\"=>\"LS9 7SU\",\"addr:street\"=>\"Lincoln Green Road\",\"fhrs:id\"=>\"1210251\",\"old_name\"=>\"Aladdin Markets\",\"shop\"=>\"convenience\"" }, "geometry": { "type": "Point", "coordinates": [ -1.5266053, 53.8022193 ] } },
	{ "type": "Feature", "properties": { "osm_id": "3222499261", "name": "Lumsar News", "other_tags": "\"addr:city\"=>\"Leeds\",\"addr:housenumber\"=>\"146-148\",\"addr:postcode\"=>\"LS6 1AJ\",\"addr:street\"=>\"Hyde Park Road\",\"fhrs:id\"=>\"319861\",\"opening_hours\"=>\"Mo-Su 07:00-22:00\",\"shop\"=>\"convenience\"" }, "geometry": { "type": "Point", "coordinates": [ -1.5658763, 53.8098177 ] } },
	{ "type": "Feature", "properties": { "osm_id": "3222614367", "name": "Leeds Refills Zero Waste Shop", "other_tags": "\"addr:city\"=>\"Leeds\",\"addr:housenumber\"=>\"5\",\"addr:postcode\"=>\"LS6 2NW\",\"addr:street\"=>\"The Crescent\",\"shop\"=>\"convenience\",\"zero_waste\"=>\"only\"" }, "geometry": { "type": "Point", "coordinates": [ -1.5612014, 53.8146014 ] } },
	{ "type": "Feature", "properties": { "osm_id": "3222635362", "name": "Alladin", "other_tags": "\"addr:city\"=>\"Leeds\",\"addr:housenumber\"=>\"7\",\"addr:postcode\"=>\"LS6 2NW\",\"addr:street\"=>\"The Crescent\",\"fhrs:id\"=>\"699341\",\"shop\"=>\"convenience\"" }, "geometry": { "type": "Point", "coordinates": [ -1.5612245, 53.8146868 ] } },
	{ "type": "Feature", "properties": { "osm_id": "3225905508", "name": "Liquor Village Plus Drinks Specialist", "other_tags": "\"addr:city\"=>\"Leeds\",\"addr:housenumber\"=>\"134\",\"addr:postcode\"=>\"LS6 1LU\",\"addr:street\"=>\"Cardigan Road\",\"addr:suburb\"=>\"Headingley\",\"fhrs:id\"=>\"466925\",\"shop\"=>\"convenience\"" }, "geometry": { "type": "Point", "coordinates": [ -1.5764792, 53.8121027 ] } },
	{ "type": "Feature", "properties": { "osm_id": "3225929567", "name": "TS Wines And Spirits", "other_tags": "\"addr:city\"=>\"Leeds\",\"addr:housenumber\"=>\"86-88\",\"addr:postcode\"=>\"LS6 1EG\",\"addr:street\"=>\"Brudenell Road\",\"addr:suburb\"=>\"Hyde Park\",\"brand\"=>\"Best-one\",\"brand:wikidata\"=>\"Q4896532\",\"brand:wikipedia\"=>\"en:Best-one\",\"not:addr:postcode\"=>\"LS6 1EP\",\"shop\"=>\"convenience\"" }, "geometry": { "type": "Point", "coordinates": [ -1.5706192, 53.8120255 ] } },
	{ "type": "Feature", "properties": { "osm_id": "3225929764", "name": "Makkah Foods", "other_tags": "\"addr:city\"=>\"Leeds\",\"addr:housenumber\"=>\"129\",\"addr:postcode\"=>\"LS6 1LS\",\"addr:street\"=>\"Brudenell Road\",\"fhrs:id\"=>\"454514\",\"shop\"=>\"convenience\"" }, "geometry": { "type": "Point", "coordinates": [ -1.5734057, 53.8110939 ] } },
	{ "type": "Feature", "properties": { "osm_id": "3225929767", "name": "Local Off Licence", "other_tags": "\"addr:city\"=>\"Leeds\",\"addr:housenumber\"=>\"127\",\"addr:postcode\"=>\"LS6 1LU\",\"addr:street\"=>\"Cardigan Road\",\"addr:suburb\"=>\"Headingley\",\"fhrs:id\"=>\"319626\",\"shop\"=>\"convenience\"" }, "geometry": { "type": "Point", "coordinates": [ -1.5753503, 53.8110965 ] } },
	{ "type": "Feature", "properties": { "osm_id": "3300696424", "name": "Tesco Express", "other_tags": "\"addr:city\"=>\"Leeds\",\"addr:housenumber\"=>\"54\",\"addr:postcode\"=>\"LS1 5EL\",\"addr:street\"=>\"Boar Lane\",\"brand\"=>\"Tesco Express\",\"brand:wikidata\"=>\"Q98456772\",\"brand:wikipedia\"=>\"en:Tesco\",\"contact:website\"=>\"https:\/\/www.tesco.com\/store-locator\/leeds\/boar-ln\",\"fhrs:id\"=>\"735581\",\"shop\"=>\"convenience\"" }, "geometry": { "type": "Point", "coordinates": [ -1.5453419, 53.795902 ] } },
	{ "type": "Feature", "properties": { "osm_id": "3404794107", "name": "K.S. Bhullar Supersave", "other_tags": "\"shop\"=>\"convenience\"" }, "geometry": { "type": "Point", "coordinates": [ -1.8427629, 53.6304551 ] } },
	{ "type": "Feature", "properties": { "osm_id": "3404794109", "name": "Premier News, Food & Wine", "other_tags": "\"shop\"=>\"convenience\"" }, "geometry": { "type": "Point", "coordinates": [ -1.8355765, 53.6352154 ] } },
	{ "type": "Feature", "properties": { "osm_id": "3551167022", "name": "Golcar Stores", "other_tags": "\"shop\"=>\"convenience\"" }, "geometry": { "type": "Point", "coordinates": [ -1.8481227, 53.6380577 ] } },
	{ "type": "Feature", "properties": { "osm_id": "3557953743", "name": "Tesco Express", "other_tags": "\"addr:postcode\"=>\"LS22 5AP\",\"addr:street\"=>\"Leeds Road\",\"addr:suburb\"=>\"Collingham\",\"addr:town\"=>\"Wetherby\",\"brand\"=>\"Tesco Express\",\"brand:wikidata\"=>\"Q98456772\",\"contact:website\"=>\"https:\/\/www.tesco.com\/store-locator\/collingham\/main-st\",\"fhrs:id\"=>\"729577\",\"operator\"=>\"Tesco\",\"shop\"=>\"convenience\"" }, "geometry": { "type": "Point", "coordinates": [ -1.4120951, 53.9079503 ] } },
	{ "type": "Feature", "properties": { "osm_id": "3600588640", "name": "One Stop", "other_tags": "\"addr:city\"=>\"Leeds\",\"addr:housenumber\"=>\"2-4\",\"addr:postcode\"=>\"LS8 1LW\",\"addr:street\"=>\"Chandos Gardens\",\"brand\"=>\"One Stop\",\"brand:wikidata\"=>\"Q65954217\",\"contact:website\"=>\"https:\/\/www.onestop.co.uk\/store?store=65b31c77-0b5b-4085-bdec-55a4fec27bb8\",\"fhrs:id\"=>\"542477\",\"phone\"=>\"+44 113 266 3322\",\"shop\"=>\"convenience\"" }, "geometry": { "type": "Point", "coordinates": [ -1.5206335, 53.8346513 ] } },
	{ "type": "Feature", "properties": { "osm_id": "3617871920", "name": "Easterly Road Off Licence", "other_tags": "\"addr:city\"=>\"Leeds\",\"addr:housenumber\"=>\"135\",\"addr:postcode\"=>\"LS8 2TP\",\"addr:street\"=>\"Easterly Road\",\"addr:suburb\"=>\"Gipton\",\"fhrs:id\"=>\"687546\",\"shop\"=>\"convenience\"" }, "geometry": { "type": "Point", "coordinates": [ -1.5028785, 53.8192194 ] } },
	{ "type": "Feature", "properties": { "osm_id": "3618061608", "name": "Vilnius & Co", "other_tags": "\"addr:city\"=>\"Leeds\",\"addr:housenumber\"=>\"273\",\"addr:postcode\"=>\"LS8 4HS\",\"addr:street\"=>\"Roundhay Road\",\"fhrs:id\"=>\"321909\",\"shop\"=>\"convenience\"" }, "geometry": { "type": "Point", "coordinates": [ -1.5167277, 53.8174074 ] } },
	{ "type": "Feature", "properties": { "osm_id": "3618061609", "name": "Magazin Romanesc", "other_tags": "\"addr:city\"=>\"Leeds\",\"addr:housenumber\"=>\"260\",\"addr:postcode\"=>\"LS8 5RL\",\"addr:street\"=>\"Roundhay Road\",\"fhrs:id\"=>\"1090609\",\"shop\"=>\"convenience\"" }, "geometry": { "type": "Point", "coordinates": [ -1.5163379, 53.8171851 ] } },
	{ "type": "Feature", "properties": { "osm_id": "3618525985", "name": "Premier", "other_tags": "\"brand\"=>\"Premier\",\"brand:wikidata\"=>\"Q7240340\",\"brand:wikipedia\"=>\"en:Premier Stores\",\"shop\"=>\"convenience\"" }, "geometry": { "type": "Point", "coordinates": [ -1.5027401, 53.8139617 ] } },
	{ "type": "Feature", "properties": { "osm_id": "3619225594", "name": "Sainsbury's Local", "other_tags": "\"addr:city\"=>\"Leeds\",\"addr:housenumber\"=>\"50-52\",\"addr:postcode\"=>\"LS1 7JH\",\"addr:street\"=>\"Vicar Lane\",\"brand\"=>\"Sainsbury's Local\",\"brand:wikidata\"=>\"Q13218434\",\"brand:wikipedia\"=>\"en:Sainsbury's Local\",\"fhrs:id\"=>\"735582\",\"shop\"=>\"convenience\"" }, "geometry": { "type": "Point", "coordinates": [ -1.5399673, 53.7978092 ] } },
	{ "type": "Feature", "properties": { "osm_id": "3620196176", "name": "Spar", "other_tags": "\"brand\"=>\"Spar\",\"brand:wikidata\"=>\"Q610492\",\"brand:wikipedia\"=>\"en:Spar (retailer)\",\"shop\"=>\"convenience\"" }, "geometry": { "type": "Point", "coordinates": [ -1.5443035, 53.8327754 ] } },
	{ "type": "Feature", "properties": { "osm_id": "3620307917", "name": "Ali News", "amenity": "post_office", "other_tags": "\"shop\"=>\"convenience\"" }, "geometry": { "type": "Point", "coordinates": [ -1.5576742, 53.8472784 ] } },
	{ "type": "Feature", "properties": { "osm_id": "3626078158", "name": "Vesper Convenience Store", "other_tags": "\"addr:city\"=>\"Leeds\",\"addr:housenumber\"=>\"105\",\"addr:postcode\"=>\"LS5 3LJ\",\"addr:street\"=>\"Vesper Road\",\"fhrs:id\"=>\"847993\",\"shop\"=>\"convenience\"" }, "geometry": { "type": "Point", "coordinates": [ -1.6189892, 53.8280216 ] } },
	{ "type": "Feature", "properties": { "osm_id": "3626724745", "name": "Logan Stores", "other_tags": "\"addr:city\"=>\"Leeds\",\"addr:housenumber\"=>\"80\",\"addr:postcode\"=>\"LS16 6LQ\",\"addr:street\"=>\"Otley Old Road\",\"fhrs:id\"=>\"650659\",\"shop\"=>\"convenience\"" }, "geometry": { "type": "Point", "coordinates": [ -1.6039029, 53.8487865 ] } },
	{ "type": "Feature", "properties": { "osm_id": "3626789280", "name": "Nisa Local", "other_tags": "\"addr:city\"=>\"Leeds\",\"addr:housenumber\"=>\"17-19\",\"addr:postcode\"=>\"LS16 7LQ\",\"addr:street\"=>\"Cookridge Lane\",\"addr:suburb\"=>\"Cookridge\",\"brand\"=>\"Nisa Local\",\"brand:wikidata\"=>\"Q16999069\",\"brand:wikipedia\"=>\"en:Nisa (retailer)\",\"fhrs:id\"=>\"319676\",\"shop\"=>\"convenience\"" }, "geometry": { "type": "Point", "coordinates": [ -1.615584, 53.8603687 ] } },