{
"type": "FeatureCollection",
"crs": { "type": "name", "properties": { "name": "urn:ogc:def:crs:OGC:1.3:CRS84" } },
"features": [
	{ "type": "Feature", "properties": { "osm_id": "269032231", "name": "Eccleshill Police Station", "amenity": "police", "other_tags": "\"addr:city\"=>\"Bradford\",\"addr:housename\"=>\"Javelin House\",\"addr:postcode\"=>\"BD10 8SD\",\"addr:street\"=>\"Javelin Close\"" }, "geometry": { "type": "Point", "coordinates": [ -1.7355951, 53.8260661 ] } },
	{ "type": "Feature", "properties": { "osm_id": "300980451", "name": "West Yorkshire Police", "amenity": "police" }, "geometry": { "type": "Point", "coordinates": [ -1.7510976, 53.7880369 ] } },
	{ "type": "Feature", "properties": { "osm_id": "314445893", "name": "Huddersfield Police Station", "amenity": "police", "other_tags": "\"addr:city\"=>\"Huddersfield\"" }, "geometry": { "type": "Point", "coordinates": [ -1.7853887, 53.6432638 ] } },
	{ "type": "Feature", "properties": { "osm_id": "345024384", "name": "British Transport Police", "amenity": "police" }, "geometry": { "type": "Point", "coordinates": [ -1.5461353, 53.7949047 ] } },
	{ "type": "Feature", "properties": { "osm_id": "357751903", "name": "Bridewell Police Station", "amenity": "police" }, "geometry": { "type": "Point", "coordinates": [ -1.5527326, 53.8003617 ] } },
	{ "type": "Feature", "properties": { "osm_id": "422085422", "name": "Normanton Police Station", "amenity": "police", "other_tags": "\"addr:city\"=>\"Normanton\",\"addr:postcode\"=>\"WF6 1FD\",\"addr:street\"=>\"Havertop Lane\"" }, "geometry": { "type": "Point", "coordinates": [ -1.387544, 53.6990764 ] } },
	{ "type": "Feature", "properties": { "osm_id": "430980768", "name": "Shipley Police Station", "amenity": "police" }, "geometry": { "type": "Point", "coordinates": [ -1.7785478, 53.8310022 ] } },
	{ "type": "Feature", "properties": { "osm_id": "498499776", "amenity": "police" }, "geometry": { "type": "Point", "coordinates": [ -1.436167, 53.6613457 ] } },
	{ "type": "Feature", "properties": { "osm_id": "950874523", "name": "Halifax Police Station", "amenity": "police" }, "geometry": { "type": "Point", "coordinates": [ -1.8648595, 53.7263571 ] } },
	{ "type": "Feature", "properties": { "osm_id": "1122562173", "name": "West Yorkshire Police Data Centre", "amenity": "police" }, "geometry": { "type": "Point", "coordinates": [ -1.7257974, 53.7756589 ] } },
	{ "type": "Feature", "properties": { "osm_id": "1208023027", "amenity": "police", "other_tags": "\"entrance\"=>\"yes\"" }, "geometry": { "type": "Point", "coordinates": [ -1.8951192, 53.8016926 ] } },
	{ "type": "Feature", "properties": { "osm_id": "1308069676", "amenity": "police" }, "geometry": { "type": "Point", "coordinates": [ -1.3137726, 53.6910314 ] } },
	{ "type": "Feature", "properties": { "osm_id": "1429962455", "amenity": "police" }, "geometry": { "type": "Point", "coordinates": [ -1.7800972, 53.6633078 ] } },
	{ "type": "Feature", "properties": { "osm_id": "1541252391", "name": "Ilkley Police Station", "amenity": "police" }, "geometry": { "type": "Point", "coordinates": [ -1.8245537, 53.9240132 ] } },
	{ "type": "Feature", "properties": { "osm_id": "1652847045", "amenity": "police" }, "geometry": { "type": "Point", "coordinates": [ -1.7475809, 53.7882104 ] } }
]
}
