{
"type": "FeatureCollection",
"crs": { "type": "name", "properties": { "name": "urn:ogc:def:crs:OGC:1.3:CRS84" } },
"features": [
	{ "type": "Feature", "properties": { "osm_id": "313246931", "name": "AML Computers", "other_tags": "\"shop\"=>\"computer\"" }, "geometry": { "type": "Point", "coordinates": [ -1.5898721, 53.7986937 ] } },
	{ "type": "Feature", "properties": { "osm_id": "320998119", "name": "The Computer Assistant", "other_tags": "\"addr:city\"=>\"Leeds\",\"addr:housenumber\"=>\"96\",\"addr:postcode\"=>\"LS2 7DJ\",\"addr:street\"=>\"Kirkgate\",\"shop\"=>\"computer\"" }, "geometry": { "type": "Point", "coordinates": [ -1.5390031, 53.7961917 ] } },
	{ "type": "Feature", "properties": { "osm_id": "497396118", "name": "Micro City", "other_tags": "\"addr:city\"=>\"Shipley\",\"addr:housenumber\"=>\"45\",\"addr:postcode\"=>\"BD18 3HZ\",\"addr:street\"=>\"Saltaire Road\",\"shop\"=>\"computer\",\"source:addr\"=>\"url\",\"url\"=>\"http:\/\/www.microcity.co.uk\/\"" }, "geometry": { "type": "Point", "coordinates": [ -1.7862684, 53.836139 ] } },
	{ "type": "Feature", "properties": { "osm_id": "538858900", "name": "Digital Activities", "other_tags": "\"shop\"=>\"computer\"" }, "geometry": { "type": "Point", "coordinates": [ -1.6954448, 53.9056126 ] } },
	{ "type": "Feature", "properties": { "osm_id": "687081051", "name": "Capital Cartridge", "other_tags": "\"shop\"=>\"computer\"" }, "geometry": { "type": "Point", "coordinates": [ -1.7121906, 53.7683262 ] } },
	{ "type": "Feature", "properties": { "osm_id": "1535922137", "name": "PC friend", "other_tags": "\"addr:city\"=>\"Huddersfield\",\"addr:country\"=>\"GB\",\"addr:housenumber\"=>\"75\",\"addr:postcode\"=>\"HD1 2TW\",\"addr:street\"=>\"New Street\",\"shop\"=>\"computer\"" }, "geometry": { "type": "Point", "coordinates": [ -1.7831916, 53.6443084 ] } },
	{ "type": "Feature", "properties": { "osm_id": "2107337207", "other_tags": "\"shop\"=>\"computer\"" }, "geometry": { "type": "Point", "coordinates": [ -1.7638202, 53.6435482 ] } },
	{ "type": "Feature", "properties": { "osm_id": "2144729417", "other_tags": "\"shop\"=>\"computer\"" }, "geometry": { "type": "Point", "coordinates": [ -1.544042, 53.7992038 ] } },
	{ "type": "Feature", "properties": { "osm_id": "2353464546", "name": "Fusion Game Xchange", "other_tags": "\"addr:city\"=>\"Otley\",\"addr:country\"=>\"GB\",\"addr:housenumber\"=>\"7\",\"addr:postcode\"=>\"LS21 3AF\",\"addr:street\"=>\"Market Street\",\"is_in:town\"=>\"Otley\",\"phone\"=>\"+44 1943 461384\",\"shop\"=>\"computer\",\"website\"=>\"www.fusiongamez.co.uk\"" }, "geometry": { "type": "Point", "coordinates": [ -1.6928547, 53.9054443 ] } },
	{ "type": "Feature", "properties": { "osm_id": "3424769792", "name": "The Pc Fone Clinic", "other_tags": "\"shop\"=>\"computer\"" }, "geometry": { "type": "Point", "coordinates": [ -1.7823011, 53.6471747 ] } },
	{ "type": "Feature", "properties": { "osm_id": "3718469496", "name": "Yeadon Computers", "other_tags": "\"shop\"=>\"computer\",\"addr:city\"=>\"Yeadon\",\"addr:street\"=>\"Town Street\"" }, "geometry": { "type": "Point", "coordinates": [ -1.6858681, 53.8660361 ] } },
	{ "type": "Feature", "properties": { "osm_id": "4622772474", "name": "Maplin", "other_tags": "\"shop\"=>\"computer\",\"entrance\"=>\"yes\"" }, "geometry": { "type": "Point", "coordinates": [ -1.7674927, 53.6578525 ] } }
]
}
