{
"type": "FeatureCollection",
"crs": { "type": "name", "properties": { "name": "urn:ogc:def:crs:OGC:1.3:CRS84" } },
"features": [
	{ "type": "Feature", "properties": { "osm_id": "333427388", "name": "Magic Number Three", "other_tags": "\"addr:city\"=>\"Shipley\",\"addr:village\"=>\"Saltaire\",\"shop\"=>\"craft\"" }, "geometry": { "type": "Point", "coordinates": [ -1.7898323, 53.8381343 ] } },
	{ "type": "Feature", "properties": { "osm_id": "709276943", "name": "Fred Aldous", "other_tags": "\"addr:city\"=>\"Leeds\",\"addr:housenumber\"=>\"34\",\"addr:postcode\"=>\"LS2 7DR\",\"addr:street\"=>\"Kirkgate\",\"shop\"=>\"craft\"" }, "geometry": { "type": "Point", "coordinates": [ -1.5380799, 53.7960611 ] } },
	{ "type": "Feature", "properties": { "osm_id": "1421148694", "name": "Creative Craft Centre", "other_tags": "\"shop\"=>\"craft\"" }, "geometry": { "type": "Point", "coordinates": [ -1.6300213, 53.6922862 ] } },
	{ "type": "Feature", "properties": { "osm_id": "2134260287", "name": "Art Official", "amenity": "advice", "other_tags": "\"addr:city\"=>\"Leeds\",\"addr:housenumber\"=>\"28\",\"addr:postcode\"=>\"LS2 7DR\",\"addr:street\"=>\"Kirkgate\",\"shop\"=>\"craft\"" }, "geometry": { "type": "Point", "coordinates": [ -1.5386028, 53.7962585 ] } },
	{ "type": "Feature", "properties": { "osm_id": "2143153176", "name": "Samuel Taylor", "other_tags": "\"shop\"=>\"craft\"" }, "geometry": { "type": "Point", "coordinates": [ -1.5412453, 53.7963041 ] } },
	{ "type": "Feature", "properties": { "osm_id": "3191896338", "name": "Hobbycraft", "other_tags": "\"brand\"=>\"Hobbycraft\",\"brand:wikidata\"=>\"Q16984508\",\"brand:wikipedia\"=>\"en:Hobbycraft\",\"shop\"=>\"craft\"" }, "geometry": { "type": "Point", "coordinates": [ -1.7101877, 53.8712318 ] } },
	{ "type": "Feature", "properties": { "osm_id": "3887784736", "name": "Creativities Courtyard", "other_tags": "\"addr:city\"=>\"Leeds\",\"addr:housenumber\"=>\"96A\",\"addr:postcode\"=>\"LS18 4AP\",\"addr:street\"=>\"Town Street\",\"addr:suburb\"=>\"Horsforth\",\"shop\"=>\"craft\"" }, "geometry": { "type": "Point", "coordinates": [ -1.6383291, 53.8393637 ] } },
	{ "type": "Feature", "properties": { "osm_id": "3902978504", "name": "Honey Pottery", "other_tags": "\"addr:city\"=>\"Horsforth\",\"addr:housenumber\"=>\"131\",\"addr:postcode\"=>\"LS18 4QD\",\"addr:street\"=>\"New Road Side\",\"opening_hours\"=>\"Tu-Fr 10:00-17:00; Sa 09:00-18:00; Su 11:00-17:00; Mo Closed\",\"phone\"=>\"+44 113 345 1211\",\"shop\"=>\"craft\",\"website\"=>\"http:\/\/www.honeypottery.co.uk\/\"" }, "geometry": { "type": "Point", "coordinates": [ -1.6435537, 53.8320709 ] } },
	{ "type": "Feature", "properties": { "osm_id": "4411803725", "name": "Etsy", "other_tags": "\"shop\"=>\"craft\"" }, "geometry": { "type": "Point", "coordinates": [ -1.4967758, 53.6832748 ] } }
]
}
