{
"type": "FeatureCollection",
"crs": { "type": "name", "properties": { "name": "urn:ogc:def:crs:OGC:1.3:CRS84" } },
"features": [
	{ "type": "Feature", "properties": { "osm_id": "292238581", "other_tags": "\"shop\"=>\"erotic\"" }, "geometry": { "type": "Point", "coordinates": [ -1.5501768, 53.7707916 ] } },
	{ "type": "Feature", "properties": { "osm_id": "313197511", "name": "Pulse and Cocktails", "other_tags": "\"shop\"=>\"erotic\"" }, "geometry": { "type": "Point", "coordinates": [ -1.5685682, 53.7956908 ] } },
	{ "type": "Feature", "properties": { "osm_id": "333452847", "name": "Nice 'n' Naughty", "other_tags": "\"old_name\"=>\"Clone Zone\",\"shop\"=>\"erotic\"" }, "geometry": { "type": "Point", "coordinates": [ -1.5423616, 53.7952566 ] } },
	{ "type": "Feature", "properties": { "osm_id": "357751953", "name": "Simply Pleasure", "other_tags": "\"addr:city\"=>\"Leeds\",\"addr:housenumber\"=>\"5\",\"addr:postcode\"=>\"LS1 4AF\",\"addr:street\"=>\"Briggate\",\"shop\"=>\"erotic\"" }, "geometry": { "type": "Point", "coordinates": [ -1.5425725, 53.7947461 ] } },
	{ "type": "Feature", "properties": { "osm_id": "5941346467", "name": "Ann Sumers", "other_tags": "\"addr:city\"=>\"Leeds\",\"addr:housenumber\"=>\"36\",\"addr:postcode\"=>\"LS1 6LB\",\"addr:street\"=>\"Lands Lane\",\"shop\"=>\"erotic\"" }, "geometry": { "type": "Point", "coordinates": [ -1.5431674, 53.798776 ] } },
	{ "type": "Feature", "properties": { "osm_id": null, "centroid": { "latitude": 53.672522, "longitude": -1.483837 }, "osm_way_id": "434774472", "name": "Private Shops UK", "building": "yes", "shop": "erotic", "other_tags": "\"addr:housenumber\"=>\"71\",\"addr:postcode\"=>\"WF1 5DX\",\"addr:street\"=>\"Doncaster Road\"" }, "geometry": { "type": "MultiPolygon", "coordinates": [ [ [ [ -1.4838576, 53.6724717 ], [ -1.483911, 53.6724941 ], [ -1.4838167, 53.6725731 ], [ -1.4837632, 53.6725506 ], [ -1.4838576, 53.6724717 ] ] ] ] } }
]
}
