{
"type": "FeatureCollection",
"crs": { "type": "name", "properties": { "name": "urn:ogc:def:crs:OGC:1.3:CRS84" } },
"features": [
	{ "type": "Feature", "properties": { "osm_id": "249263544", "name": "Lincoln Wing - A Block Entrance", "amenity": "hospital", "other_tags": "\"healthcare\"=>\"hospital\"" }, "geometry": { "type": "Point", "coordinates": [ -1.5205128, 53.8067154 ] } },
	{ "type": "Feature", "properties": { "osm_id": "249263546", "name": "St James's Hospital A&E", "amenity": "hospital", "other_tags": "\"addr:city\"=>\"Leeds\",\"addr:postcode\"=>\"LS9 7TF\",\"addr:street\"=>\"Beckett Street\",\"emergency\"=>\"yes\",\"healthcare\"=>\"hospital\",\"phone\"=>\"+44 113 243 3144\"" }, "geometry": { "type": "Point", "coordinates": [ -1.5213303, 53.806396 ] } },
	{ "type": "Feature", "properties": { "osm_id": "249263551", "name": "Cancer Genetics Building", "amenity": "hospital", "other_tags": "\"healthcare\"=>\"hospital\"" }, "geometry": { "type": "Point", "coordinates": [ -1.5188053, 53.8084347 ] } },
	{ "type": "Feature", "properties": { "osm_id": "304990795", "name": "Leeds Dental Institute", "amenity": "hospital", "other_tags": "\"healthcare\"=>\"hospital\"" }, "geometry": { "type": "Point", "coordinates": [ -1.5562922, 53.803263 ] } },
	{ "type": "Feature", "properties": { "osm_id": "426615125", "name": "Yorkshire Clinic", "amenity": "hospital", "other_tags": "\"addr:city\"=>\"Bingley\",\"addr:postcode\"=>\"BD16 1TW\",\"addr:street\"=>\"Bradford Road\",\"description\"=>\"Private hospital\",\"emergency\"=>\"no\",\"operator\"=>\"Ramsay Health care\",\"website\"=>\"https:\/\/www.theyorkshireclinic.co.uk\/\"" }, "geometry": { "type": "Point", "coordinates": [ -1.8178402, 53.8321225 ] } },
	{ "type": "Feature", "properties": { "osm_id": "659971032", "name": "Paul Sykes Urology Centre", "amenity": "hospital", "other_tags": "\"healthcare\"=>\"hospital\"" }, "geometry": { "type": "Point", "coordinates": [ -1.5221743, 53.8076363 ] } },
	{ "type": "Feature", "properties": { "osm_id": "973600756", "name": "Eccleshill NHS Treatment Centre", "amenity": "hospital" }, "geometry": { "type": "Point", "coordinates": [ -1.712072, 53.8238146 ] } },
	{ "type": "Feature", "properties": { "osm_id": "1621881739", "name": "Holme Valley Memorial Hospital", "amenity": "hospital", "other_tags": "\"nhs\"=>\"yes\",\"emergency\"=>\"no\"" }, "geometry": { "type": "Point", "coordinates": [ -1.7845972, 53.5786703 ] } },
	{ "type": "Feature", "properties": { "osm_id": "1710509894", "name": "Holmfirth Doctors", "amenity": "hospital", "other_tags": "\"emergency\"=>\"no\"" }, "geometry": { "type": "Point", "coordinates": [ -1.7837985, 53.5784371 ] } },
	{ "type": "Feature", "properties": { "osm_id": "1710510127", "name": "Oaklands Health Centre", "amenity": "hospital", "other_tags": "\"emergency\"=>\"no\"" }, "geometry": { "type": "Point", "coordinates": [ -1.7843456, 53.5780553 ] } }
]
}
