{
"type": "FeatureCollection",
"crs": { "type": "name", "properties": { "name": "urn:ogc:def:crs:OGC:1.3:CRS84" } },
"features": [
	{ "type": "Feature", "properties": { "osm_id": "27456695", "name": "The Village Shop", "amenity": "post_office", "other_tags": "\"shop\"=>\"convenience\"" }, "geometry": { "type": "Point", "coordinates": [ -1.5107032, 53.8997963 ] } },
	{ "type": "Feature", "properties": { "osm_id": "146657042", "name": "Keiths Grocery", "other_tags": "\"shop\"=>\"convenience\"" }, "geometry": { "type": "Point", "coordinates": [ -1.5409342, 53.8106735 ] } },
	{ "type": "Feature", "properties": { "osm_id": "204035101", "other_tags": "\"shop\"=>\"convenience\"" }, "geometry": { "type": "Point", "coordinates": [ -1.7807031, 53.6457748 ] } },
	{ "type": "Feature", "properties": { "osm_id": "244138884", "name": "Kirkstall Lane Off-licence", "other_tags": "\"addr:housenumber\"=>\"201\",\"addr:postcode\"=>\"LS6 3EJ\",\"addr:street\"=>\"Kirkstall Lane\",\"fhrs:id\"=>\"319904\",\"shop\"=>\"convenience\"" }, "geometry": { "type": "Point", "coordinates": [ -1.5834435, 53.8186251 ] } },
	{ "type": "Feature", "properties": { "osm_id": "244220916", "other_tags": "\"shop\"=>\"convenience\"" }, "geometry": { "type": "Point", "coordinates": [ -1.9256315, 53.7062903 ] } },
	{ "type": "Feature", "properties": { "osm_id": "244220917", "other_tags": "\"shop\"=>\"convenience\"" }, "geometry": { "type": "Point", "coordinates": [ -1.9382563, 53.7053132 ] } },
	{ "type": "Feature", "properties": { "osm_id": "245013881", "name": "Sainsburys Local", "other_tags": "\"addr:city\"=>\"Halifax\",\"addr:country\"=>\"GB\",\"addr:housenumber\"=>\"21\",\"addr:postcode\"=>\"HX2 7NP\",\"addr:street\"=>\"Park Drive\",\"shop\"=>\"convenience\",\"website\"=>\"www.sainsburys.co.uk\"" }, "geometry": { "type": "Point", "coordinates": [ -1.8974243, 53.7152775 ] } },
	{ "type": "Feature", "properties": { "osm_id": "250220095", "name": "Archery Stores", "other_tags": "\"shop\"=>\"convenience\"" }, "geometry": { "type": "Point", "coordinates": [ -1.5472047, 53.8082474 ] } },
	{ "type": "Feature", "properties": { "osm_id": "250250974", "name": "Mona Lisa International Food Store", "other_tags": "\"addr:city\"=>\"Leeds\",\"addr:housenumber\"=>\"12\",\"addr:postcode\"=>\"LS12 3AB\",\"addr:street\"=>\"Town Street\",\"addr:suburb\"=>\"Armley\",\"fhrs:id\"=>\"722468\",\"shop\"=>\"convenience\"" }, "geometry": { "type": "Point", "coordinates": [ -1.5890326, 53.7974063 ] } },
	{ "type": "Feature", "properties": { "osm_id": "250390239", "name": "Monkbridge Off Licence", "other_tags": "\"addr:city\"=>\"Leeds\",\"addr:housenumber\"=>\"38\",\"addr:postcode\"=>\"LS6 4ER\",\"addr:street\"=>\"Monk Bridge Road\",\"shop\"=>\"convenience\"" }, "geometry": { "type": "Point", "coordinates": [ -1.5701099, 53.826083 ] } },
	{ "type": "Feature", "properties": { "osm_id": "250755705", "name": "Stainbeck Stores", "other_tags": "\"addr:city\"=>\"Leeds\",\"addr:housenumber\"=>\"152\",\"addr:postcode\"=>\"LS7 2EA\",\"addr:street\"=>\"Stainbeck Lane\",\"fhrs:id\"=>\"320170\",\"shop\"=>\"convenience\"" }, "geometry": { "type": "Point", "coordinates": [ -1.549422, 53.8290273 ] } },
	{ "type": "Feature", "properties": { "osm_id": "250755706", "name": "Musk News", "other_tags": "\"shop\"=>\"convenience\"" }, "geometry": { "type": "Point", "coordinates": [ -1.5498912, 53.8288193 ] } },
	{ "type": "Feature", "properties": { "osm_id": "250756727", "name": "McColls", "other_tags": "\"addr:city\"=>\"Leeds\",\"addr:housenumber\"=>\"64-66\",\"addr:postcode\"=>\"LS7 2PW\",\"addr:street\"=>\"Stainbeck Road\",\"addr:suburb\"=>\"Meanwood\",\"fhrs:id\"=>\"774201\",\"shop\"=>\"convenience\"" }, "geometry": { "type": "Point", "coordinates": [ -1.560379, 53.8273419 ] } },
	{ "type": "Feature", "properties": { "osm_id": "263814402", "name": "Ruby", "is_in": "Dewsbury, West Yorkshire, England, UK", "other_tags": "\"shop\"=>\"convenience\"" }, "geometry": { "type": "Point", "coordinates": [ -1.6551835, 53.7038157 ] } },
	{ "type": "Feature", "properties": { "osm_id": "267012630", "name": "Barwick Stores and Post Office", "amenity": "post_office", "other_tags": "\"addr:city\"=>\"Leeds\",\"addr:housenumber\"=>\"4-6\",\"addr:postcode\"=>\"LS15 4JQ\",\"addr:street\"=>\"Main Street\",\"addr:suburb\"=>\"Barwick in Elmet\",\"addr:village\"=>\"Barwick In Elmet\",\"opening_hours:post_office\"=>\"Mo-Su 07:30-19:30\",\"ref:pol_id\"=>\"3574\",\"shop\"=>\"convenience\"" }, "geometry": { "type": "Point", "coordinates": [ -1.3943604, 53.8316917 ] } },
	{ "type": "Feature", "properties": { "osm_id": "272005878", "name": "Old Lane Express", "other_tags": "\"addr:city\"=>\"Leeds\",\"addr:housenumber\"=>\"184\",\"addr:postcode\"=>\"LS11 8AG\",\"addr:street\"=>\"Old Lane\",\"addr:suburb\"=>\"Beeston\",\"fhrs:id\"=>\"322226\",\"shop\"=>\"convenience\"" }, "geometry": { "type": "Point", "coordinates": [ -1.5629583, 53.7644221 ] } },
	{ "type": "Feature", "properties": { "osm_id": "274257498", "name": "Londis", "other_tags": "\"addr:city\"=>\"Leeds\",\"addr:housenumber\"=>\"129-133\",\"addr:postcode\"=>\"LS6 2PY\",\"addr:street\"=>\"Woodhouse Street\",\"addr:suburb\"=>\"Woodhouse\",\"fhrs:id\"=>\"550344\",\"shop\"=>\"convenience\"" }, "geometry": { "type": "Point", "coordinates": [ -1.5510776, 53.812729 ] } },
	{ "type": "Feature", "properties": { "osm_id": "279580798", "name": "Station Road Off License", "other_tags": "\"addr:housenumber\"=>\"178\",\"addr:postcode\"=>\"WF5 0JQ\",\"addr:street\"=>\"Station Road\",\"fhrs:id\"=>\"971947\",\"shop\"=>\"convenience\"" }, "geometry": { "type": "Point", "coordinates": [ -1.5705781, 53.6735537 ] } },
	{ "type": "Feature", "properties": { "osm_id": "286367596", "name": "One Stop", "other_tags": "\"addr:city\"=>\"Leeds\",\"addr:housenumber\"=>\"33-35\",\"addr:postcode\"=>\"LS12 3EJ\",\"addr:street\"=>\"Whingate\",\"addr:suburb\"=>\"Armley\",\"fhrs:id\"=>\"371286\",\"shop\"=>\"convenience\"" }, "geometry": { "type": "Point", "coordinates": [ -1.5992978, 53.7946633 ] } },
	{ "type": "Feature", "properties": { "osm_id": "288953368", "name": "One-Stop", "other_tags": "\"addr:city\"=>\"Leeds\",\"addr:housenumber\"=>\"3\",\"addr:postcode\"=>\"LS2 9QA\",\"addr:street\"=>\"Blenheim View\",\"shop\"=>\"convenience\",\"source:addr\"=>\"FHRS Open Data\"" }, "geometry": { "type": "Point", "coordinates": [ -1.551492, 53.8096539 ] } },
	{ "type": "Feature", "properties": { "osm_id": "288963492", "name": "Woodsley Road Londis", "amenity": "post_office", "other_tags": "\"addr:city\"=>\"Leeds\",\"addr:housenumber\"=>\"20\",\"addr:postcode\"=>\"LS3 1DT\",\"addr:street\"=>\"Woodsley Road\",\"addr:suburb\"=>\"Woodhouse\",\"fhrs:id\"=>\"320344\",\"shop\"=>\"convenience\"" }, "geometry": { "type": "Point", "coordinates": [ -1.5687216, 53.8055193 ] } },
	{ "type": "Feature", "properties": { "osm_id": "290433497", "name": "Duncan Stores", "other_tags": "\"addr:city\"=>\"Dewsbury\",\"addr:country\"=>\"GB\",\"addr:housenumber\"=>\"65-67\",\"addr:postcode\"=>\"WF12 8HE\",\"addr:street\"=>\"Princess Lane\",\"addr:suburb\"=>\"Chickenley\",\"fhrs:id\"=>\"228066\",\"shop\"=>\"convenience\",\"source:addr\"=>\"FHRS Open Data\"" }, "geometry": { "type": "Point", "coordinates": [ -1.60324, 53.6901097 ] } },
	{ "type": "Feature", "properties": { "osm_id": "291601294", "name": "Hough Lane Stores", "other_tags": "\"addr:housename\"=>\"The Parade\",\"addr:housenumber\"=>\"3-5\",\"addr:postcode\"=>\"LS13 3RB\",\"addr:street\"=>\"Hough Lane\",\"addr:town\"=>\"Bramley\",\"fhrs:id\"=>\"319851\",\"shop\"=>\"convenience\"" }, "geometry": { "type": "Point", "coordinates": [ -1.6323404, 53.8085949 ] } },
	{ "type": "Feature", "properties": { "osm_id": "292238267", "name": "Turners", "other_tags": "\"addr:city\"=>\"Leeds\",\"addr:housenumber\"=>\"388-390\",\"addr:postcode\"=>\"LS11 7JX\",\"addr:street\"=>\"Dewsbury Road\",\"fhrs:id\"=>\"949040\",\"shop\"=>\"convenience\"" }, "geometry": { "type": "Point", "coordinates": [ -1.5561487, 53.7670739 ] } },
	{ "type": "Feature", "properties": { "osm_id": "292238292", "name": "Stop and Shop", "other_tags": "\"shop\"=>\"convenience\"" }, "geometry": { "type": "Point", "coordinates": [ -1.5530786, 53.7685464 ] } },
	{ "type": "Feature", "properties": { "osm_id": "292238330", "name": "Tek Express", "other_tags": "\"addr:city\"=>\"Leeds\",\"addr:housenumber\"=>\"265\",\"addr:postcode\"=>\"LS11 5HN\",\"addr:street\"=>\"Dewsbury Road\",\"shop\"=>\"convenience\"" }, "geometry": { "type": "Point", "coordinates": [ -1.54566, 53.7745246 ] } },
	{ "type": "Feature", "properties": { "osm_id": "292238600", "other_tags": "\"addr:city\"=>\"Leeds\",\"addr:housenumber\"=>\"334-336\",\"addr:postcode\"=>\"LS11 7DJ\",\"addr:street\"=>\"Dewsbury Road\",\"addr:suburb\"=>\"Hunslet\",\"fhrs:id\"=>\"321762\",\"shop\"=>\"convenience\"" }, "geometry": { "type": "Point", "coordinates": [ -1.5499502, 53.7710143 ] } },
	{ "type": "Feature", "properties": { "osm_id": "293547714", "name": "NPK Stores", "other_tags": "\"addr:city\"=>\"Leeds\",\"addr:housenumber\"=>\"160\",\"addr:postcode\"=>\"LS13 3AD\",\"addr:street\"=>\"Stanningley Road\",\"addr:suburb\"=>\"Bramley\",\"fhrs:id\"=>\"321144\",\"shop\"=>\"convenience\"" }, "geometry": { "type": "Point", "coordinates": [ -1.6267539, 53.8057491 ] } },
	{ "type": "Feature", "properties": { "osm_id": "298051683", "name": "Happy Shopper", "other_tags": "\"shop\"=>\"convenience\"" }, "geometry": { "type": "Point", "coordinates": [ -1.6442693, 53.8073962 ] } },
	{ "type": "Feature", "properties": { "osm_id": "298127816", "name": "Sylhet Continental Foods", "other_tags": "\"addr:city\"=>\"Leeds\",\"addr:housenumber\"=>\"98-100\",\"addr:postcode\"=>\"LS11 6DP\",\"addr:street\"=>\"Lady Pit Lane\",\"fhrs:id\"=>\"1106875\",\"shop\"=>\"convenience\"" }, "geometry": { "type": "Point", "coordinates": [ -1.5473512, 53.7763497 ] } },
	{ "type": "Feature", "properties": { "osm_id": "299515060", "other_tags": "\"shop\"=>\"convenience\"" }, "geometry": { "type": "Point", "coordinates": [ -1.8317831, 53.7087719 ] } },
	{ "type": "Feature", "properties": { "osm_id": "299515727", "other_tags": "\"shop\"=>\"convenience\"" }, "geometry": { "type": "Point", "coordinates": [ -1.8321483, 53.7102209 ] } },
	{ "type": "Feature", "properties": { "osm_id": "300581127", "name": "Beech Stores", "other_tags": "\"addr:city\"=>\"Bradford\",\"addr:housenumber\"=>\"20\",\"addr:postcode\"=>\"BD3 0PW\",\"addr:street\"=>\"Beech Grove\",\"addr:suburb\"=>\"Undercliffe\",\"fhrs:id\"=>\"326129\",\"shop\"=>\"convenience\",\"source:addr\"=>\"FHRS Open Data\"" }, "geometry": { "type": "Point", "coordinates": [ -1.7327352, 53.8029342 ] } },
	{ "type": "Feature", "properties": { "osm_id": "301005481", "name": "Akbar General Food Store", "other_tags": "\"shop\"=>\"convenience\"" }, "geometry": { "type": "Point", "coordinates": [ -1.7586648, 53.777625 ] } },
	{ "type": "Feature", "properties": { "osm_id": "301006025", "name": "Lazeez", "other_tags": "\"addr:city\"=>\"Bradford\",\"addr:housenumber\"=>\"296\",\"addr:postcode\"=>\"BD5 7BB\",\"addr:street\"=>\"Bowling Old Lane\",\"fhrs:id\"=>\"327989\",\"shop\"=>\"convenience\",\"source:addr\"=>\"FHRS Open Data\"" }, "geometry": { "type": "Point", "coordinates": [ -1.756018, 53.7769943 ] } },
	{ "type": "Feature", "properties": { "osm_id": "301011741", "name": "Atique Foodstore", "other_tags": "\"shop\"=>\"convenience\"" }, "geometry": { "type": "Point", "coordinates": [ -1.7570255, 53.7741406 ] } },
	{ "type": "Feature", "properties": { "osm_id": "301222664", "name": "McColls", "other_tags": "\"shop\"=>\"convenience\"" }, "geometry": { "type": "Point", "coordinates": [ -1.7890323, 53.7875715 ] } },
	{ "type": "Feature", "properties": { "osm_id": "301265676", "name": "Horton Park Mini Market", "other_tags": "\"shop\"=>\"convenience\"" }, "geometry": { "type": "Point", "coordinates": [ -1.7760632, 53.78524 ] } },
	{ "type": "Feature", "properties": { "osm_id": "301284478", "name": "Premier", "other_tags": "\"shop\"=>\"convenience\"" }, "geometry": { "type": "Point", "coordinates": [ -1.764357, 53.7829557 ] } },
	{ "type": "Feature", "properties": { "osm_id": "304329354", "name": "Sainsbury's Local", "other_tags": "\"addr:city\"=>\"Leeds\",\"addr:housenumber\"=>\"37-39\",\"addr:postcode\"=>\"LS12 5AS\",\"addr:street\"=>\"Ring Road Farnley\",\"addr:suburb\"=>\"Farnley\",\"fhrs:id\"=>\"321886\",\"opening_hours\"=>\"Mo-Su 07:00-23:00\",\"recycling:batteries\"=>\"yes\",\"shop\"=>\"convenience\"" }, "geometry": { "type": "Point", "coordinates": [ -1.6180343, 53.79221 ] } },
	{ "type": "Feature", "properties": { "osm_id": "306222804", "name": "Ingfield Farm Shop", "other_tags": "\"addr:city\"=>\"Halifax\",\"addr:country\"=>\"GB\",\"addr:hamlet\"=>\"Southowram\",\"addr:housename\"=>\"Law Farm\",\"addr:housenumber\"=>\"1\",\"addr:postcode\"=>\"HX3 9UG\",\"addr:street\"=>\"Law Lane\",\"fhrs:id\"=>\"347062\",\"shop\"=>\"convenience\",\"source:addr\"=>\"FHRS Open Data\"" }, "geometry": { "type": "Point", "coordinates": [ -1.8331307, 53.7146235 ] } },
	{ "type": "Feature", "properties": { "osm_id": "306328546", "name": "Armley Stores", "other_tags": "\"addr:city\"=>\"Leeds\",\"addr:housenumber\"=>\"170\",\"addr:postcode\"=>\"LS12 3RF\",\"addr:street\"=>\"Town Street\",\"fhrs:id\"=>\"467129\",\"shop\"=>\"convenience\"" }, "geometry": { "type": "Point", "coordinates": [ -1.6019182, 53.7977553 ] } },
	{ "type": "Feature", "properties": { "osm_id": "308920992", "name": "Mangla Pricecheck", "other_tags": "\"name:en\"=>\"Kana Peena Supermarket\",\"phone\"=>\"+44 1274 480486\",\"shop\"=>\"convenience\"" }, "geometry": { "type": "Point", "coordinates": [ -1.7724428, 53.8089855 ] } },
	{ "type": "Feature", "properties": { "osm_id": "309147671", "name": "Costcutter", "other_tags": "\"addr:city\"=>\"Shipley\",\"addr:housenumber\"=>\"196-198\",\"addr:postcode\"=>\"BD18 1EA\",\"addr:street\"=>\"Leeds Road\",\"fhrs:id\"=>\"327591\",\"shop\"=>\"convenience\",\"source:addr\"=>\"FHRS Open Data\"" }, "geometry": { "type": "Point", "coordinates": [ -1.7601318, 53.8361132 ] } },
	{ "type": "Feature", "properties": { "osm_id": "309734418", "name": "Premier", "other_tags": "\"addr:city\"=>\"Shipley\",\"addr:housenumber\"=>\"280-282\",\"addr:postcode\"=>\"BD18 1DZ\",\"addr:street\"=>\"Leeds Road\",\"fhrs:id\"=>\"327599\",\"shop\"=>\"convenience\",\"source:addr\"=>\"FHRS Open Data\"" }, "geometry": { "type": "Point", "coordinates": [ -1.7560896, 53.8372608 ] } },
	{ "type": "Feature", "properties": { "osm_id": "311529902", "name": "Londi's", "other_tags": "\"shop\"=>\"convenience\"" }, "geometry": { "type": "Point", "coordinates": [ -1.7366771, 53.8239419 ] } },
	{ "type": "Feature", "properties": { "osm_id": "312483922", "name": "Premier Convenience Store", "other_tags": "\"addr:housenumber\"=>\"111\",\"addr:street\"=>\"Bolton Lane\",\"description\"=>\"BTC payment via Wedeliverlocal.\",\"payment:bitcoin\"=>\"yes\",\"shop\"=>\"convenience\",\"website\"=>\"https:\/\/www.wedeliverlocal.co.uk\/premier-whiteways-store\"" }, "geometry": { "type": "Point", "coordinates": [ -1.7493694, 53.8121386 ] } },
	{ "type": "Feature", "properties": { "osm_id": "312907872", "name": "Best-One", "other_tags": "\"shop\"=>\"convenience\"" }, "geometry": { "type": "Point", "coordinates": [ -1.7391461, 53.8143119 ] } },
	{ "type": "Feature", "properties": { "osm_id": "313540506", "name": "Co-Operative", "other_tags": "\"addr:city\"=>\"Bradford\",\"addr:housenumber\"=>\"289\",\"addr:postcode\"=>\"BD2 3RQ\",\"addr:street\"=>\"Harrogate Road\",\"shop\"=>\"convenience\"" }, "geometry": { "type": "Point", "coordinates": [ -1.720794, 53.8163131 ] } },
	{ "type": "Feature", "properties": { "osm_id": "314447069", "name": "Ryans", "other_tags": "\"addr:city\"=>\"Huddersfield\",\"addr:country\"=>\"GB\",\"addr:housenumber\"=>\"18\",\"addr:postcode\"=>\"HD1 2BR\",\"addr:street\"=>\"Imperial Arcade\",\"fhrs:id\"=>\"228971\",\"shop\"=>\"convenience\",\"source:addr\"=>\"FHRS Open Data\"" }, "geometry": { "type": "Point", "coordinates": [ -1.7814747, 53.6470221 ] } },
	{ "type": "Feature", "properties": { "osm_id": "314673921", "other_tags": "\"shop\"=>\"convenience\"" }, "geometry": { "type": "Point", "coordinates": [ -1.7681757, 53.7916822 ] } },
	{ "type": "Feature", "properties": { "osm_id": "316226177", "name": "Chinese Supermarket", "other_tags": "\"shop\"=>\"convenience\"" }, "geometry": { "type": "Point", "coordinates": [ -1.7584977, 53.7901402 ] } },
	{ "type": "Feature", "properties": { "osm_id": "317020599", "name": "Tesco Express", "other_tags": "\"addr:city\"=>\"Leeds\",\"addr:housenumber\"=>\"2\",\"addr:postcode\"=>\"LS10 1PZ\",\"addr:street\"=>\"The Boulevard\",\"fhrs:id\"=>\"321872\",\"shop\"=>\"convenience\",\"wheelchair\"=>\"yes\"" }, "geometry": { "type": "Point", "coordinates": [ -1.5315628, 53.7897809 ] } },
	{ "type": "Feature", "properties": { "osm_id": "319860947", "name": "Village Shop", "other_tags": "\"addr:city\"=>\"Leeds\",\"addr:housenumber\"=>\"25\",\"addr:postcode\"=>\"LS4 2PP\",\"addr:street\"=>\"Knowle Mount\",\"shop\"=>\"convenience\"" }, "geometry": { "type": "Point", "coordinates": [ -1.5816956, 53.8112483 ] } },
	{ "type": "Feature", "properties": { "osm_id": "319860948", "name": "One-Stop", "other_tags": "\"addr:city\"=>\"Leeds\",\"addr:housenumber\"=>\"345\",\"addr:postcode\"=>\"LS4 2PX\",\"addr:street\"=>\"Burley Road\",\"addr:suburb\"=>\"Burley\",\"fhrs:id\"=>\"319605\",\"shop\"=>\"convenience\"" }, "geometry": { "type": "Point", "coordinates": [ -1.5854813, 53.8104494 ] } },
	{ "type": "Feature", "properties": { "osm_id": "319860952", "name": "best-one", "other_tags": "\"addr:city\"=>\"Leeds\",\"addr:housenumber\"=>\"52\",\"addr:postcode\"=>\"LS4 2PD\",\"addr:street\"=>\"St Michaels Lane\",\"addr:suburb\"=>\"Headingley\",\"fhrs:id\"=>\"322666\",\"shop\"=>\"convenience\"" }, "geometry": { "type": "Point", "coordinates": [ -1.5839779, 53.8111973 ] } },
	{ "type": "Feature", "properties": { "osm_id": "329031792", "name": "Oasis", "other_tags": "\"addr:city\"=>\"Hebden Bridge\",\"addr:country\"=>\"GB\",\"addr:housename\"=>\"Carlton Chambers\",\"addr:housenumber\"=>\"4\",\"addr:postcode\"=>\"HX7 8ER\",\"addr:street\"=>\"Crown Street\",\"fhrs:id\"=>\"348801\",\"shop\"=>\"convenience\",\"source:addr\"=>\"FHRS Open Data\"" }, "geometry": { "type": "Point", "coordinates": [ -2.0123681, 53.7416405 ] } },
	{ "type": "Feature", "properties": { "osm_id": "329031797", "name": "Spar", "other_tags": "\"shop\"=>\"convenience\"" }, "geometry": { "type": "Point", "coordinates": [ -2.0126035, 53.7415178 ] } },
	{ "type": "Feature", "properties": { "osm_id": "330071181", "name": "Armley Convenience Store", "other_tags": "\"addr:city\"=>\"Leeds\",\"addr:housenumber\"=>\"57-59\",\"addr:postcode\"=>\"LS12 1XD\",\"addr:street\"=>\"Town Street\",\"fhrs:id\"=>\"321952\",\"shop\"=>\"convenience\"" }, "geometry": { "type": "Point", "coordinates": [ -1.59121, 53.7965548 ] } },
	{ "type": "Feature", "properties": { "osm_id": "331654408", "name": "Town Street News", "other_tags": "\"addr:city\"=>\"Leeds\",\"addr:housenumber\"=>\"152-152a\",\"addr:postcode\"=>\"LS12 3RF\",\"addr:street\"=>\"Town Street\",\"fhrs:id\"=>\"323365\",\"shop\"=>\"convenience\"" }, "geometry": { "type": "Point", "coordinates": [ -1.6009051, 53.7976367 ] } },
	{ "type": "Feature", "properties": { "osm_id": "332328172", "name": "J. News", "other_tags": "\"addr:city\"=>\"Leeds\",\"addr:housenumber\"=>\"1-3\",\"addr:postcode\"=>\"LS5 3JT\",\"addr:street\"=>\"Morris Lane\",\"fhrs:id\"=>\"319980\",\"shop\"=>\"convenience\"" }, "geometry": { "type": "Point", "coordinates": [ -1.5990148, 53.8166829 ] } },
	{ "type": "Feature", "properties": { "osm_id": "333452847", "name": "Briggate Convenience Store", "other_tags": "\"addr:city\"=>\"Leeds\",\"addr:housenumber\"=>\"164\",\"addr:postcode\"=>\"LS1 6LY\",\"addr:street\"=>\"Briggate\",\"old_name\"=>\"Nice 'n' Naughty\",\"shop\"=>\"convenience\"" }, "geometry": { "type": "Point", "coordinates": [ -1.5423616, 53.7952566 ] } },
	{ "type": "Feature", "properties": { "osm_id": "343108214", "name": "Heights Local Convenience Store", "other_tags": "\"addr:city\"=>\"Leeds\",\"addr:housenumber\"=>\"30-32\",\"addr:postcode\"=>\"LS12 3SU\",\"addr:street\"=>\"Heights Drive\",\"addr:suburb\"=>\"Armley\",\"brand\"=>\"Best-One\",\"fhrs:id\"=>\"953903\",\"shop\"=>\"convenience\"" }, "geometry": { "type": "Point", "coordinates": [ -1.6164207, 53.796054 ] } },
	{ "type": "Feature", "properties": { "osm_id": "349343427", "other_tags": "\"addr:city\"=>\"Leeds\",\"addr:housenumber\"=>\"51-53\",\"addr:postcode\"=>\"LS13 1AJ\",\"addr:street\"=>\"Summerfield Drive\",\"addr:suburb\"=>\"Bramley\",\"fhrs:id\"=>\"1018430\",\"shop\"=>\"convenience\"" }, "geometry": { "type": "Point", "coordinates": [ -1.6496927, 53.8136347 ] } },
	{ "type": "Feature", "properties": { "osm_id": "352868745", "name": "Mistry's Superette", "other_tags": "\"addr:city\"=>\"Leeds\",\"addr:housename\"=>\"68\",\"addr:postcode\"=>\"LS6 1DD\",\"addr:street\"=>\"Manor Drive\",\"fhrs:id\"=>\"319949\",\"shop\"=>\"convenience\"" }, "geometry": { "type": "Point", "coordinates": [ -1.5739461, 53.814905 ] } },
	{ "type": "Feature", "properties": { "osm_id": "354691444", "other_tags": "\"shop\"=>\"convenience\"" }, "geometry": { "type": "Point", "coordinates": [ -1.8293088, 53.8298092 ] } },
	{ "type": "Feature", "properties": { "osm_id": "354734696", "name": "SAFA", "other_tags": "\"shop\"=>\"convenience\",\"fhrs:id\"=>\"687576\",\"addr:city\"=>\"Leeds\",\"addr:street\"=>\"Raglan Road\",\"source:addr\"=>\"FHRS Open Data\",\"addr:postcode\"=>\"LS2 9DZ\",\"addr:housenumber\"=>\"73\"" }, "geometry": { "type": "Point", "coordinates": [ -1.5560621, 53.8109634 ] } },
	{ "type": "Feature", "properties": { "osm_id": "354734707", "name": "best-one", "other_tags": "\"shop\"=>\"convenience\"" }, "geometry": { "type": "Point", "coordinates": [ -1.5574825, 53.8104744 ] } },
	{ "type": "Feature", "properties": { "osm_id": "356074101", "name": "Nisa Local", "other_tags": "\"addr:city\"=>\"Leeds\",\"addr:housenumber\"=>\"41-45\",\"addr:postcode\"=>\"LS12 5AA\",\"addr:street\"=>\"Cross Lane\",\"fhrs:id\"=>\"319706\",\"opening_hours\"=>\"Mo-Sa 07:00-21:00; Su 09:00-21:00; PH 09:00-21:00\",\"operator\"=>\"Carlos Superstores Ltd.\",\"shop\"=>\"convenience\",\"website\"=>\"http:\/\/www.nisalocally.co.uk\/store\/loco-1\"" }, "geometry": { "type": "Point", "coordinates": [ -1.6192448, 53.7870812 ] } },
	{ "type": "Feature", "properties": { "osm_id": "356075695", "name": "Martin's Mini-Market", "other_tags": "\"shop\"=>\"convenience\"" }, "geometry": { "type": "Point", "coordinates": [ -1.6099613, 53.7855706 ] } },
	{ "type": "Feature", "properties": { "osm_id": "358505199", "name": "Spar", "other_tags": "\"shop\"=>\"convenience\"" }, "geometry": { "type": "Point", "coordinates": [ -1.7574551, 53.7822395 ] } },
	{ "type": "Feature", "properties": { "osm_id": "370074535", "name": "Smiffies", "other_tags": "\"shop\"=>\"convenience\",\"fhrs:id\"=>\"550346\",\"addr:street\"=>\"Church Street\",\"addr:postcode\"=>\"LS26 8RE\"" }, "geometry": { "type": "Point", "coordinates": [ -1.4513283, 53.7570262 ] } },
	{ "type": "Feature", "properties": { "osm_id": "370074834", "name": "Church Street Post Office", "amenity": "post_office", "other_tags": "\"brand\"=>\"Nisa\",\"shop\"=>\"convenience\"" }, "geometry": { "type": "Point", "coordinates": [ -1.4484665, 53.7576012 ] } },
	{ "type": "Feature", "properties": { "osm_id": "370562459", "amenity": "fuel", "other_tags": "\"shop\"=>\"convenience\",\"fuel:lpg\"=>\"yes\",\"operator\"=>\"Jet\",\"wheelchair\"=>\"limited\",\"fuel:diesel\"=>\"yes\",\"fuel:octane_95\"=>\"yes\"" }, "geometry": { "type": "Point", "coordinates": [ -1.9138518, 53.8565819 ] } },
	{ "type": "Feature", "properties": { "osm_id": "380787209", "other_tags": "\"addr:city\"=>\"Leeds\",\"addr:postcode\"=>\"LS27 9NU\",\"addr:street\"=>\"Victoria Road\",\"addr:suburb\"=>\"Morley\",\"atm\"=>\"yes\",\"fhrs:id\"=>\"801129\",\"operator\"=>\"Nisa Local\",\"shop\"=>\"convenience\"" }, "geometry": { "type": "Point", "coordinates": [ -1.6014409, 53.7522329 ] } },
	{ "type": "Feature", "properties": { "osm_id": "382568481", "name": "Patson", "other_tags": "\"addr:city\"=>\"Bradford\",\"addr:housenumber\"=>\"87-89\",\"addr:postcode\"=>\"BD8 9DS\",\"addr:street\"=>\"Whetley Lane\",\"fhrs:id\"=>\"324798\",\"shop\"=>\"convenience\",\"source:addr\"=>\"FHRS Open Data\"" }, "geometry": { "type": "Point", "coordinates": [ -1.7798496, 53.802376 ] } },
	{ "type": "Feature", "properties": { "osm_id": "386044984", "amenity": "fuel", "other_tags": "\"shop\"=>\"convenience\",\"operator\"=>\"BP\"" }, "geometry": { "type": "Point", "coordinates": [ -1.6291144, 53.7146784 ] } },
	{ "type": "Feature", "properties": { "osm_id": "389950786", "name": "Premier Bhambra Convenience Store", "other_tags": "\"addr:city\"=>\"Leeds\",\"addr:housenumber\"=>\"93-95\",\"addr:postcode\"=>\"LS10 4JD\",\"addr:street\"=>\"Throstle Lane\",\"fhrs:id\"=>\"467121\",\"shop\"=>\"convenience\"" }, "geometry": { "type": "Point", "coordinates": [ -1.5497046, 53.7415875 ] } },
	{ "type": "Feature", "properties": { "osm_id": "390942234", "name": "Zayns Mini Market", "other_tags": "\"addr:city\"=>\"Leeds\",\"addr:housenumber\"=>\"162\",\"addr:postcode\"=>\"LS11 7DP\",\"addr:street\"=>\"Burlington Road\",\"addr:suburb\"=>\"Beeston\",\"fhrs:id\"=>\"946027\",\"shop\"=>\"convenience\"" }, "geometry": { "type": "Point", "coordinates": [ -1.5529713, 53.7742328 ] } },
	{ "type": "Feature", "properties": { "osm_id": "391301752", "name": "Saeid Bros Continental Halal Foods", "other_tags": "\"addr:city\"=>\"Leeds\",\"addr:housenumber\"=>\"35\",\"addr:postcode\"=>\"LS11 6EA\",\"addr:street\"=>\"Rowland Road\",\"addr:suburb\"=>\"Hunslet\",\"shop\"=>\"convenience\"" }, "geometry": { "type": "Point", "coordinates": [ -1.5486684, 53.7758651 ] } },
	{ "type": "Feature", "properties": { "osm_id": "391577797", "name": "Headlands", "amenity": "fuel", "other_tags": "\"shop\"=>\"convenience\",\"operator\"=>\"murco\"" }, "geometry": { "type": "Point", "coordinates": [ -1.8153274, 53.7301369 ] } },
	{ "type": "Feature", "properties": { "osm_id": "392047381", "name": "Raja Brothers", "other_tags": "\"addr:city\"=>\"Leeds\",\"addr:housenumber\"=>\"105\",\"addr:postcode\"=>\"LS11 6EP\",\"addr:street\"=>\"Lodge Lane\",\"addr:suburb\"=>\"Beeston\",\"fhrs:id\"=>\"319926\",\"shop\"=>\"convenience\"" }, "geometry": { "type": "Point", "coordinates": [ -1.5519986, 53.7752618 ] } },
	{ "type": "Feature", "properties": { "osm_id": "392047408", "name": "Dawson Stores", "other_tags": "\"shop\"=>\"convenience\",\"fhrs:id\"=>\"319714\",\"addr:city\"=>\"Leeds\",\"addr:street\"=>\"Dawson Road\",\"addr:postcode\"=>\"LS11 7AS\",\"addr:housenumber\"=>\"2a\"" }, "geometry": { "type": "Point", "coordinates": [ -1.5553382, 53.7768791 ] } },
	{ "type": "Feature", "properties": { "osm_id": "400962827", "name": "Super Savings General Stores", "other_tags": "\"shop\"=>\"convenience\"" }, "geometry": { "type": "Point", "coordinates": [ -1.554144, 53.7775452 ] } },
	{ "type": "Feature", "properties": { "osm_id": "400962828", "other_tags": "\"shop\"=>\"convenience\"" }, "geometry": { "type": "Point", "coordinates": [ -1.5545139, 53.7777714 ] } },
	{ "type": "Feature", "properties": { "osm_id": "400962845", "name": "The Malvern Shop", "other_tags": "\"shop\"=>\"convenience\",\"fhrs:id\"=>\"319947\",\"addr:city\"=>\"Leeds\",\"addr:street\"=>\"Malvern Road\",\"addr:postcode\"=>\"LS11 6AH\",\"addr:housenumber\"=>\"161\"" }, "geometry": { "type": "Point", "coordinates": [ -1.552553, 53.7798272 ] } },
	{ "type": "Feature", "properties": { "osm_id": "405435121", "other_tags": "\"shop\"=>\"convenience\"" }, "geometry": { "type": "Point", "coordinates": [ -1.557253, 53.7794872 ] } },
	{ "type": "Feature", "properties": { "osm_id": "410920473", "name": "Bownass Newsagents", "other_tags": "\"shop\"=>\"convenience\"" }, "geometry": { "type": "Point", "coordinates": [ -1.6263035, 53.7580012 ] } },
	{ "type": "Feature", "properties": { "osm_id": "410947913", "name": "Moorside News", "other_tags": "\"shop\"=>\"convenience\"" }, "geometry": { "type": "Point", "coordinates": [ -1.6584764, 53.7522831 ] } },
	{ "type": "Feature", "properties": { "osm_id": "411901898", "name": "Church View Stores", "other_tags": "\"shop\"=>\"convenience\"" }, "geometry": { "type": "Point", "coordinates": [ -1.4552705, 53.7528498 ] } },
	{ "type": "Feature", "properties": { "osm_id": "413229997", "name": "Willans Road Mini Market", "other_tags": "\"shop\"=>\"convenience\",\"alcohol\"=>\"yes\"" }, "geometry": { "type": "Point", "coordinates": [ -1.6360703, 53.6936845 ] } },
	{ "type": "Feature", "properties": { "osm_id": "413272702", "name": "Appletree Stores", "other_tags": "\"addr:city\"=>\"Bradford\",\"addr:housenumber\"=>\"187a\",\"addr:postcode\"=>\"BD11 1BE\",\"addr:street\"=>\"Whitehall Road\",\"fhrs:id\"=>\"897854\",\"shop\"=>\"convenience\"" }, "geometry": { "type": "Point", "coordinates": [ -1.6691684, 53.7540583 ] } },
	{ "type": "Feature", "properties": { "osm_id": "413587912", "name": "Moor Lane Mini-Market", "other_tags": "\"addr:city\"=>\"Bradford\",\"addr:hamlet\"=>\"Birkenshaw\",\"addr:housenumber\"=>\"262\",\"addr:postcode\"=>\"BD11 2HH\",\"addr:street\"=>\"Moor Lane\",\"fhrs:id\"=>\"228006\",\"shop\"=>\"convenience\",\"source:addr\"=>\"FHRS Open Data\"" }, "geometry": { "type": "Point", "coordinates": [ -1.6815852, 53.7454083 ] } },
	{ "type": "Feature", "properties": { "osm_id": "413588087", "name": "Whitehall Stores", "other_tags": "\"shop\"=>\"convenience\"" }, "geometry": { "type": "Point", "coordinates": [ -1.6875868, 53.7484216 ] } },
	{ "type": "Feature", "properties": { "osm_id": "414633584", "name": "Springfield Stores", "other_tags": "\"addr:city\"=>\"Bradford\",\"addr:housenumber\"=>\"171\",\"addr:postcode\"=>\"BD10 8SN\",\"addr:street\"=>\"Bradford Road\",\"addr:village\"=>\"Idle\",\"fhrs:id\"=>\"326644\",\"shop\"=>\"convenience\",\"source:addr\"=>\"FHRS Open Data\"" }, "geometry": { "type": "Point", "coordinates": [ -1.7322876, 53.8287001 ] } },
	{ "type": "Feature", "properties": { "osm_id": "414998933", "name": "Arthington Stores", "other_tags": "\"addr:city\"=>\"Leeds\",\"addr:housenumber\"=>\"15\",\"addr:postcode\"=>\"LS10 2LU\",\"addr:street\"=>\"Arthington Avenue\",\"fhrs:id\"=>\"319525\",\"shop\"=>\"convenience\"" }, "geometry": { "type": "Point", "coordinates": [ -1.5354658, 53.7731434 ] } },
	{ "type": "Feature", "properties": { "osm_id": "418169001", "other_tags": "\"shop\"=>\"convenience\"" }, "geometry": { "type": "Point", "coordinates": [ -1.7302098, 53.8328271 ] } },
	{ "type": "Feature", "properties": { "osm_id": "423818300", "name": "The Co-operative Food", "other_tags": "\"shop\"=>\"convenience\",\"operator\"=>\"The Co-operative Group\"" }, "geometry": { "type": "Point", "coordinates": [ -1.7299294, 53.8336162 ] } },
	{ "type": "Feature", "properties": { "osm_id": "427819402", "name": "Charlie's Supersave", "other_tags": "\"shop\"=>\"convenience\"" }, "geometry": { "type": "Point", "coordinates": [ -1.733906, 53.8426683 ] } },
	{ "type": "Feature", "properties": { "osm_id": "430953151", "name": "Lower Wortley Mini Market", "other_tags": "\"shop\"=>\"convenience\"" }, "geometry": { "type": "Point", "coordinates": [ -1.6021261, 53.7836352 ] } },
	{ "type": "Feature", "properties": { "osm_id": "433857928", "name": "Holbeck Wines", "other_tags": "\"addr:city\"=>\"Leeds\",\"addr:housenumber\"=>\"51-52\",\"addr:postcode\"=>\"LS11 9LH\",\"addr:street\"=>\"Top Moor Side\",\"fhrs:id\"=>\"320249\",\"shop\"=>\"convenience\"" }, "geometry": { "type": "Point", "coordinates": [ -1.5594693, 53.7840985 ] } },
	{ "type": "Feature", "properties": { "osm_id": "441335657", "name": "Best-One Convenience Store", "other_tags": "\"addr:housenumber\"=>\"3\",\"addr:postcode\"=>\"LS28 8AZ\",\"addr:street\"=>\"Southroyd Parade\",\"addr:town\"=>\"Pudsey\",\"fhrs:id\"=>\"322706\",\"shop\"=>\"convenience\"" }, "geometry": { "type": "Point", "coordinates": [ -1.6628557, 53.7862522 ] } },
	{ "type": "Feature", "properties": { "osm_id": "442014318", "other_tags": "\"shop\"=>\"convenience\"" }, "geometry": { "type": "Point", "coordinates": [ -1.6361343, 53.6309096 ] } },
	{ "type": "Feature", "properties": { "osm_id": "442720668", "name": "co-op", "other_tags": "\"shop\"=>\"convenience\"" }, "geometry": { "type": "Point", "coordinates": [ -1.4683682, 53.7964028 ] } },
	{ "type": "Feature", "properties": { "osm_id": "443776002", "name": "Dawn's Delight", "other_tags": "\"shop\"=>\"convenience\"" }, "geometry": { "type": "Point", "coordinates": [ -1.4022518, 53.6783507 ] } },
	{ "type": "Feature", "properties": { "osm_id": "444623062", "name": "One Stop Shop", "other_tags": "\"shop\"=>\"convenience\"" }, "geometry": { "type": "Point", "coordinates": [ -1.6528621, 53.7901674 ] } },
	{ "type": "Feature", "properties": { "osm_id": "444623104", "name": "Off License & General Store", "other_tags": "\"shop\"=>\"convenience\"" }, "geometry": { "type": "Point", "coordinates": [ -1.6499373, 53.7989592 ] } },
	{ "type": "Feature", "properties": { "osm_id": "444623183", "name": "Kent Road Mini Market", "other_tags": "\"addr:housenumber\"=>\"127\",\"addr:postcode\"=>\"LS28 9EG\",\"addr:street\"=>\"Kent Road\",\"addr:town\"=>\"Pudsey\",\"fhrs:id\"=>\"322324\",\"shop\"=>\"convenience\"" }, "geometry": { "type": "Point", "coordinates": [ -1.652584, 53.7927753 ] } },
	{ "type": "Feature", "properties": { "osm_id": "445078656", "name": "Tesco Express", "other_tags": "\"shop\"=>\"convenience\"" }, "geometry": { "type": "Point", "coordinates": [ -1.8294525, 53.7914673 ] } },
	{ "type": "Feature", "properties": { "osm_id": "445846761", "name": "Londis", "other_tags": "\"shop\"=>\"convenience\",\"fhrs:id\"=>\"283737\",\"addr:city\"=>\"Wakefield\",\"addr:street\"=>\"Weeland Road\",\"addr:postcode\"=>\"WF4 1DA\",\"addr:housenumber\"=>\"75\"" }, "geometry": { "type": "Point", "coordinates": [ -1.4128393, 53.6680981 ] } },
	{ "type": "Feature", "properties": { "osm_id": "446277774", "name": "Wortley Stores", "other_tags": "\"shop\"=>\"convenience\"" }, "geometry": { "type": "Point", "coordinates": [ -1.5955818, 53.7933862 ] } },
	{ "type": "Feature", "properties": { "osm_id": "446308495", "other_tags": "\"shop\"=>\"convenience\",\"wheelchair\"=>\"no\"" }, "geometry": { "type": "Point", "coordinates": [ -1.9155619, 53.8688085 ] } },
	{ "type": "Feature", "properties": { "osm_id": "448707593", "name": "Waterloo Off License & Convenience Store", "other_tags": "\"addr:city\"=>\"Leeds\",\"addr:housenumber\"=>\"83\",\"addr:postcode\"=>\"LS28 8DF\",\"addr:street\"=>\"Waterloo Road\",\"addr:suburb\"=>\"Pudsey\",\"fhrs:id\"=>\"467201\",\"shop\"=>\"convenience\"" }, "geometry": { "type": "Point", "coordinates": [ -1.6848287, 53.796171 ] } },
	{ "type": "Feature", "properties": { "osm_id": "448707828", "name": "Onestop Convience Stores", "other_tags": "\"addr:housenumber\"=>\"68\",\"addr:postcode\"=>\"LS28 8LE\",\"addr:street\"=>\"Galloway Lane\",\"addr:suburb\"=>\"Stanningley\",\"addr:town\"=>\"Pudsey\",\"fhrs:id\"=>\"320946\",\"shop\"=>\"convenience\"" }, "geometry": { "type": "Point", "coordinates": [ -1.6900611, 53.8011035 ] } },
	{ "type": "Feature", "properties": { "osm_id": "451961476", "name": "Fagley Off Licence", "other_tags": "\"addr:city\"=>\"Bradford\",\"addr:housenumber\"=>\"1\",\"addr:postcode\"=>\"BD2 3QT\",\"addr:street\"=>\"Fraisthorpe Mead\",\"fhrs:id\"=>\"324939\",\"shop\"=>\"convenience\",\"source:addr\"=>\"FHRS Open Data\"" }, "geometry": { "type": "Point", "coordinates": [ -1.7141536, 53.8097515 ] } },
	{ "type": "Feature", "properties": { "osm_id": "455593489", "name": "Richardshaw Lane General Store", "other_tags": "\"addr:housenumber\"=>\"23\",\"addr:postcode\"=>\"LS28 7NB\",\"addr:street\"=>\"Richardshaw Lane\",\"addr:town\"=>\"Pudsey\",\"fhrs:id\"=>\"778668\",\"shop\"=>\"convenience\"" }, "geometry": { "type": "Point", "coordinates": [ -1.6640818, 53.7984111 ] } },
	{ "type": "Feature", "properties": { "osm_id": "493683537", "name": "Londis", "other_tags": "\"addr:city\"=>\"Ilkley\",\"addr:housenumber\"=>\"52\",\"addr:postcode\"=>\"LS29 6JA\",\"addr:street\"=>\"Cleasby Road\",\"addr:village\"=>\"Menston\",\"fhrs:id\"=>\"327432\",\"shop\"=>\"convenience\",\"source:addr\"=>\"FHRS Open Data\"" }, "geometry": { "type": "Point", "coordinates": [ -1.7375063, 53.8888504 ] } },
	{ "type": "Feature", "properties": { "osm_id": "497396140", "name": "The Spa", "other_tags": "\"addr:city\"=>\"Shipley\",\"addr:housenumber\"=>\"20-21\",\"addr:postcode\"=>\"BD18 4LT\",\"addr:street\"=>\"Titus Street\",\"addr:village\"=>\"Saltaire\",\"fhrs:id\"=>\"327857\",\"opening_hours\"=>\"Mo-Sa 08:00-21:30; Su 10:00-21:30\",\"shop\"=>\"convenience\",\"source:addr\"=>\"FHRS Open Data\"" }, "geometry": { "type": "Point", "coordinates": [ -1.7911284, 53.8367222 ] } },
	{ "type": "Feature", "properties": { "osm_id": "513911354", "name": "New Crofton Post Office and General Store", "amenity": "post_office", "other_tags": "\"shop\"=>\"convenience\"" }, "geometry": { "type": "Point", "coordinates": [ -1.4228118, 53.6533121 ] } },
	{ "type": "Feature", "properties": { "osm_id": "518142636", "name": "Ganners Convenience Store", "other_tags": "\"addr:city\"=>\"Leeds\",\"addr:housenumber\"=>\"10\",\"addr:postcode\"=>\"LS13 2NZ\",\"addr:street\"=>\"Ganners Hill\",\"addr:suburb\"=>\"Bramley\",\"fhrs:id\"=>\"321876\",\"shop\"=>\"convenience\"" }, "geometry": { "type": "Point", "coordinates": [ -1.6283434, 53.8186119 ] } },
	{ "type": "Feature", "properties": { "osm_id": "523448772", "name": "Hirstwood Stores", "other_tags": "\"addr:city\"=>\"Shipley\",\"addr:housenumber\"=>\"43\",\"addr:postcode\"=>\"BD18 4BU\",\"addr:street\"=>\"Hirst Wood Road\",\"addr:village\"=>\"Saltaire\",\"fhrs:id\"=>\"327551\",\"shop\"=>\"convenience\",\"source:addr\"=>\"FHRS Open Data\"" }, "geometry": { "type": "Point", "coordinates": [ -1.8021488, 53.8375728 ] } },
	{ "type": "Feature", "properties": { "osm_id": "524472779", "name": "Atah Food Store", "other_tags": "\"shop\"=>\"convenience\"" }, "geometry": { "type": "Point", "coordinates": [ -1.9136648, 53.8602719 ] } },
	{ "type": "Feature", "properties": { "osm_id": "529017088", "amenity": "post_office", "other_tags": "\"shop\"=>\"convenience\"" }, "geometry": { "type": "Point", "coordinates": [ -1.7186234, 53.6857831 ] } },
	{ "type": "Feature", "properties": { "osm_id": "529090783", "name": "Karen's Flower & Wholefoods", "other_tags": "\"shop\"=>\"convenience\"" }, "geometry": { "type": "Point", "coordinates": [ -1.7026949, 53.7579347 ] } },
	{ "type": "Feature", "properties": { "osm_id": "533729959", "name": "golocalextra", "other_tags": "\"shop\"=>\"convenience\"" }, "geometry": { "type": "Point", "coordinates": [ -1.8555536, 53.5970783 ] } },
	{ "type": "Feature", "properties": { "osm_id": "549244735", "other_tags": "\"shop\"=>\"convenience\"" }, "geometry": { "type": "Point", "coordinates": [ -1.6961505, 53.7596892 ] } },
	{ "type": "Feature", "properties": { "osm_id": "549245413", "name": "Birkenshaw Convenience Store", "other_tags": "\"addr:city\"=>\"Bradford\",\"addr:hamlet\"=>\"Birkenshaw\",\"addr:housenumber\"=>\"2\",\"addr:postcode\"=>\"BD11 2JX\",\"addr:street\"=>\"Old Lane\",\"fhrs:id\"=>\"226255\",\"shop\"=>\"convenience\",\"source:addr\"=>\"FHRS Open Data\"" }, "geometry": { "type": "Point", "coordinates": [ -1.6854154, 53.7495016 ] } },
	{ "type": "Feature", "properties": { "osm_id": "572311162", "other_tags": "\"shop\"=>\"convenience\"" }, "geometry": { "type": "Point", "coordinates": [ -1.739973, 53.80575 ] } },
	{ "type": "Feature", "properties": { "osm_id": "656735953", "name": "Gobbles Sandwich Shop", "other_tags": "\"addr:city\"=>\"Bradford\",\"addr:housenumber\"=>\"101\",\"addr:postcode\"=>\"BD4 6AW\",\"addr:street\"=>\"Bierley Lane\",\"fhrs:id\"=>\"326268\",\"shop\"=>\"convenience\",\"source:addr\"=>\"FHRS Open Data\"" }, "geometry": { "type": "Point", "coordinates": [ -1.7321758, 53.7654915 ] } },
	{ "type": "Feature", "properties": { "osm_id": "656735968", "name": "Chatha's", "other_tags": "\"shop\"=>\"convenience\"" }, "geometry": { "type": "Point", "coordinates": [ -1.7323692, 53.7655337 ] } },
	{ "type": "Feature", "properties": { "osm_id": "656736083", "name": "Your Local Convenience Store", "other_tags": "\"shop\"=>\"convenience\"" }, "geometry": { "type": "Point", "coordinates": [ -1.729283, 53.7640956 ] } },
	{ "type": "Feature", "properties": { "osm_id": "656736306", "name": "Bierley Superstore", "other_tags": "\"addr:city\"=>\"Bradford\",\"addr:housenumber\"=>\"67-73\",\"addr:postcode\"=>\"BD4 6AX\",\"addr:street\"=>\"Hambledon Avenue\",\"fhrs:id\"=>\"325262\",\"shop\"=>\"convenience\",\"source:addr\"=>\"FHRS Open Data\"" }, "geometry": { "type": "Point", "coordinates": [ -1.7302534, 53.7668067 ] } },
	{ "type": "Feature", "properties": { "osm_id": "656736536", "name": "The Tuk Shop", "other_tags": "\"addr:city\"=>\"Bradford\",\"addr:housenumber\"=>\"30\",\"addr:postcode\"=>\"BD4 6JD\",\"addr:street\"=>\"Dawson Lane\",\"addr:village\"=>\"Bierley\",\"fhrs:id\"=>\"328117\",\"shop\"=>\"convenience\",\"source:addr\"=>\"FHRS Open Data\"" }, "geometry": { "type": "Point", "coordinates": [ -1.7221718, 53.7692278 ] } },
	{ "type": "Feature", "properties": { "osm_id": "676314835", "other_tags": "\"shop\"=>\"convenience\"" }, "geometry": { "type": "Point", "coordinates": [ -1.7306349, 53.657062 ] } },
	{ "type": "Feature", "properties": { "osm_id": "676622175", "other_tags": "\"shop\"=>\"convenience\"" }, "geometry": { "type": "Point", "coordinates": [ -1.7037128, 53.7654969 ] } },
	{ "type": "Feature", "properties": { "osm_id": "676622746", "name": "M.N. & D.M. Patel", "other_tags": "\"shop\"=>\"convenience\"" }, "geometry": { "type": "Point", "coordinates": [ -1.705365, 53.7756964 ] } },
	{ "type": "Feature", "properties": { "osm_id": "676623013", "name": "Ash's Ryecroft Village Store", "other_tags": "\"shop\"=>\"convenience\"" }, "geometry": { "type": "Point", "coordinates": [ -1.7023637, 53.7727578 ] } },
	{ "type": "Feature", "properties": { "osm_id": "683271078", "name": "Polish Food Store", "other_tags": "\"addr:city\"=>\"Leeds\",\"addr:housenumber\"=>\"55a\",\"addr:postcode\"=>\"LS11 9LH\",\"addr:street\"=>\"Top Moor Side\",\"fhrs:id\"=>\"1093495\",\"shop\"=>\"convenience\"" }, "geometry": { "type": "Point", "coordinates": [ -1.5595051, 53.7842641 ] } },
	{ "type": "Feature", "properties": { "osm_id": "683271082", "name": "Premier", "other_tags": "\"addr:city\"=>\"Leeds\",\"addr:housenumber\"=>\"60\",\"addr:postcode\"=>\"LS11 9LH\",\"addr:street\"=>\"Top Moor Side\",\"fhrs:id\"=>\"321759\",\"shop\"=>\"convenience\"" }, "geometry": { "type": "Point", "coordinates": [ -1.5595845, 53.7847501 ] } },
	{ "type": "Feature", "properties": { "osm_id": "685937663", "name": "Chahal Store", "other_tags": "\"shop\"=>\"convenience\"" }, "geometry": { "type": "Point", "coordinates": [ -1.7225467, 53.7785314 ] } },
	{ "type": "Feature", "properties": { "osm_id": "685937672", "name": "R.W. & S. Hall - Newsagents & Convenience Store", "other_tags": "\"shop\"=>\"convenience\"" }, "geometry": { "type": "Point", "coordinates": [ -1.7197101, 53.7781834 ] } },
	{ "type": "Feature", "properties": { "osm_id": "685938975", "other_tags": "\"shop\"=>\"convenience\"" }, "geometry": { "type": "Point", "coordinates": [ -1.7079962, 53.7818143 ] } },
	{ "type": "Feature", "properties": { "osm_id": "687080950", "name": "Tong Street Convenience Store", "other_tags": "\"shop\"=>\"convenience\"" }, "geometry": { "type": "Point", "coordinates": [ -1.7152228, 53.7693572 ] } },
	{ "type": "Feature", "properties": { "osm_id": "687081055", "name": "ThreeSixy5", "other_tags": "\"shop\"=>\"convenience\"" }, "geometry": { "type": "Point", "coordinates": [ -1.7119045, 53.768284 ] } },
	{ "type": "Feature", "properties": { "osm_id": "687081096", "name": "Tong Street News & General Grocers", "other_tags": "\"shop\"=>\"convenience\"" }, "geometry": { "type": "Point", "coordinates": [ -1.7098544, 53.7678177 ] } },
	{ "type": "Feature", "properties": { "osm_id": "750072952", "name": "Londis", "other_tags": "\"shop\"=>\"convenience\"" }, "geometry": { "type": "Point", "coordinates": [ -1.6709748, 53.8498029 ] } },
	{ "type": "Feature", "properties": { "osm_id": "761999406", "name": "Paddys News", "other_tags": "\"addr:city\"=>\"Leeds\",\"addr:housenumber\"=>\"225\",\"addr:postcode\"=>\"LS16 6EE\",\"addr:street\"=>\"Tinshill Lane\",\"addr:suburb\"=>\"Cookridge\",\"fhrs:id\"=>\"320236\",\"shop\"=>\"convenience\"" }, "geometry": { "type": "Point", "coordinates": [ -1.6291883, 53.8473718 ] } },
	{ "type": "Feature", "properties": { "osm_id": "762344809", "name": "M&S Simply Food", "other_tags": "\"addr:postcode\"=>\"WF11 0AF\",\"addr:street\"=>\"Great North Road\",\"addr:town\"=>\"Knottingley\",\"fhrs:id\"=>\"314153\",\"operator\"=>\"Marks & Spencer\",\"shop\"=>\"convenience\"" }, "geometry": { "type": "Point", "coordinates": [ -1.2663294, 53.6976321 ] } },
	{ "type": "Feature", "properties": { "osm_id": "766752400", "name": "Avtar", "other_tags": "\"shop\"=>\"convenience\"" }, "geometry": { "type": "Point", "coordinates": [ -1.5725968, 53.8155933 ] } },
	{ "type": "Feature", "properties": { "osm_id": "768678145", "name": "WHSmith", "other_tags": "\"addr:postcode\"=>\"WF11 0AF\",\"shop\"=>\"convenience\"" }, "geometry": { "type": "Point", "coordinates": [ -1.2665074, 53.697532 ] } },
	{ "type": "Feature", "properties": { "osm_id": "774099297", "name": "Nisa Local Church Street", "amenity": "post_office", "other_tags": "\"shop\"=>\"convenience\",\"addr:street\"=>\"Church Street\",\"opening_hours\"=>\"Mo-Sa 06:30-21:00; Su 08:00-21:00\"" }, "geometry": { "type": "Point", "coordinates": [ -1.8107918, 53.6431126 ] } },
	{ "type": "Feature", "properties": { "osm_id": "778671333", "name": "A and B Convenience Stores", "other_tags": "\"addr:city\"=>\"Bingley\",\"addr:housenumber\"=>\"7\",\"addr:postcode\"=>\"BD16 4LE\",\"addr:street\"=>\"Clyde Street\",\"fhrs:id\"=>\"327440\",\"shop\"=>\"convenience\"" }, "geometry": { "type": "Point", "coordinates": [ -1.8349361, 53.8503873 ] } },
	{ "type": "Feature", "properties": { "osm_id": "778671334", "name": "McColls", "other_tags": "\"addr:city\"=>\"Bingley\",\"addr:housenumber\"=>\"14\",\"addr:postcode\"=>\"BD16 4NL\",\"addr:street\"=>\"Mornington Road\",\"fhrs:id\"=>\"327720\",\"operator\"=>\"Spar\",\"shop\"=>\"convenience\"" }, "geometry": { "type": "Point", "coordinates": [ -1.8310336, 53.849197 ] } },
	{ "type": "Feature", "properties": { "osm_id": "778671337", "name": "The Co-operative Food", "other_tags": "\"addr:city\"=>\"Bingley\",\"addr:housename\"=>\"Unit 6 Five Rise Shopping Centre\",\"addr:postcode\"=>\"BD16 1GL\",\"addr:street\"=>\"Main Street\",\"fhrs:id\"=>\"327729\",\"operator\"=>\"The Co-operative Group\",\"shop\"=>\"convenience\"" }, "geometry": { "type": "Point", "coordinates": [ -1.8363694, 53.8474149 ] } },
	{ "type": "Feature", "properties": { "osm_id": "778671344", "name": "Tesco", "other_tags": "\"addr:city\"=>\"Bingley\",\"addr:housenumber\"=>\"1-2\",\"addr:postcode\"=>\"BD16 2DY\",\"addr:street\"=>\"Keighley Road\",\"addr:village\"=>\"Crossflatts\",\"not:addr:postcode\"=>\"BD16 2RD\",\"shop\"=>\"convenience\"" }, "geometry": { "type": "Point", "coordinates": [ -1.8506781, 53.8641784 ] } },
	{ "type": "Feature", "properties": { "osm_id": "778675503", "other_tags": "\"shop\"=>\"convenience\",\"fhrs:id\"=>\"327876\",\"alt_name\"=>\"Nisa Local\",\"operator\"=>\"Eldwick Food and Wine Centre\",\"addr:city\"=>\"Bingley\",\"addr:street\"=>\"Warren Lane\",\"addr:postcode\"=>\"BD16 3BS\"" }, "geometry": { "type": "Point", "coordinates": [ -1.8206051, 53.8534974 ] } },
	{ "type": "Feature", "properties": { "osm_id": "779175982", "name": "Forge Sotres Off Licence General Store", "other_tags": "\"shop\"=>\"convenience\",\"alcohol\"=>\"yes\"" }, "geometry": { "type": "Point", "coordinates": [ -1.6820964, 53.7013918 ] } },
	{ "type": "Feature", "properties": { "osm_id": "780156087", "amenity": "fuel", "other_tags": "\"addr:city\"=>\"Bradford\",\"addr:postcode\"=>\"BD9 6NT\",\"addr:street\"=>\"Haworth Road\",\"brand\"=>\"Shell\",\"operator\"=>\"Shell\",\"operator:shop\"=>\"Spar\",\"phone\"=>\"+44 1274 545027\",\"ref:navads\"=>\"NVDS353_11335504\",\"shop\"=>\"convenience\"" }, "geometry": { "type": "Point", "coordinates": [ -1.8184544, 53.8158665 ] } },
	{ "type": "Feature", "properties": { "osm_id": "798364147", "name": "Cottingley Bridge Stores", "other_tags": "\"shop\"=>\"convenience\"" }, "geometry": { "type": "Point", "coordinates": [ -1.8308029, 53.8377073 ] } },
	{ "type": "Feature", "properties": { "osm_id": "798527579", "name": "Spar", "other_tags": "\"addr:city\"=>\"Keighley\",\"addr:postcode\"=>\"BD22 8NL\",\"addr:street\"=>\"Station Road\",\"addr:village\"=>\"Haworth\",\"fhrs:id\"=>\"325007\",\"shop\"=>\"convenience\",\"source:addr\"=>\"FHRS Open Data\"" }, "geometry": { "type": "Point", "coordinates": [ -1.9481675, 53.8308479 ] } },
	{ "type": "Feature", "properties": { "osm_id": "860157287", "name": "Hunters Park Store", "other_tags": "\"shop\"=>\"convenience\"" }, "geometry": { "type": "Point", "coordinates": [ -1.8082799, 53.7848582 ] } },
	{ "type": "Feature", "properties": { "osm_id": "860158747", "other_tags": "\"shop\"=>\"convenience\"" }, "geometry": { "type": "Point", "coordinates": [ -1.8096379, 53.7813559 ] } },
	{ "type": "Feature", "properties": { "osm_id": "864535379", "name": "Essentials", "other_tags": "\"addr:city\"=>\"Leeds\",\"addr:postcode\"=>\"LS2 9JZ\",\"addr:street\"=>\"Lifton Place\",\"shop\"=>\"convenience\"" }, "geometry": { "type": "Point", "coordinates": [ -1.5560716, 53.8066245 ] } },
	{ "type": "Feature", "properties": { "osm_id": "907823135", "name": "Collingham Post Office", "amenity": "post_office", "other_tags": "\"addr:city\"=>\"Wetherby\",\"addr:postcode\"=>\"LS22 5AS\",\"addr:street\"=>\"Main Street\",\"addr:village\"=>\"Collingham\",\"fhrs:id\"=>\"718725\",\"opening_hours:post_office\"=>\"Mo-Th 08:30-17:30; Fr 09:00-17:30; Sa 09:00-12:30\",\"ref:pol_id\"=>\"6562\",\"shop\"=>\"convenience\",\"source:addr\"=>\"FHRS Open Data\"" }, "geometry": { "type": "Point", "coordinates": [ -1.4108178, 53.9079436 ] } },
	{ "type": "Feature", "properties": { "osm_id": "936542055", "name": "West End Stores", "other_tags": "\"shop\"=>\"convenience\"" }, "geometry": { "type": "Point", "coordinates": [ -1.4538649, 53.8951248 ] } },
	{ "type": "Feature", "properties": { "osm_id": "952451273", "name": "Premier", "other_tags": "\"shop\"=>\"convenience\"" }, "geometry": { "type": "Point", "coordinates": [ -1.8561691, 53.6256372 ] } },
	{ "type": "Feature", "properties": { "osm_id": "963201545", "name": "Off Licence", "other_tags": "\"shop\"=>\"convenience\",\"alcohol\"=>\"yes\"" }, "geometry": { "type": "Point", "coordinates": [ -1.6472583, 53.6835398 ] } },
	{ "type": "Feature", "properties": { "osm_id": "963837591", "name": "Salamm Foods", "other_tags": "\"addr:city\"=>\"Dewsbury\",\"addr:country\"=>\"GB\",\"addr:housenumber\"=>\"658-660\",\"addr:postcode\"=>\"WF13 3HP\",\"addr:street\"=>\"Huddersfield Road\",\"addr:suburb\"=>\"Ravensthorpe\",\"fhrs:id\"=>\"228628\",\"phone\"=>\"+44 1924 491333\",\"shop\"=>\"convenience\",\"source:addr\"=>\"FHRS Open Data\"" }, "geometry": { "type": "Point", "coordinates": [ -1.6662892, 53.6784775 ] } },
	{ "type": "Feature", "properties": { "osm_id": "966181130", "name": "best-one Xpress", "other_tags": "\"addr:city\"=>\"Dewsbury\",\"addr:country\"=>\"GB\",\"addr:housenumber\"=>\"708\",\"addr:postcode\"=>\"WF13 3HU\",\"addr:street\"=>\"Huddersfield Road\",\"addr:suburb\"=>\"Ravensthorpe\",\"fhrs:id\"=>\"227404\",\"lottery\"=>\"yes\",\"shop\"=>\"convenience\",\"source:addr\"=>\"FHRS Open Data\"" }, "geometry": { "type": "Point", "coordinates": [ -1.6680323, 53.67772 ] } },
	{ "type": "Feature", "properties": { "osm_id": "966191969", "name": "The Knowle Off Licence", "other_tags": "\"addr:city\"=>\"Mirfield\",\"addr:country\"=>\"GB\",\"addr:housenumber\"=>\"47\",\"addr:postcode\"=>\"WF14 9RN\",\"addr:street\"=>\"The Knowl\",\"alcohol\"=>\"yes\",\"fhrs:id\"=>\"306761\",\"shop\"=>\"convenience\",\"source:addr\"=>\"FHRS Open Data\"" }, "geometry": { "type": "Point", "coordinates": [ -1.7000032, 53.6801425 ] } },
	{ "type": "Feature", "properties": { "osm_id": "972552959", "name": "Bradley Booze & News", "other_tags": "\"shop\"=>\"convenience\",\"alcohol\"=>\"yes\",\"newspapers\"=>\"yes\"" }, "geometry": { "type": "Point", "coordinates": [ -1.7395972, 53.6797301 ] } },
	{ "type": "Feature", "properties": { "osm_id": "1011423040", "name": "Tungsway", "other_tags": "\"shop\"=>\"convenience\",\"brand\"=>\"Nisa Local\"" }, "geometry": { "type": "Point", "coordinates": [ -1.6951855, 53.6740354 ] } },
	{ "type": "Feature", "properties": { "osm_id": "1015090447", "name": "Corner Shop", "other_tags": "\"addr:city\"=>\"Wakefield\",\"addr:housenumber\"=>\"43\",\"addr:postcode\"=>\"WF1 1JX\",\"addr:street\"=>\"Westgate\",\"fhrs:id\"=>\"1030803\",\"shop\"=>\"convenience\"" }, "geometry": { "type": "Point", "coordinates": [ -1.4999261, 53.682273 ] } },
	{ "type": "Feature", "properties": { "osm_id": "1028196389", "name": "Milco Supasaver", "other_tags": "\"addr:city\"=>\"Dewsbury\",\"addr:country\"=>\"GB\",\"addr:housenumber\"=>\"604\",\"addr:postcode\"=>\"WF13 3HL\",\"addr:street\"=>\"Huddersfield Road\",\"addr:suburb\"=>\"Ravensthorpe\",\"alcohol\"=>\"yes\",\"fhrs:id\"=>\"228794\",\"lottery\"=>\"yes\",\"shop\"=>\"convenience\",\"source:addr\"=>\"FHRS Open Data\"" }, "geometry": { "type": "Point", "coordinates": [ -1.6639263, 53.6791129 ] } },
	{ "type": "Feature", "properties": { "osm_id": "1037979155", "amenity": "post_office", "other_tags": "\"shop\"=>\"convenience\",\"brand\"=>\"Nisalocal\"" }, "geometry": { "type": "Point", "coordinates": [ -1.6315589, 53.7018479 ] } },
	{ "type": "Feature", "properties": { "osm_id": "1111888926", "name": "Kingswear News", "other_tags": "\"addr:city\"=>\"Leeds\",\"addr:housenumber\"=>\"6\",\"addr:postcode\"=>\"LS15 8PB\",\"addr:street\"=>\"Kingswear Crescent\",\"fhrs:id\"=>\"687540\",\"shop\"=>\"convenience\"" }, "geometry": { "type": "Point", "coordinates": [ -1.4406454, 53.7999919 ] } },
	{ "type": "Feature", "properties": { "osm_id": "1128366704", "name": "Wilkinsons", "other_tags": "\"shop\"=>\"convenience\"" }, "geometry": { "type": "Point", "coordinates": [ -1.311498, 53.6920978 ] } },
	{ "type": "Feature", "properties": { "osm_id": "1164237451", "name": "One Stop", "other_tags": "\"shop\"=>\"convenience\"" }, "geometry": { "type": "Point", "coordinates": [ -1.4690847, 53.8271262 ] } },
	{ "type": "Feature", "properties": { "osm_id": "1164240429", "name": "Fultons Foods", "other_tags": "\"addr:city\"=>\"Leeds\",\"addr:housenumber\"=>\"112-112a\",\"addr:postcode\"=>\"LS8 3AY\",\"addr:street\"=>\"Dib Lane\",\"fhrs:id\"=>\"322357\",\"shop\"=>\"convenience\"" }, "geometry": { "type": "Point", "coordinates": [ -1.4869836, 53.8230289 ] } },
	{ "type": "Feature", "properties": { "osm_id": "1182513323", "name": "Lucas's Store", "other_tags": "\"shop\"=>\"convenience\"" }, "geometry": { "type": "Point", "coordinates": [ -1.6948935, 53.7003969 ] } },
	{ "type": "Feature", "properties": { "osm_id": "1217348437", "other_tags": "\"addr:housenumber\"=>\"2\",\"addr:postcode\"=>\"WF11 0JE\",\"addr:street\"=>\"Northfield Avenue\",\"addr:town\"=>\"Knottingley\",\"fhrs:id\"=>\"313375\",\"shop\"=>\"convenience\"" }, "geometry": { "type": "Point", "coordinates": [ -1.2469857, 53.7057864 ] } },
	{ "type": "Feature", "properties": { "osm_id": "1251743041", "name": "Europa Filling Station", "other_tags": "\"addr:postcode\"=>\"LS28 6HQ\",\"addr:street\"=>\"Town Street\",\"addr:suburb\"=>\"Stanningley\",\"addr:town\"=>\"Pudsey\",\"brand\"=>\"Londis\",\"fhrs:id\"=>\"926944\",\"shop\"=>\"convenience\"" }, "geometry": { "type": "Point", "coordinates": [ -1.6606467, 53.8074149 ] } },
	{ "type": "Feature", "properties": { "osm_id": "1276282018", "other_tags": "\"shop\"=>\"convenience\"" }, "geometry": { "type": "Point", "coordinates": [ -1.7827955, 53.6362207 ] } },
	{ "type": "Feature", "properties": { "osm_id": "1276282022", "other_tags": "\"shop\"=>\"convenience\"" }, "geometry": { "type": "Point", "coordinates": [ -1.7790139, 53.6375304 ] } },
	{ "type": "Feature", "properties": { "osm_id": "1295087613", "other_tags": "\"shop\"=>\"convenience\",\"brand\"=>\"Costcutter\"" }, "geometry": { "type": "Point", "coordinates": [ -1.7762649, 53.7232099 ] } },
	{ "type": "Feature", "properties": { "osm_id": "1303437772", "name": "Booze News & Lotto", "other_tags": "\"shop\"=>\"convenience\",\"alcohol\"=>\"yes\",\"lottery\"=>\"yes\"" }, "geometry": { "type": "Point", "coordinates": [ -1.6916476, 53.710234 ] } },
	{ "type": "Feature", "properties": { "osm_id": "1307681730", "name": "The Co-operative Food", "other_tags": "\"addr:city\"=>\"Leeds\",\"addr:housenumber\"=>\"90-96\",\"addr:postcode\"=>\"LS17 8RE\",\"addr:street\"=>\"High Ash Drive\",\"fhrs:id\"=>\"321194\",\"operator\"=>\"The Co-operative Group\",\"shop\"=>\"convenience\"" }, "geometry": { "type": "Point", "coordinates": [ -1.5203679, 53.855953 ] } },
	{ "type": "Feature", "properties": { "osm_id": "1310893563", "name": "Nevison Superstore", "amenity": "post_office", "other_tags": "\"shop\"=>\"convenience\",\"fhrs:id\"=>\"313388\",\"addr:street\"=>\"Orchard Head Lane\",\"addr:postcode\"=>\"WF8 2LY\",\"addr:housenumber\"=>\"33\"" }, "geometry": { "type": "Point", "coordinates": [ -1.2958395, 53.7043731 ] } },
	{ "type": "Feature", "properties": { "osm_id": "1323867107", "name": "Green Action Food Co-oprative", "other_tags": "\"shop\"=>\"convenience\",\"wheelchair\"=>\"yes\",\"addr:street\"=>\"Lifton Place\",\"addr:postcode\"=>\"LS2 9JT\",\"addr:housename\"=>\"Leeds University Union\",\"toilets:wheelchair\"=>\"yes\"" }, "geometry": { "type": "Point", "coordinates": [ -1.5559859, 53.8067987 ] } },
	{ "type": "Feature", "properties": { "osm_id": "1351976920", "name": "Maximus Food & Wine", "other_tags": "\"shop\"=>\"convenience\"" }, "geometry": { "type": "Point", "coordinates": [ -1.7382021, 53.7804124 ] } },
	{ "type": "Feature", "properties": { "osm_id": "1385378591", "other_tags": "\"shop\"=>\"convenience\"" }, "geometry": { "type": "Point", "coordinates": [ -1.745825, 53.6781425 ] } },
	{ "type": "Feature", "properties": { "osm_id": "1434904500", "other_tags": "\"shop\"=>\"convenience\"" }, "geometry": { "type": "Point", "coordinates": [ -1.7705502, 53.6742031 ] } },
	{ "type": "Feature", "properties": { "osm_id": "1469162844", "name": "Tesco Express", "other_tags": "\"shop\"=>\"convenience\"" }, "geometry": { "type": "Point", "coordinates": [ -1.8105447, 53.6518176 ] } },
	{ "type": "Feature", "properties": { "osm_id": "1534826891", "name": "Arif Super Store", "other_tags": "\"addr:city\"=>\"Huddersfield\",\"addr:country\"=>\"GB\",\"addr:housenumber\"=>\"128\",\"addr:postcode\"=>\"HD1 4UD\",\"addr:street\"=>\"Church Street\",\"addr:suburb\"=>\"Paddock\",\"fhrs:id\"=>\"228877\",\"phone\"=>\"+44 1484 423855\",\"shop\"=>\"convenience\",\"source:addr\"=>\"FHRS Open Data\"" }, "geometry": { "type": "Point", "coordinates": [ -1.8115036, 53.6435446 ] } },
	{ "type": "Feature", "properties": { "osm_id": "1534826933", "name": "Premier Express Supermarket", "other_tags": "\"atm\"=>\"yes\",\"shop\"=>\"convenience\",\"opening_hours\"=>\"Mo-We 08:30-22:30; Th-Su 08:30-23:00\"" }, "geometry": { "type": "Point", "coordinates": [ -1.8116615, 53.6432381 ] } },
	{ "type": "Feature", "properties": { "osm_id": "1535922069", "name": "Gohar Superstore", "other_tags": "\"addr:city\"=>\"Huddersfield\",\"addr:country\"=>\"GB\",\"addr:housenumber\"=>\"13\",\"addr:postcode\"=>\"HD1 4TR\",\"addr:street\"=>\"Church Street\",\"addr:suburb\"=>\"Paddock\",\"fhrs:id\"=>\"227744\",\"shop\"=>\"convenience\",\"source:addr\"=>\"FHRS Open Data\"" }, "geometry": { "type": "Point", "coordinates": [ -1.8033838, 53.6423024 ] } },
	{ "type": "Feature", "properties": { "osm_id": "1535922154", "name": "Select & Save", "other_tags": "\"shop\"=>\"convenience\"" }, "geometry": { "type": "Point", "coordinates": [ -1.8140892, 53.6441099 ] } },
	{ "type": "Feature", "properties": { "osm_id": "1567905328", "name": "G & S Convenience Store", "other_tags": "\"addr:city\"=>\"Ilkley\",\"addr:housenumber\"=>\"1\",\"addr:postcode\"=>\"LS29 8NT\",\"addr:street\"=>\"Valley Drive\",\"fhrs:id\"=>\"327270\",\"fixme:addr1\"=>\"1 The Parade\",\"shop\"=>\"convenience\",\"source:addr\"=>\"FHRS Open Data\"" }, "geometry": { "type": "Point", "coordinates": [ -1.8051659, 53.9265931 ] } },
	{ "type": "Feature", "properties": { "osm_id": "1574839740", "name": "One Stop", "other_tags": "\"addr:city\"=>\"Leeds\",\"addr:housenumber\"=>\"265\",\"addr:postcode\"=>\"LS6 1AG\",\"addr:street\"=>\"Hyde Park Road\",\"fhrs:id\"=>\"320934\",\"shop\"=>\"convenience\",\"toilets:wheelchair\"=>\"no\",\"wheelchair\"=>\"yes\"" }, "geometry": { "type": "Point", "coordinates": [ -1.5621262, 53.8145099 ] } },
	{ "type": "Feature", "properties": { "osm_id": "1581387314", "name": "Danyaal Food Store", "other_tags": "\"addr:city\"=>\"Keighley\",\"addr:country\"=>\"GB\",\"addr:housenumber\"=>\"124\",\"addr:postcode\"=>\"BD21 3AL\",\"addr:street\"=>\"North Street\",\"fhrs:id\"=>\"327073\",\"shop\"=>\"convenience\",\"source:addr\"=>\"FHRS Open Data\",\"wheelchair\"=>\"no\"" }, "geometry": { "type": "Point", "coordinates": [ -1.9093458, 53.8707983 ] } },
	{ "type": "Feature", "properties": { "osm_id": "1586384961", "name": "Premier", "other_tags": "\"addr:city\"=>\"Bingley\",\"addr:housenumber\"=>\"10-12\",\"addr:postcode\"=>\"BD16 4NL\",\"addr:street\"=>\"Mornington Road\",\"fhrs:id\"=>\"327719\",\"shop\"=>\"convenience\"" }, "geometry": { "type": "Point", "coordinates": [ -1.831367, 53.8493401 ] } },
	{ "type": "Feature", "properties": { "osm_id": "1628253468", "name": "Your Local", "other_tags": "\"addr:housenumber\"=>\"45-47\",\"addr:postcode\"=>\"WF10 3SE\",\"addr:street\"=>\"Elizabeth Drive\",\"addr:town\"=>\"Castleford\",\"fhrs:id\"=>\"1063176\",\"shop\"=>\"convenience\"" }, "geometry": { "type": "Point", "coordinates": [ -1.3098483, 53.7264408 ] } },
	{ "type": "Feature", "properties": { "osm_id": "1628282863", "name": "Jill And Andy's", "other_tags": "\"addr:housenumber\"=>\"18\",\"addr:postcode\"=>\"WF10 2NU\",\"addr:street\"=>\"Borrowdale Drive\",\"addr:town\"=>\"Castleford\",\"fhrs:id\"=>\"284075\",\"shop\"=>\"convenience\"" }, "geometry": { "type": "Point", "coordinates": [ -1.3038871, 53.7302555 ] } },
	{ "type": "Feature", "properties": { "osm_id": "1635183540", "name": "Tesco Express", "other_tags": "\"shop\"=>\"convenience\",\"fhrs:id\"=>\"314189\",\"addr:street\"=>\"Dewsbury Road\",\"addr:postcode\"=>\"WF5 9NQ\",\"addr:housenumber\"=>\"99\"" }, "geometry": { "type": "Point", "coordinates": [ -1.5830082, 53.6880589 ] } },
	{ "type": "Feature", "properties": { "osm_id": "1650264000", "name": "Davalji Stores", "other_tags": "\"addr:city\"=>\"Leeds\",\"addr:housenumber\"=>\"117-119\",\"addr:postcode\"=>\"LS6 1DR\",\"addr:street\"=>\"Victoria Road\",\"fhrs:id\"=>\"320283\",\"shop\"=>\"convenience\"" }, "geometry": { "type": "Point", "coordinates": [ -1.5723309, 53.8143701 ] } },
	{ "type": "Feature", "properties": { "osm_id": "1654202658", "name": "Home Bargains", "other_tags": "\"addr:city\"=>\"Leeds\",\"addr:postcode\"=>\"LS15 8EU\",\"addr:street\"=>\"Station Road\",\"fhrs:id\"=>\"321473\",\"shop\"=>\"convenience\"" }, "geometry": { "type": "Point", "coordinates": [ -1.4519056, 53.8053817 ] } },
	{ "type": "Feature", "properties": { "osm_id": "1654218191", "name": "Sainsbury's Local", "other_tags": "\"addr:city\"=>\"Leeds\",\"addr:housenumber\"=>\"155-157\",\"addr:postcode\"=>\"LS25 7ET\",\"addr:street\"=>\"Moorgate Road\",\"addr:suburb\"=>\"Kippax\",\"fhrs:id\"=>\"321889\",\"shop\"=>\"convenience\"" }, "geometry": { "type": "Point", "coordinates": [ -1.3748385, 53.7746139 ] } },
	{ "type": "Feature", "properties": { "osm_id": "1668826170", "name": "Give & Take", "other_tags": "\"shop\"=>\"convenience\",\"alcohol\"=>\"yes\"" }, "geometry": { "type": "Point", "coordinates": [ -1.667174, 53.6780689 ] } },
	{ "type": "Feature", "properties": { "osm_id": "1676371381", "name": "Argos", "other_tags": "\"addr:housenumber\"=>\"15\",\"addr:postcode\"=>\"WF8 1BA\",\"addr:street\"=>\"Salter Row\",\"shop\"=>\"convenience\"" }, "geometry": { "type": "Point", "coordinates": [ -1.31141, 53.6922425 ] } },
	{ "type": "Feature", "properties": { "osm_id": "1678305336", "other_tags": "\"addr:city\"=>\"Shipley\",\"addr:housenumber\"=>\"99\",\"addr:postcode\"=>\"BD17 7LT\",\"addr:street\"=>\"Coach Road\",\"addr:village\"=>\"Baildon\",\"shop\"=>\"convenience\"" }, "geometry": { "type": "Point", "coordinates": [ -1.7886399, 53.8411901 ] } },
	{ "type": "Feature", "properties": { "osm_id": "1678307294", "other_tags": "\"shop\"=>\"convenience\"" }, "geometry": { "type": "Point", "coordinates": [ -1.7097055, 53.6179439 ] } },
	{ "type": "Feature", "properties": { "osm_id": "1685128132", "other_tags": "\"shop\"=>\"convenience\"" }, "geometry": { "type": "Point", "coordinates": [ -1.7253595, 53.6355294 ] } },
	{ "type": "Feature", "properties": { "osm_id": "1685207188", "name": "M&S Simply Food", "other_tags": "\"shop\"=>\"convenience\",\"addr:street\"=>\"Station Road\",\"designation\"=>\"Ilkley Simply Food\",\"addr:postcode\"=>\"LS29 8HF\",\"addr:housename\"=>\"The Station Plaza\",\"addr:housenumber\"=>\"Unit 12A\"" }, "geometry": { "type": "Point", "coordinates": [ -1.8223227, 53.9250031 ] } },
	{ "type": "Feature", "properties": { "osm_id": "1695323463", "name": "Euro Mini Market", "other_tags": "\"addr:city\"=>\"Keighley\",\"addr:country\"=>\"GB\",\"addr:housenumber\"=>\"4\",\"addr:postcode\"=>\"BD21 2SR\",\"addr:street\"=>\"Campbell Street\",\"fhrs:id\"=>\"410677\",\"shop\"=>\"convenience\",\"source:addr\"=>\"FHRS Open Data\"" }, "geometry": { "type": "Point", "coordinates": [ -1.909959, 53.8695228 ] } },
	{ "type": "Feature", "properties": { "osm_id": "1710584771", "name": "Addys", "other_tags": "\"shop\"=>\"convenience\"" }, "geometry": { "type": "Point", "coordinates": [ -1.778971, 53.5474427 ] } },
	{ "type": "Feature", "properties": { "osm_id": "1710697994", "name": "Best One", "other_tags": "\"addr:city\"=>\"Leeds\",\"addr:housenumber\"=>\"1\",\"addr:postcode\"=>\"LS10 2QG\",\"addr:street\"=>\"Rocheford Grove\",\"addr:suburb\"=>\"Stourton\",\"fhrs:id\"=>\"320103\",\"shop\"=>\"convenience\"" }, "geometry": { "type": "Point", "coordinates": [ -1.520917, 53.7769103 ] } },
	{ "type": "Feature", "properties": { "osm_id": "1710719259", "name": "Upper Cumberworth Village Store & Newsagents", "other_tags": "\"shop\"=>\"convenience\"" }, "geometry": { "type": "Point", "coordinates": [ -1.6864648, 53.5748553 ] } },
	{ "type": "Feature", "properties": { "osm_id": "1716696192", "name": "One Stop Shop", "other_tags": "\"addr:postcode\"=>\"WF8 2BE\",\"addr:street\"=>\"Monument Lane\",\"addr:town\"=>\"Pontefract\",\"fhrs:id\"=>\"564156\",\"shop\"=>\"convenience\"" }, "geometry": { "type": "Point", "coordinates": [ -1.303017, 53.6845083 ] } },
	{ "type": "Feature", "properties": { "osm_id": "1725331943", "name": "Tesco express", "other_tags": "\"addr:housenumber\"=>\"19-20\",\"addr:postcode\"=>\"LS2 9HD\",\"addr:street\"=>\"Blenheim Terrace\",\"fhrs:id\"=>\"322727\",\"opening_hours\"=>\"Mo-Su 06:00-23:00\",\"shop\"=>\"convenience\",\"wheelchair\"=>\"yes\"" }, "geometry": { "type": "Point", "coordinates": [ -1.5510512, 53.8073066 ] } },
	{ "type": "Feature", "properties": { "osm_id": "1731108063", "name": "Spar", "other_tags": "\"shop\"=>\"convenience\",\"fhrs:id\"=>\"319718\",\"addr:city\"=>\"Leeds\",\"addr:street\"=>\"Dewsbury Road\",\"addr:postcode\"=>\"LS11 5HZ\",\"addr:housenumber\"=>\"205\"" }, "geometry": { "type": "Point", "coordinates": [ -1.5445103, 53.7766363 ] } },
	{ "type": "Feature", "properties": { "osm_id": "1738841583", "name": "Costcutter", "other_tags": "\"addr:city\"=>\"Guiseley\",\"addr:housenumber\"=>\"137B\",\"addr:postcode\"=>\"LS20 8LY\",\"addr:street\"=>\"Otley Road\",\"fhrs:id\"=>\"321320\",\"shop\"=>\"convenience\",\"source:addr\"=>\"FHRS Open Data\",\"website\"=>\"https:\/\/www.costcutter.co.uk\/location\/137a-138a-otley-road-ls20-8ly\/\"" }, "geometry": { "type": "Point", "coordinates": [ -1.7248593, 53.877646 ] } },
	{ "type": "Feature", "properties": { "osm_id": "1744769255", "name": "Woodhouse Stores", "other_tags": "\"shop\"=>\"convenience\"" }, "geometry": { "type": "Point", "coordinates": [ -1.5551894, 53.8141151 ] } },
	{ "type": "Feature", "properties": { "osm_id": "1827949556", "other_tags": "\"shop\"=>\"convenience\",\"brand\"=>\"Londis\"" }, "geometry": { "type": "Point", "coordinates": [ -1.777155, 53.6903867 ] } },
	{ "type": "Feature", "properties": { "osm_id": "1846007194", "amenity": "post_office", "other_tags": "\"shop\"=>\"convenience\"" }, "geometry": { "type": "Point", "coordinates": [ -1.5792642, 53.644228 ] } },
	{ "type": "Feature", "properties": { "osm_id": "1847520183", "other_tags": "\"shop\"=>\"convenience\"" }, "geometry": { "type": "Point", "coordinates": [ -1.884409, 53.9444662 ] } },
	{ "type": "Feature", "properties": { "osm_id": "1847520186", "name": "Good Food Shop Deli", "other_tags": "\"shop\"=>\"convenience\"" }, "geometry": { "type": "Point", "coordinates": [ -1.8826147, 53.9438931 ] } },
	{ "type": "Feature", "properties": { "osm_id": "1857847753", "name": "Premier", "other_tags": "\"addr:housenumber\"=>\"3\",\"addr:postcode\"=>\"WF8 1JQ\",\"addr:street\"=>\"Lady Balk Lane\",\"addr:town\"=>\"Pontefract\",\"fhrs:id\"=>\"314141\",\"shop\"=>\"convenience\"" }, "geometry": { "type": "Point", "coordinates": [ -1.3105684, 53.7012244 ] } },
	{ "type": "Feature", "properties": { "osm_id": "1873402999", "name": "Callaghan News", "other_tags": "\"addr:city\"=>\"Batley\",\"addr:country\"=>\"GB\",\"addr:housenumber\"=>\"59-61\",\"addr:postcode\"=>\"WF17 8PN\",\"addr:street\"=>\"Cross Bank Road\",\"addr:suburb\"=>\"Carlinghow\",\"fhrs:id\"=>\"227908\",\"shop\"=>\"convenience\",\"source:addr\"=>\"FHRS Open Data\"" }, "geometry": { "type": "Point", "coordinates": [ -1.6438606, 53.7184461 ] } },
	{ "type": "Feature", "properties": { "osm_id": "1878217776", "other_tags": "\"shop\"=>\"convenience\"" }, "geometry": { "type": "Point", "coordinates": [ -1.7558636, 53.6704574 ] } },
	{ "type": "Feature", "properties": { "osm_id": "1878217811", "other_tags": "\"shop\"=>\"convenience\"" }, "geometry": { "type": "Point", "coordinates": [ -1.7543777, 53.6732155 ] } },
	{ "type": "Feature", "properties": { "osm_id": "1878553646", "name": "Wright News", "other_tags": "\"addr:housenumber\"=>\"124\",\"addr:postcode\"=>\"WF8 2HD\",\"addr:street\"=>\"Baghill Lane\",\"addr:town\"=>\"Pontefract\",\"fhrs:id\"=>\"314061\",\"shop\"=>\"convenience\"" }, "geometry": { "type": "Point", "coordinates": [ -1.2914168, 53.6908701 ] } },
	{ "type": "Feature", "properties": { "osm_id": "1879999201", "other_tags": "\"shop\"=>\"convenience\"" }, "geometry": { "type": "Point", "coordinates": [ -1.7694997, 53.6681817 ] } },
	{ "type": "Feature", "properties": { "osm_id": "1879999213", "other_tags": "\"shop\"=>\"convenience\"" }, "geometry": { "type": "Point", "coordinates": [ -1.7633033, 53.6684585 ] } },
	{ "type": "Feature", "properties": { "osm_id": "1906669748", "name": "NisaLocal", "other_tags": "\"shop\"=>\"convenience\",\"fhrs:id\"=>\"660549\",\"addr:street\"=>\"Storrs Hill Road\",\"addr:postcode\"=>\"WF5 0DL\",\"addr:housenumber\"=>\"7\"" }, "geometry": { "type": "Point", "coordinates": [ -1.5746833, 53.670343 ] } },
	{ "type": "Feature", "properties": { "osm_id": "1919796092", "other_tags": "\"shop\"=>\"convenience\"" }, "geometry": { "type": "Point", "coordinates": [ -1.7800067, 53.6393356 ] } },
	{ "type": "Feature", "properties": { "osm_id": "1925503505", "name": "B R News", "other_tags": "\"addr:city\"=>\"Bradford\",\"addr:housenumber\"=>\"204\",\"addr:postcode\"=>\"BD7 4BJ\",\"addr:street\"=>\"Hollingwood Lane\",\"fhrs:id\"=>\"325588\",\"shop\"=>\"convenience\"" }, "geometry": { "type": "Point", "coordinates": [ -1.8002416, 53.7793528 ] } },
	{ "type": "Feature", "properties": { "osm_id": "1981758732", "other_tags": "\"shop\"=>\"convenience\"" }, "geometry": { "type": "Point", "coordinates": [ -1.7474254, 53.6716252 ] } },
	{ "type": "Feature", "properties": { "osm_id": "2009134992", "other_tags": "\"shop\"=>\"convenience\"" }, "geometry": { "type": "Point", "coordinates": [ -1.6198267, 53.7123344 ] } },
	{ "type": "Feature", "properties": { "osm_id": "2012914699", "name": "The Co-operative Food", "other_tags": "\"addr:city\"=>\"Huddersfield\",\"addr:country\"=>\"GB\",\"addr:housenumber\"=>\"9\",\"addr:postcode\"=>\"HD4 5RX\",\"addr:street\"=>\"Park Road West\",\"addr:suburb\"=>\"Crosland Moor\",\"fhrs:id\"=>\"227778\",\"opening_hours\"=>\"Mo-Sa 07:00-23:00\",\"operator\"=>\"The Co-operative Group\",\"shop\"=>\"convenience\",\"source:addr\"=>\"FHRS Open Data\",\"wheelchair\"=>\"yes\"" }, "geometry": { "type": "Point", "coordinates": [ -1.809661, 53.6379172 ] } },
	{ "type": "Feature", "properties": { "osm_id": "2031700082", "name": "Tesco Express", "other_tags": "\"shop\"=>\"convenience\",\"fhrs:id\"=>\"226688\",\"addr:street\"=>\"Smithies Lane\",\"source:addr\"=>\"FHRS Open Data\",\"addr:postcode\"=>\"WF17 9EH\"" }, "geometry": { "type": "Point", "coordinates": [ -1.6606698, 53.73141 ] } },
	{ "type": "Feature", "properties": { "osm_id": "2048180543", "other_tags": "\"shop\"=>\"convenience\"" }, "geometry": { "type": "Point", "coordinates": [ -1.648035, 53.5913158 ] } },
	{ "type": "Feature", "properties": { "osm_id": "2058583957", "name": "Tesco Express", "other_tags": "\"shop\"=>\"convenience\",\"fhrs:id\"=>\"314305\",\"operator\"=>\"Tesco\",\"addr:city\"=>\"Wakefield\",\"addr:street\"=>\"Stanley Road\",\"addr:postcode\"=>\"WF1 4LH\"" }, "geometry": { "type": "Point", "coordinates": [ -1.4897295, 53.6853606 ] } },
	{ "type": "Feature", "properties": { "osm_id": "2068414332", "name": "Kian Stores", "other_tags": "\"addr:city\"=>\"Bradford\",\"addr:housenumber\"=>\"87-89\",\"addr:postcode\"=>\"BD11 1DH\",\"addr:street\"=>\"Wakefield Road\",\"addr:suburb\"=>\"Drighlington\",\"alcohol\"=>\"yes\",\"fhrs:id\"=>\"323194\",\"shop\"=>\"convenience\"" }, "geometry": { "type": "Point", "coordinates": [ -1.6527021, 53.75347 ] } },
	{ "type": "Feature", "properties": { "osm_id": "2072972463", "name": "Bal Newsagents", "other_tags": "\"shop\"=>\"convenience\",\"fhrs:id\"=>\"829600\",\"addr:city\"=>\"Leeds\",\"addr:street\"=>\"Dewsbury Road\",\"addr:postcode\"=>\"LS11 7LJ\",\"addr:housenumber\"=>\"434\"" }, "geometry": { "type": "Point", "coordinates": [ -1.5615822, 53.7647683 ] } },
	{ "type": "Feature", "properties": { "osm_id": "2073457225", "other_tags": "\"shop\"=>\"convenience\"" }, "geometry": { "type": "Point", "coordinates": [ -1.787642, 53.6784677 ] } },
	{ "type": "Feature", "properties": { "osm_id": "2090265626", "other_tags": "\"shop\"=>\"convenience\"" }, "geometry": { "type": "Point", "coordinates": [ -1.748084, 53.6356158 ] } },
	{ "type": "Feature", "properties": { "osm_id": "2090265740", "other_tags": "\"shop\"=>\"convenience\"" }, "geometry": { "type": "Point", "coordinates": [ -1.7401618, 53.6392463 ] } },
	{ "type": "Feature", "properties": { "osm_id": "2090752282", "other_tags": "\"shop\"=>\"convenience\"" }, "geometry": { "type": "Point", "coordinates": [ -1.7424787, 53.6415303 ] } },
	{ "type": "Feature", "properties": { "osm_id": "2117006489", "other_tags": "\"shop\"=>\"convenience\"" }, "geometry": { "type": "Point", "coordinates": [ -1.5287032, 53.7786352 ] } },
	{ "type": "Feature", "properties": { "osm_id": "2125804303", "name": "Best One", "other_tags": "\"addr:postcode\"=>\"LS9 8BL\",\"fhrs:id\"=>\"471136\",\"shop\"=>\"convenience\"" }, "geometry": { "type": "Point", "coordinates": [ -1.5348149, 53.7977528 ] } },
	{ "type": "Feature", "properties": { "osm_id": "2134260271", "name": "Gateway Express", "other_tags": "\"addr:city\"=>\"Leeds\",\"addr:housename\"=>\"The Gateway West\",\"addr:postcode\"=>\"LS9 8DA\",\"addr:street\"=>\"East Street\",\"addr:unit\"=>\"1\",\"brand\"=>\"Best One\",\"fhrs:id\"=>\"1106872\",\"shop\"=>\"convenience\"" }, "geometry": { "type": "Point", "coordinates": [ -1.5325702, 53.7941673 ] } },
	{ "type": "Feature", "properties": { "osm_id": "2135004396", "name": "Granary Express", "other_tags": "\"addr:postcode\"=>\"LS1 4GL\",\"fhrs:id\"=>\"666635\",\"shop\"=>\"convenience\"" }, "geometry": { "type": "Point", "coordinates": [ -1.5488244, 53.7936536 ] } },
	{ "type": "Feature", "properties": { "osm_id": "2148948485", "name": "Tesco Express", "other_tags": "\"addr:city\"=>\"Leeds\",\"addr:housenumber\"=>\"700-702\",\"addr:postcode\"=>\"LS17 7AW\",\"addr:street\"=>\"King Lane\",\"addr:suburb\"=>\"Alwoodley\",\"fhrs:id\"=>\"589846\",\"operator\"=>\"Tracing\",\"shop\"=>\"convenience\"" }, "geometry": { "type": "Point", "coordinates": [ -1.5626218, 53.8562166 ] } },
	{ "type": "Feature", "properties": { "osm_id": "2170033471", "other_tags": "\"shop\"=>\"convenience\"" }, "geometry": { "type": "Point", "coordinates": [ -1.7981976, 53.7639318 ] } },
	{ "type": "Feature", "properties": { "osm_id": "2195805670", "other_tags": "\"shop\"=>\"convenience\"" }, "geometry": { "type": "Point", "coordinates": [ -1.75741, 53.7962739 ] } },
	{ "type": "Feature", "properties": { "osm_id": "2195805672", "other_tags": "\"shop\"=>\"convenience\"" }, "geometry": { "type": "Point", "coordinates": [ -1.7577426, 53.796521 ] } },
	{ "type": "Feature", "properties": { "osm_id": "2376472662", "other_tags": "\"shop\"=>\"convenience\"" }, "geometry": { "type": "Point", "coordinates": [ -1.8033815, 53.6364778 ] } },
	{ "type": "Feature", "properties": { "osm_id": "2376501240", "other_tags": "\"shop\"=>\"convenience\"" }, "geometry": { "type": "Point", "coordinates": [ -1.8175794, 53.6334498 ] } },
	{ "type": "Feature", "properties": { "osm_id": "2377667260", "other_tags": "\"shop\"=>\"convenience\"" }, "geometry": { "type": "Point", "coordinates": [ -1.8017472, 53.6398092 ] } },
	{ "type": "Feature", "properties": { "osm_id": "2385766646", "name": "H & A News", "other_tags": "\"addr:city\"=>\"Cleckheaton\",\"addr:country\"=>\"GB\",\"addr:housenumber\"=>\"24\",\"addr:postcode\"=>\"BD19 5BU\",\"addr:street\"=>\"Dewsbury Road\",\"addr:suburb\"=>\"Marsh\",\"alcohol\"=>\"yes\",\"fhrs:id\"=>\"226674\",\"shop\"=>\"convenience\",\"source:addr\"=>\"FHRS Open Data\"" }, "geometry": { "type": "Point", "coordinates": [ -1.7097877, 53.7214913 ] } },
	{ "type": "Feature", "properties": { "osm_id": "2398153516", "other_tags": "\"shop\"=>\"convenience\"" }, "geometry": { "type": "Point", "coordinates": [ -1.7843195, 53.6486402 ] } },
	{ "type": "Feature", "properties": { "osm_id": "2407082641", "name": "Anwars", "other_tags": "\"addr:city\"=>\"Leeds\",\"addr:housename\"=>\"Eldon Court\",\"addr:postcode\"=>\"LS2 9BQ\",\"addr:street\"=>\"St Marks Road\",\"addr:suburb\"=>\"Woodhouse\",\"addr:unit\"=>\"1B\",\"fhrs:id\"=>\"564069\",\"shop\"=>\"convenience\"" }, "geometry": { "type": "Point", "coordinates": [ -1.5524503, 53.8091186 ] } },
	{ "type": "Feature", "properties": { "osm_id": "2409297727", "other_tags": "\"shop\"=>\"convenience\"" }, "geometry": { "type": "Point", "coordinates": [ -1.7874698, 53.6316584 ] } },
	{ "type": "Feature", "properties": { "osm_id": "2409310886", "name": "Costcutter", "other_tags": "\"opening_hours\"=>\"closed\",\"shop\"=>\"convenience\"" }, "geometry": { "type": "Point", "coordinates": [ -1.7947306, 53.6198777 ] } },
	{ "type": "Feature", "properties": { "osm_id": "2430346521", "name": "McColl's", "amenity": "post_office", "other_tags": "\"addr:housenumber\"=>\"77-79\",\"addr:postcode\"=>\"LS18 5DU\",\"addr:street\"=>\"Broadgate Lane\",\"fhrs:id\"=>\"321635\",\"shop\"=>\"convenience\",\"source:addr\"=>\"FSA Food Hygiene Ratings Database\"" }, "geometry": { "type": "Point", "coordinates": [ -1.6299482, 53.8387649 ] } },
	{ "type": "Feature", "properties": { "osm_id": "2459685086", "name": "One Stop", "other_tags": "\"addr:city\"=>\"Halifax\",\"addr:country\"=>\"GB\",\"addr:housenumber\"=>\"252\",\"addr:postcode\"=>\"HX1 3JP\",\"addr:street\"=>\"King Cross Road\",\"fhrs:id\"=>\"348507\",\"shop\"=>\"convenience\",\"source:addr\"=>\"FHRS Open Data\"" }, "geometry": { "type": "Point", "coordinates": [ -1.8832264, 53.7147082 ] } },
	{ "type": "Feature", "properties": { "osm_id": "2611488250", "name": "Londis", "other_tags": "\"addr:city\"=>\"Huddersfield\",\"addr:country\"=>\"GB\",\"addr:hamlet\"=>\"Oakes\",\"addr:housenumber\"=>\"204\",\"addr:postcode\"=>\"HD3 4BU\",\"addr:street\"=>\"New Hey Road\",\"fhrs:id\"=>\"226390\",\"shop\"=>\"convenience\",\"source:addr\"=>\"FHRS Open Data\"" }, "geometry": { "type": "Point", "coordinates": [ -1.8220376, 53.6538843 ] } },
	{ "type": "Feature", "properties": { "osm_id": "2769465575", "name": "Londis", "other_tags": "\"addr:city\"=>\"Holmfirth\",\"addr:country\"=>\"GB\",\"addr:hamlet\"=>\"Netherthong\",\"addr:housenumber\"=>\"130\",\"addr:postcode\"=>\"HD9 3XZ\",\"addr:street\"=>\"Town Gate\",\"designation\"=>\"Small Post Office Facilities\",\"fhrs:id\"=>\"306752\",\"opening_hours\"=>\"Mo-Sa 06:30-12:30,13:30-21:00; Su 09:00-12:00,17:00-20:00\",\"shop\"=>\"convenience\",\"source:addr\"=>\"FHRS Open Data\"" }, "geometry": { "type": "Point", "coordinates": [ -1.7911209, 53.5833473 ] } },
	{ "type": "Feature", "properties": { "osm_id": "2971244421", "name": "Steeton Newsagents", "other_tags": "\"addr:city\"=>\"Keighley\",\"addr:housenumber\"=>\"1-3\",\"addr:postcode\"=>\"BD20 6SE\",\"addr:street\"=>\"Elmsley Street\",\"addr:village\"=>\"Steeton With Eastburn\",\"fhrs:id\"=>\"326800\",\"shop\"=>\"convenience\",\"source:addr\"=>\"FHRS Open Data\"" }, "geometry": { "type": "Point", "coordinates": [ -1.9514556, 53.8960824 ] } },
	{ "type": "Feature", "properties": { "osm_id": "3137244844", "name": "Pound Bargins", "other_tags": "\"addr:city\"=>\"Heckmondwike\",\"addr:country\"=>\"GB\",\"addr:housename\"=>\"Northgate Centre\",\"addr:housenumber\"=>\"6B\",\"addr:postcode\"=>\"WF16 9RL\",\"addr:street\"=>\"Northgate\",\"fhrs:id\"=>\"455747\",\"shop\"=>\"convenience\",\"source:addr\"=>\"FHRS Open Data\"" }, "geometry": { "type": "Point", "coordinates": [ -1.6761127, 53.7081924 ] } },
	{ "type": "Feature", "properties": { "osm_id": "3153411942", "name": "Village Store", "other_tags": "\"addr:city\"=>\"Leeds\",\"addr:housenumber\"=>\"44\",\"addr:postcode\"=>\"LS14 3DX\",\"addr:street\"=>\"Main Street\",\"addr:suburb\"=>\"Thorner\",\"fhrs:id\"=>\"716417\",\"shop\"=>\"convenience\"" }, "geometry": { "type": "Point", "coordinates": [ -1.4284964, 53.8573633 ] } },
	{ "type": "Feature", "properties": { "osm_id": "3168523932", "name": "Loco", "other_tags": "\"shop\"=>\"convenience\"" }, "geometry": { "type": "Point", "coordinates": [ -1.5516464, 53.79625 ] } },
	{ "type": "Feature", "properties": { "osm_id": "3191671091", "name": "Whitecross Convenience Store", "other_tags": "\"addr:housenumber\"=>\"22\",\"addr:postcode\"=>\"LS20 8NH\",\"addr:street\"=>\"Bradford Road\",\"addr:town\"=>\"Guiseley\",\"fhrs:id\"=>\"320508\",\"shop\"=>\"convenience\"" }, "geometry": { "type": "Point", "coordinates": [ -1.7252057, 53.8764693 ] } },
	{ "type": "Feature", "properties": { "osm_id": "3194894613", "name": "Aladdin Markets", "other_tags": "\"addr:city\"=>\"Leeds\",\"addr:housenumber\"=>\"68 - 72\",\"addr:postcode\"=>\"LS9 7SU\",\"addr:street\"=>\"Lincoln Green Road\",\"shop\"=>\"convenience\"" }, "geometry": { "type": "Point", "coordinates": [ -1.5266053, 53.8022193 ] } },
	{ "type": "Feature", "properties": { "osm_id": "3222499261", "name": "Lumsar News", "other_tags": "\"addr:city\"=>\"Leeds\",\"addr:housenumber\"=>\"146-148\",\"addr:postcode\"=>\"LS6 1AJ\",\"addr:street\"=>\"Hyde Park Road\",\"fhrs:id\"=>\"319861\",\"opening_hours\"=>\"Mo-Su 07:00-22:00\",\"shop\"=>\"convenience\"" }, "geometry": { "type": "Point", "coordinates": [ -1.5658763, 53.8098177 ] } },
	{ "type": "Feature", "properties": { "osm_id": "3222635362", "name": "Alladin", "other_tags": "\"addr:city\"=>\"Leeds\",\"addr:housenumber\"=>\"7\",\"addr:postcode\"=>\"LS6 2NW\",\"addr:street\"=>\"The Crescent\",\"fhrs:id\"=>\"699341\",\"shop\"=>\"convenience\"" }, "geometry": { "type": "Point", "coordinates": [ -1.5612245, 53.8146868 ] } },
	{ "type": "Feature", "properties": { "osm_id": "3225905508", "name": "Liquor Village Plus Drinks Specialist", "other_tags": "\"addr:city\"=>\"Leeds\",\"addr:housenumber\"=>\"134\",\"addr:postcode\"=>\"LS6 1LU\",\"addr:street\"=>\"Cardigan Road\",\"addr:suburb\"=>\"Headingley\",\"fhrs:id\"=>\"466925\",\"shop\"=>\"convenience\"" }, "geometry": { "type": "Point", "coordinates": [ -1.5764792, 53.8121027 ] } },
	{ "type": "Feature", "properties": { "osm_id": "3225929567", "name": "Brudenell Wines And Spirits", "other_tags": "\"addr:city\"=>\"Leeds\",\"addr:housenumber\"=>\"86-88\",\"addr:postcode\"=>\"LS6 1EG\",\"addr:street\"=>\"Brudenell Road\",\"addr:suburb\"=>\"Hyde Park\",\"brand\"=>\"best-one\",\"fhrs:id\"=>\"319598\",\"not:addr:postcode\"=>\"LS6 1EP\",\"shop\"=>\"convenience\"" }, "geometry": { "type": "Point", "coordinates": [ -1.5706192, 53.8120255 ] } },
	{ "type": "Feature", "properties": { "osm_id": "3225929764", "name": "Makkah Foods", "other_tags": "\"addr:city\"=>\"Leeds\",\"addr:housenumber\"=>\"129\",\"addr:postcode\"=>\"LS6 1LS\",\"addr:street\"=>\"Brudenell Road\",\"fhrs:id\"=>\"454514\",\"shop\"=>\"convenience\"" }, "geometry": { "type": "Point", "coordinates": [ -1.5734057, 53.8110939 ] } },
	{ "type": "Feature", "properties": { "osm_id": "3225929767", "name": "Local Off Licence", "other_tags": "\"addr:city\"=>\"Leeds\",\"addr:housenumber\"=>\"127\",\"addr:postcode\"=>\"LS6 1LU\",\"addr:street\"=>\"Cardigan Road\",\"addr:suburb\"=>\"Headingley\",\"fhrs:id\"=>\"319626\",\"shop\"=>\"convenience\"" }, "geometry": { "type": "Point", "coordinates": [ -1.5753503, 53.8110965 ] } },
	{ "type": "Feature", "properties": { "osm_id": "3404794107", "name": "K.S. Bhullar Supersave", "other_tags": "\"shop\"=>\"convenience\"" }, "geometry": { "type": "Point", "coordinates": [ -1.8427629, 53.6304551 ] } },
	{ "type": "Feature", "properties": { "osm_id": "3404794109", "name": "Premier News, Food & Wine", "other_tags": "\"shop\"=>\"convenience\"" }, "geometry": { "type": "Point", "coordinates": [ -1.8355765, 53.6352154 ] } },
	{ "type": "Feature", "properties": { "osm_id": "3551167022", "name": "Golcar Stores", "other_tags": "\"shop\"=>\"convenience\"" }, "geometry": { "type": "Point", "coordinates": [ -1.8481227, 53.6380577 ] } },
	{ "type": "Feature", "properties": { "osm_id": "3600588640", "name": "One Stop", "other_tags": "\"addr:city\"=>\"Leeds\",\"addr:housenumber\"=>\"2-4\",\"addr:postcode\"=>\"LS8 1LW\",\"addr:street\"=>\"Chandos Gardens\",\"fhrs:id\"=>\"542477\",\"phone\"=>\"+44 113 266 3322\",\"shop\"=>\"convenience\"" }, "geometry": { "type": "Point", "coordinates": [ -1.5206335, 53.8346513 ] } },
	{ "type": "Feature", "properties": { "osm_id": "3617871920", "name": "Easterly Road Off Licence", "other_tags": "\"addr:city\"=>\"Leeds\",\"addr:housenumber\"=>\"135\",\"addr:postcode\"=>\"LS8 2TP\",\"addr:street\"=>\"Easterly Road\",\"addr:suburb\"=>\"Gipton\",\"fhrs:id\"=>\"687546\",\"shop\"=>\"convenience\"" }, "geometry": { "type": "Point", "coordinates": [ -1.5028785, 53.8192194 ] } },
	{ "type": "Feature", "properties": { "osm_id": "3618061608", "name": "Vilnius & Co", "other_tags": "\"addr:city\"=>\"Leeds\",\"addr:housenumber\"=>\"273\",\"addr:postcode\"=>\"LS8 4HS\",\"addr:street\"=>\"Roundhay Road\",\"fhrs:id\"=>\"321909\",\"shop\"=>\"convenience\"" }, "geometry": { "type": "Point", "coordinates": [ -1.5167277, 53.8174074 ] } },
	{ "type": "Feature", "properties": { "osm_id": "3618061609", "name": "Magazin Romanesc", "other_tags": "\"addr:city\"=>\"Leeds\",\"addr:housenumber\"=>\"260\",\"addr:postcode\"=>\"LS8 5RL\",\"addr:street\"=>\"Roundhay Road\",\"fhrs:id\"=>\"1090609\",\"shop\"=>\"convenience\"" }, "geometry": { "type": "Point", "coordinates": [ -1.5163379, 53.8171851 ] } },
	{ "type": "Feature", "properties": { "osm_id": "3618525985", "name": "Premier", "other_tags": "\"shop\"=>\"convenience\"" }, "geometry": { "type": "Point", "coordinates": [ -1.5027401, 53.8139617 ] } },
	{ "type": "Feature", "properties": { "osm_id": "3620155423", "name": "One Stop", "other_tags": "\"addr:city\"=>\"Leeds\",\"addr:housenumber\"=>\"50\",\"addr:postcode\"=>\"LS7 1SP\",\"addr:street\"=>\"Oatland Lane\",\"fhrs:id\"=>\"666642\",\"shop\"=>\"convenience\"" }, "geometry": { "type": "Point", "coordinates": [ -1.5398636, 53.8076537 ] } },
	{ "type": "Feature", "properties": { "osm_id": "3620196176", "name": "Spar", "other_tags": "\"shop\"=>\"convenience\"" }, "geometry": { "type": "Point", "coordinates": [ -1.5443035, 53.8327754 ] } },
	{ "type": "Feature", "properties": { "osm_id": "3620307917", "name": "Ali News", "other_tags": "\"shop\"=>\"convenience\"" }, "geometry": { "type": "Point", "coordinates": [ -1.5576742, 53.8472784 ] } },
	{ "type": "Feature", "properties": { "osm_id": "3626078158", "name": "Vesper Convenience Store", "other_tags": "\"addr:city\"=>\"Leeds\",\"addr:housenumber\"=>\"105\",\"addr:postcode\"=>\"LS5 3LJ\",\"addr:street\"=>\"Vesper Road\",\"fhrs:id\"=>\"847993\",\"shop\"=>\"convenience\"" }, "geometry": { "type": "Point", "coordinates": [ -1.6189892, 53.8280216 ] } },
	{ "type": "Feature", "properties": { "osm_id": "3626724745", "name": "Logan Stores", "other_tags": "\"addr:city\"=>\"Leeds\",\"addr:housenumber\"=>\"80\",\"addr:postcode\"=>\"LS16 6LQ\",\"addr:street\"=>\"Otley Old Road\",\"fhrs:id\"=>\"650659\",\"shop\"=>\"convenience\"" }, "geometry": { "type": "Point", "coordinates": [ -1.6039029, 53.8487865 ] } },
	{ "type": "Feature", "properties": { "osm_id": "3632243803", "name": "Londis", "other_tags": "\"shop\"=>\"convenience\",\"fhrs:id\"=>\"467443\",\"addr:city\"=>\"Otley\",\"addr:street\"=>\"Weston Lane\",\"source:addr\"=>\"FHRS Open Data\",\"addr:postcode\"=>\"LS21 2DD\",\"addr:housenumber\"=>\"12\"" }, "geometry": { "type": "Point", "coordinates": [ -1.7003109, 53.9113281 ] } },
	{ "type": "Feature", "properties": { "osm_id": "3632243804", "name": "Weston General Stores", "other_tags": "\"shop\"=>\"convenience\",\"fhrs:id\"=>\"320679\",\"addr:city\"=>\"Otley\",\"addr:street\"=>\"The Parade\",\"source:addr\"=>\"FHRS Open Data\",\"addr:postcode\"=>\"LS21 2DQ\",\"addr:housenumber\"=>\"2 - 3\"" }, "geometry": { "type": "Point", "coordinates": [ -1.7102377, 53.9132288 ] } },
	{ "type": "Feature", "properties": { "osm_id": "3634785856", "other_tags": "\"shop\"=>\"convenience\"" }, "geometry": { "type": "Point", "coordinates": [ -1.5864478, 53.7625532 ] } },
	{ "type": "Feature", "properties": { "osm_id": "3634830652", "name": "Sainsbury's Local", "other_tags": "\"addr:city\"=>\"Leeds\",\"addr:housenumber\"=>\"47-49\",\"addr:postcode\"=>\"LS25 1DS\",\"addr:street\"=>\"Main Street\",\"fhrs:id\"=>\"321887\",\"shop\"=>\"convenience\"" }, "geometry": { "type": "Point", "coordinates": [ -1.3885143, 53.7937406 ] } },
	{ "type": "Feature", "properties": { "osm_id": "3634830678", "name": "Heer Convenience Store", "other_tags": "\"addr:city\"=>\"Leeds\",\"addr:housenumber\"=>\"1\",\"addr:postcode\"=>\"LS25 2AR\",\"addr:street\"=>\"Fairburn Drive\",\"addr:suburb\"=>\"Garforth\",\"fhrs:id\"=>\"710567\",\"shop\"=>\"convenience\"" }, "geometry": { "type": "Point", "coordinates": [ -1.3762271, 53.7861366 ] } },
	{ "type": "Feature", "properties": { "osm_id": "3635703090", "name": "Londis Swillington", "amenity": "post_office", "other_tags": "\"addr:city\"=>\"Leeds\",\"addr:housenumber\"=>\"1\",\"addr:postcode\"=>\"LS26 8UE\",\"addr:street\"=>\"Astley Lane\",\"fhrs:id\"=>\"321351\",\"shop\"=>\"convenience\"" }, "geometry": { "type": "Point", "coordinates": [ -1.4175044, 53.7682491 ] } },
	{ "type": "Feature", "properties": { "osm_id": "3636245317", "name": "Raynville Road Nisa Local", "other_tags": "\"addr:city\"=>\"Leeds\",\"addr:housenumber\"=>\"17\",\"addr:postcode\"=>\"LS12 2TE\",\"addr:street\"=>\"Raynville Road\",\"addr:suburb\"=>\"Bramley\",\"fhrs:id\"=>\"732838\",\"shop\"=>\"convenience\"" }, "geometry": { "type": "Point", "coordinates": [ -1.6107399, 53.8112866 ] } },
	{ "type": "Feature", "properties": { "osm_id": "3641666661", "name": "Bargain Booze", "other_tags": "\"addr:housenumber\"=>\"26-28\",\"addr:postcode\"=>\"LS20 9AS\",\"addr:street\"=>\"Oxford Road\",\"addr:town\"=>\"Guiseley\",\"fhrs:id\"=>\"320487\",\"shop\"=>\"convenience\"" }, "geometry": { "type": "Point", "coordinates": [ -1.7109005, 53.8752949 ] } },
	{ "type": "Feature", "properties": { "osm_id": "3646608168", "name": "M.G. Foods", "other_tags": "\"addr:city\"=>\"Leeds\",\"addr:housenumber\"=>\"22-24\",\"addr:postcode\"=>\"LS3 1DT\",\"addr:street\"=>\"Woodsley Road\",\"fhrs:id\"=>\"320345\",\"shop\"=>\"convenience\"" }, "geometry": { "type": "Point", "coordinates": [ -1.5686039, 53.8055836 ] } },
	{ "type": "Feature", "properties": { "osm_id": "3646687339", "name": "John O Gaunts Post Office", "amenity": "post_office", "other_tags": "\"addr:city\"=>\"Leeds\",\"addr:housenumber\"=>\"160\",\"addr:postcode\"=>\"LS26 0JH\",\"addr:street\"=>\"Leeds Road\",\"addr:suburb\"=>\"Rothwell\",\"fhrs:id\"=>\"467337\",\"shop\"=>\"convenience\"" }, "geometry": { "type": "Point", "coordinates": [ -1.4711208, 53.7565325 ] } },
	{ "type": "Feature", "properties": { "osm_id": "3655905319", "name": "Queenshill Store", "other_tags": "\"addr:city\"=>\"Leeds\",\"addr:housenumber\"=>\"2\",\"addr:postcode\"=>\"LS17 6AY\",\"addr:street\"=>\"Queenshill Approach\",\"addr:suburb\"=>\"Moortown\",\"fhrs:id\"=>\"320080\",\"shop\"=>\"convenience\"" }, "geometry": { "type": "Point", "coordinates": [ -1.5422704, 53.8446832 ] } },
	{ "type": "Feature", "properties": { "osm_id": "3660954874", "name": "Cullingworth Stores", "other_tags": "\"addr:city\"=>\"Bradford\",\"addr:housenumber\"=>\"3\",\"addr:postcode\"=>\"BD13 5DD\",\"addr:street\"=>\"Halifax Road\",\"addr:village\"=>\"Cullingworth\",\"fhrs:id\"=>\"327519\",\"shop\"=>\"convenience\"" }, "geometry": { "type": "Point", "coordinates": [ -1.8987499, 53.8260486 ] } },
	{ "type": "Feature", "properties": { "osm_id": "3671058957", "name": "Avtar Wine & Spirits", "other_tags": "\"addr:city\"=>\"Leeds\",\"addr:housenumber\"=>\"63\",\"addr:postcode\"=>\"LS6 1JY\",\"addr:street\"=>\"Thornville Road\",\"addr:suburb\"=>\"Headingley\",\"fhrs:id\"=>\"690460\",\"shop\"=>\"convenience\"" }, "geometry": { "type": "Point", "coordinates": [ -1.573392, 53.8107829 ] } },
	{ "type": "Feature", "properties": { "osm_id": "3671058960", "name": "The Park Convenience Store", "other_tags": "\"addr:city\"=>\"Leeds\",\"addr:housenumber\"=>\"42a\",\"addr:postcode\"=>\"LS6 1HX\",\"addr:street\"=>\"Royal Park Road\",\"shop\"=>\"convenience\"" }, "geometry": { "type": "Point", "coordinates": [ -1.5709579, 53.8108322 ] } },
	{ "type": "Feature", "properties": { "osm_id": "3715203816", "name": "Premier Airport Autopoint", "other_tags": "\"shop\"=>\"convenience\",\"fhrs:id\"=>\"323314\",\"addr:street\"=>\"Green Lane\",\"source:addr\"=>\"FHRS Open Data\",\"addr:postcode\"=>\"LS19 7BU\"" }, "geometry": { "type": "Point", "coordinates": [ -1.6767198, 53.8602764 ] } },
	{ "type": "Feature", "properties": { "osm_id": "3715282331", "name": "Rawdon Local", "other_tags": "\"shop\"=>\"convenience\",\"fhrs:id\"=>\"546069\",\"addr:city\"=>\"Rawdon\",\"addr:street\"=>\"Harrogate Road\",\"source:addr\"=>\"FHRS Open Data\",\"addr:postcode\"=>\"LS19 6HW\",\"addr:housenumber\"=>\"11\"" }, "geometry": { "type": "Point", "coordinates": [ -1.6848504, 53.8537748 ] } },
	{ "type": "Feature", "properties": { "osm_id": "3801400075", "other_tags": "\"shop\"=>\"convenience\"" }, "geometry": { "type": "Point", "coordinates": [ -1.6037939, 53.8149038 ] } },
	{ "type": "Feature", "properties": { "osm_id": "3832991738", "name": "The Village Newsagents", "other_tags": "\"addr:city\"=>\"Leeds\",\"addr:housenumber\"=>\"7\",\"addr:postcode\"=>\"LS16 9AX\",\"addr:street\"=>\"The Cross\",\"fhrs:id\"=>\"805425\",\"shop\"=>\"convenience\",\"wheelchair\"=>\"no\"" }, "geometry": { "type": "Point", "coordinates": [ -1.6230117, 53.8852116 ] } },
	{ "type": "Feature", "properties": { "osm_id": "3904815771", "name": "Tesco Express", "other_tags": "\"addr:city\"=>\"Leeds\",\"addr:housenumber\"=>\"75\",\"addr:postcode\"=>\"LS18 4QD\",\"addr:street\"=>\"New Road Side\",\"addr:suburb\"=>\"Horsforth\",\"fhrs:id\"=>\"321211\",\"opening_hours\"=>\"06:00-23:00\",\"operator\"=>\"Tesco\",\"phone\"=>\"+44 345 026 9421\",\"shop\"=>\"convenience\"" }, "geometry": { "type": "Point", "coordinates": [ -1.6404243, 53.8318806 ] } },
	{ "type": "Feature", "properties": { "osm_id": "3955874242", "name": "Best One", "other_tags": "\"addr:city\"=>\"Leeds\",\"addr:housenumber\"=>\"58-60\",\"addr:postcode\"=>\"LS12 1LZ\",\"addr:street\"=>\"Tong Road\",\"fhrs:id\"=>\"320240\",\"shop\"=>\"convenience\"" }, "geometry": { "type": "Point", "coordinates": [ -1.5770274, 53.7917537 ] } },
	{ "type": "Feature", "properties": { "osm_id": "4059185333", "name": "Mullaco", "other_tags": "\"addr:city\"=>\"Dewsbury\",\"addr:country\"=>\"GB\",\"addr:housenumber\"=>\"54\",\"addr:postcode\"=>\"WF12 9LX\",\"addr:street\"=>\"Warren Street\",\"addr:suburb\"=>\"Savile Town\",\"fhrs:id\"=>\"228484\",\"shop\"=>\"convenience\",\"source:addr\"=>\"FHRS Open Data\"" }, "geometry": { "type": "Point", "coordinates": [ -1.6300494, 53.6836076 ] } },
	{ "type": "Feature", "properties": { "osm_id": "4237749189", "name": "Nisa Local", "other_tags": "\"addr:city\"=>\"Leeds\",\"addr:housename\"=>\"Sky Plaza\",\"addr:postcode\"=>\"LS2 8AR\",\"addr:street\"=>\"Clay Pit Lane\",\"fhrs:id\"=>\"322547\",\"shop\"=>\"convenience\"" }, "geometry": { "type": "Point", "coordinates": [ -1.5434603, 53.8043514 ] } },
	{ "type": "Feature", "properties": { "osm_id": "4254659524", "name": "Citispace Stores", "other_tags": "\"addr:city\"=>\"Leeds\",\"addr:housename\"=>\"Suite 5\",\"addr:postcode\"=>\"LS2 7QJ\",\"addr:street\"=>\"Byron Street\",\"shop\"=>\"convenience\",\"source:addr\"=>\"FHRS Open Data\"" }, "geometry": { "type": "Point", "coordinates": [ -1.5340385, 53.802513 ] } },
	{ "type": "Feature", "properties": { "osm_id": "4258315489", "name": "Londis", "other_tags": "\"shop\"=>\"convenience\",\"fhrs:id\"=>\"546065\",\"addr:street\"=>\"Wetherby Road\",\"source:addr\"=>\"FHRS Open Data\",\"addr:postcode\"=>\"LS17 8NE\",\"addr:housenumber\"=>\"244\"" }, "geometry": { "type": "Point", "coordinates": [ -1.4713916, 53.8373989 ] } },
	{ "type": "Feature", "properties": { "osm_id": "4382735470", "name": "South Parade Late Store", "other_tags": "\"addr:city\"=>\"Leeds\",\"addr:housenumber\"=>\"17\",\"addr:postcode\"=>\"LS27 8AJ\",\"addr:street\"=>\"South Parade\",\"fhrs:id\"=>\"322100\",\"shop\"=>\"convenience\"" }, "geometry": { "type": "Point", "coordinates": [ -1.5942311, 53.743755 ] } },
	{ "type": "Feature", "properties": { "osm_id": "4411803717", "name": "A2Z Essentials", "other_tags": "\"addr:city\"=>\"Wakefield\",\"addr:housenumber\"=>\"44-46\",\"addr:postcode\"=>\"WF1 3AN\",\"addr:street\"=>\"Northgate\",\"fhrs:id\"=>\"1105178\",\"not:addr:postcode\"=>\"WF1 3AW\",\"shop\"=>\"convenience\"" }, "geometry": { "type": "Point", "coordinates": [ -1.498237, 53.6839885 ] } },
	{ "type": "Feature", "properties": { "osm_id": "4411803753", "name": "Sasans Shop", "other_tags": "\"addr:housenumber\"=>\"33\",\"addr:postcode\"=>\"WF1 1HS\",\"addr:street\"=>\"Kirkgate\",\"fhrs:id\"=>\"1066714\",\"shop\"=>\"convenience\"" }, "geometry": { "type": "Point", "coordinates": [ -1.4949031, 53.6828504 ] } },