{
"type": "FeatureCollection",
"crs": { "type": "name", "properties": { "name": "urn:ogc:def:crs:OGC:1.3:CRS84" } },
"features": [
	{ "type": "Feature", "properties": { "osm_id": "302049495", "name": "Burton", "other_tags": "\"shop\"=>\"clothes\"" }, "geometry": { "type": "Point", "coordinates": [ -1.6445187, 53.7459048 ] } },
	{ "type": "Feature", "properties": { "osm_id": "302049496", "name": "Dorothy Perkins", "other_tags": "\"shop\"=>\"clothes\"" }, "geometry": { "type": "Point", "coordinates": [ -1.64436, 53.7459241 ] } },
	{ "type": "Feature", "properties": { "osm_id": "302049497", "name": "Evans", "other_tags": "\"shop\"=>\"clothes\"" }, "geometry": { "type": "Point", "coordinates": [ -1.6444685, 53.7459108 ] } },
	{ "type": "Feature", "properties": { "osm_id": "302049498", "name": "Wallis", "other_tags": "\"shop\"=>\"clothes\"" }, "geometry": { "type": "Point", "coordinates": [ -1.644414, 53.7459172 ] } },
	{ "type": "Feature", "properties": { "osm_id": "313247813", "name": "Bruno Venezia", "other_tags": "\"shop\"=>\"clothes\"" }, "geometry": { "type": "Point", "coordinates": [ -1.6098804, 53.8031018 ] } },
	{ "type": "Feature", "properties": { "osm_id": "313247814", "name": "Helen Sykes", "other_tags": "\"shop\"=>\"clothes\"" }, "geometry": { "type": "Point", "coordinates": [ -1.6097039, 53.8030343 ] } },
	{ "type": "Feature", "properties": { "osm_id": "314445728", "name": "Primark", "other_tags": "\"shop\"=>\"clothes\"" }, "geometry": { "type": "Point", "coordinates": [ -1.7836815, 53.6439795 ] } },
	{ "type": "Feature", "properties": { "osm_id": "330089351", "name": "Baby's Need's", "other_tags": "\"shop\"=>\"clothes\"" }, "geometry": { "type": "Point", "coordinates": [ -1.5895164, 53.7970805 ] } },
	{ "type": "Feature", "properties": { "osm_id": "333467317", "name": "Fat Face", "other_tags": "\"addr:city\"=>\"Leeds\",\"addr:housenumber\"=>\"69-70\",\"addr:postcode\"=>\"LS1 6LH\",\"addr:street\"=>\"Briggate\",\"shop\"=>\"clothes\",\"website\"=>\"https:\/\/www.fatface.com\/\"" }, "geometry": { "type": "Point", "coordinates": [ -1.5423938, 53.7981117 ] } },
	{ "type": "Feature", "properties": { "osm_id": "333799006", "name": "Karen Millen", "other_tags": "\"addr:city\"=>\"Leeds\",\"addr:housenumber\"=>\"2\",\"addr:postcode\"=>\"LS1 6BE\",\"addr:street\"=>\"Queen Victoria Street\",\"shop\"=>\"clothes\",\"wheelchair\"=>\"no\"" }, "geometry": { "type": "Point", "coordinates": [ -1.5419022, 53.7983256 ] } },
	{ "type": "Feature", "properties": { "osm_id": "333799013", "name": "Louis Vuitton", "other_tags": "\"addr:city\"=>\"Leeds\",\"addr:housenumber\"=>\"98-99\",\"addr:postcode\"=>\"LS1 6NP\",\"addr:street\"=>\"Briggate\",\"shop\"=>\"clothes\"" }, "geometry": { "type": "Point", "coordinates": [ -1.5418889, 53.7985098 ] } },
	{ "type": "Feature", "properties": { "osm_id": "352872460", "name": "Jo Brand Junior", "other_tags": "\"shop\"=>\"clothes\"" }, "geometry": { "type": "Point", "coordinates": [ -1.5667801, 53.8290653 ] } },
	{ "type": "Feature", "properties": { "osm_id": "385014727", "name": "Matalan", "other_tags": "\"shop\"=>\"clothes\"" }, "geometry": { "type": "Point", "coordinates": [ -1.6252556, 53.6908846 ] } },
	{ "type": "Feature", "properties": { "osm_id": "535954699", "name": "Muhsin's", "other_tags": "\"shop\"=>\"clothes\"" }, "geometry": { "type": "Point", "coordinates": [ -1.6651246, 53.6785561 ] } },
	{ "type": "Feature", "properties": { "osm_id": "537113084", "name": "Cashmere Factory Outlet", "other_tags": "\"shop\"=>\"clothes\"" }, "geometry": { "type": "Point", "coordinates": [ -1.6925252, 53.6738631 ] } },
	{ "type": "Feature", "properties": { "osm_id": "540201164", "name": "Time & Time Again", "other_tags": "\"addr:city\"=>\"Ilkley\",\"addr:country\"=>\"GB\",\"addr:housenumber\"=>\"1\",\"addr:postcode\"=>\"LS29 9DR\",\"addr:street\"=>\"Church Street\",\"description\"=>\"Formal wear; Highland wear; clothes hire; men\",\"shop\"=>\"clothes\"" }, "geometry": { "type": "Point", "coordinates": [ -1.8236886, 53.9261128 ] } },
	{ "type": "Feature", "properties": { "osm_id": "662441113", "name": "United Footwear", "other_tags": "\"shop\"=>\"clothes\"" }, "geometry": { "type": "Point", "coordinates": [ -1.7279003, 53.7752053 ] } },
	{ "type": "Feature", "properties": { "osm_id": "662441219", "name": "St Vincent's", "other_tags": "\"shop\"=>\"clothes\"" }, "geometry": { "type": "Point", "coordinates": [ -1.7215148, 53.7711915 ] } },
	{ "type": "Feature", "properties": { "osm_id": "662441243", "name": "Step 2", "other_tags": "\"shop\"=>\"clothes\"" }, "geometry": { "type": "Point", "coordinates": [ -1.7215998, 53.7714484 ] } },
	{ "type": "Feature", "properties": { "osm_id": "687080933", "name": "Diva Bridal", "other_tags": "\"shop\"=>\"clothes\"" }, "geometry": { "type": "Point", "coordinates": [ -1.7160135, 53.7696628 ] } },
	{ "type": "Feature", "properties": { "osm_id": "687081050", "other_tags": "\"shop\"=>\"clothes\"" }, "geometry": { "type": "Point", "coordinates": [ -1.7123148, 53.7683463 ] } },
	{ "type": "Feature", "properties": { "osm_id": "888253998", "name": "Zara", "other_tags": "\"addr:city\"=>\"Leeds\",\"addr:housenumber\"=>\"129-132\",\"addr:postcode\"=>\"LS1 6BR\",\"addr:street\"=>\"Briggate\",\"shop\"=>\"clothes\"" }, "geometry": { "type": "Point", "coordinates": [ -1.5421279, 53.7971096 ] } },
	{ "type": "Feature", "properties": { "osm_id": "966181120", "name": "Ashy's Collection", "other_tags": "\"shop\"=>\"clothes\"" }, "geometry": { "type": "Point", "coordinates": [ -1.666767, 53.6782914 ] } },
	{ "type": "Feature", "properties": { "osm_id": "1039830673", "name": "Topman", "other_tags": "\"shop\"=>\"clothes\",\"indoor\"=>\"yes\"" }, "geometry": { "type": "Point", "coordinates": [ -1.7830802, 53.6446339 ] } },
	{ "type": "Feature", "properties": { "osm_id": "1055328716", "name": "Pronuptia", "other_tags": "\"shop\"=>\"clothes\"" }, "geometry": { "type": "Point", "coordinates": [ -1.7798098, 53.6455446 ] } },
	{ "type": "Feature", "properties": { "osm_id": "1128366597", "other_tags": "\"shop\"=>\"clothes\",\"brand\"=>\"Clarks\"" }, "geometry": { "type": "Point", "coordinates": [ -1.3114502, 53.691891 ] } },
	{ "type": "Feature", "properties": { "osm_id": "1137929818", "name": "Natasha School Wear", "other_tags": "\"shop\"=>\"clothes\"" }, "geometry": { "type": "Point", "coordinates": [ -1.6297191, 53.6933504 ] } },
	{ "type": "Feature", "properties": { "osm_id": "1137965475", "name": "Freedom", "other_tags": "\"shop\"=>\"clothes\",\"addr:housenumber\"=>\"29\"" }, "geometry": { "type": "Point", "coordinates": [ -1.6288401, 53.6929089 ] } },
	{ "type": "Feature", "properties": { "osm_id": "1139204123", "name": "Ansari's Variety House", "other_tags": "\"phone\"=>\"+44 7733 758094\",\"shop\"=>\"clothes\"" }, "geometry": { "type": "Point", "coordinates": [ -1.6278506, 53.6925894 ] } },
	{ "type": "Feature", "properties": { "osm_id": "1139236299", "name": "Kids Connection", "other_tags": "\"shop\"=>\"clothes\"" }, "geometry": { "type": "Point", "coordinates": [ -1.6288299, 53.6913753 ] } },
	{ "type": "Feature", "properties": { "osm_id": "1159765180", "name": "Regatta", "other_tags": "\"addr:housename\"=>\"Junction 32 Outlet Shopping Village\",\"addr:postcode\"=>\"WF10 4FR\",\"addr:town\"=>\"Castleford\",\"addr:unit\"=>\"41\",\"shop\"=>\"clothes\"" }, "geometry": { "type": "Point", "coordinates": [ -1.3373868, 53.7126448 ] } },
	{ "type": "Feature", "properties": { "osm_id": "1159765193", "name": "Skops Menswear", "other_tags": "\"shop\"=>\"clothes\"" }, "geometry": { "type": "Point", "coordinates": [ -1.3405477, 53.7125708 ] } },
	{ "type": "Feature", "properties": { "osm_id": "1159765207", "name": "Double Two", "other_tags": "\"addr:housename\"=>\"Junction 32 Outlet Shopping Village\",\"addr:postcode\"=>\"WF10 4FR\",\"addr:town\"=>\"Castleford\",\"addr:unit\"=>\"38\",\"shop\"=>\"clothes\"" }, "geometry": { "type": "Point", "coordinates": [ -1.3377721, 53.712844 ] } },
	{ "type": "Feature", "properties": { "osm_id": "1159765235", "name": "Suits You", "other_tags": "\"shop\"=>\"clothes\"" }, "geometry": { "type": "Point", "coordinates": [ -1.3375083, 53.7127142 ] } },
	{ "type": "Feature", "properties": { "osm_id": "1159765245", "name": "M&S Outlet", "other_tags": "\"addr:housename\"=>\"Junction 32 Outlet Shopping Village\",\"addr:postcode\"=>\"WF10 4FR\",\"addr:town\"=>\"Castleford\",\"addr:unit\"=>\"31\",\"operator\"=>\"Marks & Spencer\",\"shop\"=>\"clothes\",\"wheelchair\"=>\"yes\"" }, "geometry": { "type": "Point", "coordinates": [ -1.3390092, 53.713298 ] } },
	{ "type": "Feature", "properties": { "osm_id": "1534826943", "name": "Stitch & Style", "other_tags": "\"shop\"=>\"clothes\",\"addr:street\"=>\"Church Street\",\"addr:housenumber\"=>\"133\"" }, "geometry": { "type": "Point", "coordinates": [ -1.8101901, 53.6430254 ] } },
	{ "type": "Feature", "properties": { "osm_id": "1535922179", "name": "Trendz Clothing", "other_tags": "\"shop\"=>\"clothes\"" }, "geometry": { "type": "Point", "coordinates": [ -1.8127963, 53.6435163 ] } },
	{ "type": "Feature", "properties": { "osm_id": "1562986913", "other_tags": "\"shop\"=>\"clothes\"" }, "geometry": { "type": "Point", "coordinates": [ -1.5372558, 53.7974437 ] } },
	{ "type": "Feature", "properties": { "osm_id": "1650942199", "name": "Abbey Wedding Warehouse", "other_tags": "\"shop\"=>\"clothes\",\"clothes\"=>\"bridal\"" }, "geometry": { "type": "Point", "coordinates": [ -1.6025998, 53.8157179 ] } },
	{ "type": "Feature", "properties": { "osm_id": "1702474390", "other_tags": "\"shop\"=>\"clothes\"" }, "geometry": { "type": "Point", "coordinates": [ -1.7033594, 53.6119198 ] } },
	{ "type": "Feature", "properties": { "osm_id": "1959492746", "name": "Jannat Boutique", "other_tags": "\"shop\"=>\"clothes\"" }, "geometry": { "type": "Point", "coordinates": [ -1.9014119, 53.8702328 ] } },
	{ "type": "Feature", "properties": { "osm_id": "1959492752", "name": "Maria", "other_tags": "\"shop\"=>\"clothes\"" }, "geometry": { "type": "Point", "coordinates": [ -1.9017339, 53.8703047 ] } },
	{ "type": "Feature", "properties": { "osm_id": "1959492756", "name": "Mughal Boutique", "other_tags": "\"shop\"=>\"clothes\",\"wheelchair\"=>\"limited\"" }, "geometry": { "type": "Point", "coordinates": [ -1.9001762, 53.8699808 ] } },
	{ "type": "Feature", "properties": { "osm_id": "2091013189", "name": "Hugo Boss", "other_tags": "\"addr:city\"=>\"Leeds\",\"addr:housenumber\"=>\"71-75\",\"addr:postcode\"=>\"LS1 6QA\",\"addr:street\"=>\"Vicar Lane\",\"old_name\"=>\"The Dutchess\",\"shop\"=>\"clothes\"" }, "geometry": { "type": "Point", "coordinates": [ -1.5401437, 53.7984455 ] } },
	{ "type": "Feature", "properties": { "osm_id": "2091013202", "name": "White Stuff", "other_tags": "\"addr:city\"=>\"Leeds\",\"addr:housenumber\"=>\"60-64\",\"addr:postcode\"=>\"LS1 7JH\",\"addr:street\"=>\"Vicar Lane\",\"shop\"=>\"clothes\"" }, "geometry": { "type": "Point", "coordinates": [ -1.5398736, 53.7980251 ] } },
	{ "type": "Feature", "properties": { "osm_id": "2098303575", "name": "Flannels", "other_tags": "\"addr:city\"=>\"Leeds\",\"addr:housenumber\"=>\"68-78\",\"addr:postcode\"=>\"LS1 7JH\",\"addr:street\"=>\"Vicar Lane\",\"shop\"=>\"clothes\"" }, "geometry": { "type": "Point", "coordinates": [ -1.5397253, 53.7983267 ] } },
	{ "type": "Feature", "properties": { "osm_id": "2098303577", "name": "Sports Direct", "other_tags": "\"shop\"=>\"clothes\"" }, "geometry": { "type": "Point", "coordinates": [ -1.5411989, 53.7992914 ] } },
	{ "type": "Feature", "properties": { "osm_id": "2125610501", "name": "Best", "other_tags": "\"addr:city\"=>\"Leeds\",\"addr:housenumber\"=>\"22-24\",\"addr:street\"=>\"New Market Street\",\"shop\"=>\"clothes\"" }, "geometry": { "type": "Point", "coordinates": [ -1.5410651, 53.7962165 ] } },
	{ "type": "Feature", "properties": { "osm_id": "2125610520", "name": "Jack Wolfskin", "other_tags": "\"shop\"=>\"clothes\"" }, "geometry": { "type": "Point", "coordinates": [ -1.5446063, 53.7959201 ] } },
	{ "type": "Feature", "properties": { "osm_id": "2125610581", "name": "Ryan Vintage", "other_tags": "\"shop\"=>\"clothes\"" }, "geometry": { "type": "Point", "coordinates": [ -1.5415149, 53.7961008 ] } },
	{ "type": "Feature", "properties": { "osm_id": "2128107694", "name": "French Connection", "other_tags": "\"addr:city\"=>\"Leeds\",\"addr:housenumber\"=>\"53-57\",\"addr:postcode\"=>\"LS1 6BB\",\"addr:street\"=>\"Vicar Lane\",\"shop\"=>\"clothes\"" }, "geometry": { "type": "Point", "coordinates": [ -1.5405203, 53.7977758 ] } },
	{ "type": "Feature", "properties": { "osm_id": "2128107711", "name": "Design School Uniform & Workwear", "other_tags": "\"addr:city\"=>\"Leeds\",\"addr:housenumber\"=>\"21-23\",\"addr:postcode\"=>\"LS1 6PU\",\"addr:street\"=>\"The Headrow\",\"shop\"=>\"clothes\"" }, "geometry": { "type": "Point", "coordinates": [ -1.541147, 53.7988718 ] } },
	{ "type": "Feature", "properties": { "osm_id": "2128107736", "name": "Rohan", "other_tags": "\"addr:city\"=>\"Leeds\",\"addr:housenumber\"=>\"10-12\",\"addr:postcode\"=>\"LS1 6LQ\",\"addr:street\"=>\"Thornton's Arcade\",\"shop\"=>\"clothes\"" }, "geometry": { "type": "Point", "coordinates": [ -1.5426306, 53.7987243 ] } },
	{ "type": "Feature", "properties": { "osm_id": "2128107741", "name": "The Hip Store", "other_tags": "\"addr:city\"=>\"Leeds\",\"addr:housenumber\"=>\"49-51\",\"addr:postcode\"=>\"LS1 6DS\",\"addr:street\"=>\"Vicar Lane\",\"phone\"=>\"+44 113 246 0347\",\"shop\"=>\"clothes\",\"website\"=>\"https:\/\/www.thehipstore.co.uk\/\"" }, "geometry": { "type": "Point", "coordinates": [ -1.5405615, 53.7975362 ] } },
	{ "type": "Feature", "properties": { "osm_id": "2131042063", "name": "Vans", "other_tags": "\"addr:city\"=>\"Leeds\",\"addr:housenumber\"=>\"24\",\"addr:postcode\"=>\"LS1 6AX\",\"addr:street\"=>\"King Edward Street\",\"shop\"=>\"clothes\"" }, "geometry": { "type": "Point", "coordinates": [ -1.540725, 53.7975615 ] } },
	{ "type": "Feature", "properties": { "osm_id": "2135315777", "name": "Topshop Topman", "other_tags": "\"addr:city\"=>\"Leeds\",\"addr:housenumber\"=>\"44\",\"addr:postcode\"=>\"LS1 6HD\",\"addr:street\"=>\"Briggate\",\"shop\"=>\"clothes\"" }, "geometry": { "type": "Point", "coordinates": [ -1.5427573, 53.7965528 ] } },
	{ "type": "Feature", "properties": { "osm_id": "2140301912", "name": "Bravissimo", "other_tags": "\"addr:city\"=>\"Leeds\",\"addr:housenumber\"=>\"6-8\",\"addr:postcode\"=>\"LS1 6AZ\",\"addr:street\"=>\"Cross Arcade\",\"shop\"=>\"clothes\"" }, "geometry": { "type": "Point", "coordinates": [ -1.5409436, 53.7979392 ] } },
	{ "type": "Feature", "properties": { "osm_id": "2140301913", "name": "Paul Smith", "other_tags": "\"addr:city\"=>\"Leeds\",\"addr:housenumber\"=>\"17-19\",\"addr:postcode\"=>\"LS1 6AX\",\"addr:street\"=>\"King Edward Street\",\"shop\"=>\"clothes\"" }, "geometry": { "type": "Point", "coordinates": [ -1.5409465, 53.7977781 ] } },
	{ "type": "Feature", "properties": { "osm_id": "2140301914", "name": "Ted Baker", "other_tags": "\"addr:city\"=>\"Leeds\",\"addr:housenumber\"=>\"23-25\",\"addr:postcode\"=>\"LS1 6BD\",\"addr:street\"=>\"Queen Victoria Street\",\"shop\"=>\"clothes\"" }, "geometry": { "type": "Point", "coordinates": [ -1.5408482, 53.7980331 ] } },
	{ "type": "Feature", "properties": { "osm_id": "2142553146", "name": "Blue Rinse", "other_tags": "\"shop\"=>\"clothes\",\"addr:city\"=>\"Leeds\",\"addr:street\"=>\"Call Lane\"" }, "geometry": { "type": "Point", "coordinates": [ -1.5399711, 53.7962754 ] } },
	{ "type": "Feature", "properties": { "osm_id": "2144729430", "name": "New Look", "other_tags": "\"shop\"=>\"clothes\"" }, "geometry": { "type": "Point", "coordinates": [ -1.5442429, 53.7992206 ] } },
	{ "type": "Feature", "properties": { "osm_id": "2150181164", "name": "Butterflies", "other_tags": "\"shop\"=>\"clothes\"" }, "geometry": { "type": "Point", "coordinates": [ -1.4997076, 53.6842295 ] } },
	{ "type": "Feature", "properties": { "osm_id": "2195805631", "name": "Mothercare", "other_tags": "\"shop\"=>\"clothes\"" }, "geometry": { "type": "Point", "coordinates": [ -1.75351, 53.7989164 ] } },
	{ "type": "Feature", "properties": { "osm_id": "2195805657", "other_tags": "\"shop\"=>\"clothes\"" }, "geometry": { "type": "Point", "coordinates": [ -1.7577426, 53.796464 ] } },
	{ "type": "Feature", "properties": { "osm_id": "2212648134", "name": "Superdry", "other_tags": "\"shop\"=>\"clothes\"" }, "geometry": { "type": "Point", "coordinates": [ -1.544969, 53.7964543 ] } },
	{ "type": "Feature", "properties": { "osm_id": "2212648187", "name": "River Island", "other_tags": "\"addr:city\"=>\"Leeds\",\"addr:housenumber\"=>\"36\",\"addr:postcode\"=>\"LS1 6HD\",\"addr:street\"=>\"Briggate\",\"shop\"=>\"clothes\"" }, "geometry": { "type": "Point", "coordinates": [ -1.542783, 53.7963656 ] } },
	{ "type": "Feature", "properties": { "osm_id": "2212648198", "name": "Urban Outfitters", "other_tags": "\"shop\"=>\"clothes\"" }, "geometry": { "type": "Point", "coordinates": [ -1.5440999, 53.7960567 ] } },
	{ "type": "Feature", "properties": { "osm_id": "2212678965", "name": "New Look", "other_tags": "\"shop\"=>\"clothes\"" }, "geometry": { "type": "Point", "coordinates": [ -1.5453143, 53.7960141 ] } },
	{ "type": "Feature", "properties": { "osm_id": "2212678966", "name": "Dorothy Perkins Burton", "other_tags": "\"shop\"=>\"clothes\"" }, "geometry": { "type": "Point", "coordinates": [ -1.5442039, 53.7970565 ] } },
	{ "type": "Feature", "properties": { "osm_id": "2212678969", "name": "H&M", "other_tags": "\"shop\"=>\"clothes\"" }, "geometry": { "type": "Point", "coordinates": [ -1.545545, 53.7966161 ] } },
	{ "type": "Feature", "properties": { "osm_id": "2212678973", "name": "Next", "other_tags": "\"shop\"=>\"clothes\"" }, "geometry": { "type": "Point", "coordinates": [ -1.5443166, 53.7964133 ] } },
	{ "type": "Feature", "properties": { "osm_id": "2213576305", "name": "Hollister", "other_tags": "\"shop\"=>\"clothes\"" }, "geometry": { "type": "Point", "coordinates": [ -1.5440964, 53.7966462 ] } },
	{ "type": "Feature", "properties": { "osm_id": "2281933834", "name": "Matalan", "other_tags": "\"shop\"=>\"clothes\"" }, "geometry": { "type": "Point", "coordinates": [ -1.4708964, 53.7965636 ] } },
	{ "type": "Feature", "properties": { "osm_id": "2353394451", "other_tags": "\"shop\"=>\"clothes\"" }, "geometry": { "type": "Point", "coordinates": [ -1.6888021, 53.9062092 ] } },
	{ "type": "Feature", "properties": { "osm_id": "2353473495", "name": "Silk Sisters", "other_tags": "\"addr:city\"=>\"Otley\",\"addr:country\"=>\"GB\",\"addr:street\"=>\"Market Street\",\"is_in:town\"=>\"Otley\",\"phone\"=>\"+44 1943 463353\",\"shop\"=>\"clothes\",\"website\"=>\"www.silksisters.co.uk\"" }, "geometry": { "type": "Point", "coordinates": [ -1.6932251, 53.905525 ] } },
	{ "type": "Feature", "properties": { "osm_id": "2353501509", "name": "Wedding Belles of Otley", "other_tags": "\"shop\"=>\"clothes\",\"website\"=>\"www.weddingbellesofotley.co.uk\",\"addr:street\"=>\"New Inn Court\",\"description\"=>\"Quality bridal wear & accessories\"" }, "geometry": { "type": "Point", "coordinates": [ -1.6936781, 53.9048992 ] } },
	{ "type": "Feature", "properties": { "osm_id": "2353531362", "other_tags": "\"shop\"=>\"clothes\"" }, "geometry": { "type": "Point", "coordinates": [ -1.6943784, 53.9046922 ] } },
	{ "type": "Feature", "properties": { "osm_id": "2353558009", "name": "Wild Thing", "other_tags": "\"shop\"=>\"clothes\"" }, "geometry": { "type": "Point", "coordinates": [ -1.6938608, 53.9042341 ] } },
	{ "type": "Feature", "properties": { "osm_id": "2353737752", "name": "Tabatha's Trendz", "other_tags": "\"shop\"=>\"clothes\",\"addr:city\"=>\"Otley\",\"addr:street\"=>\"Westgate\",\"description\"=>\"Ladies fashion. Sewing alteration & repairs.\"" }, "geometry": { "type": "Point", "coordinates": [ -1.6972294, 53.9044709 ] } },
	{ "type": "Feature", "properties": { "osm_id": "2571193605", "other_tags": "\"shop\"=>\"clothes\",\"clothes\"=>\"bride\"" }, "geometry": { "type": "Point", "coordinates": [ -1.7222925, 53.8773072 ] } },
	{ "type": "Feature", "properties": { "osm_id": "2661206206", "name": "Backcountry UK", "other_tags": "\"shop\"=>\"clothes\",\"clothes\"=>\"outsoor\"" }, "geometry": { "type": "Point", "coordinates": [ -1.822436, 53.9263064 ] } },
	{ "type": "Feature", "properties": { "osm_id": "2888243501", "name": "vacant unit", "other_tags": "\"brand\"=>\"Next\",\"opening_hours\"=>\"Closed\",\"shop\"=>\"clothes\"" }, "geometry": { "type": "Point", "coordinates": [ -1.434228, 53.793417 ] } },
	{ "type": "Feature", "properties": { "osm_id": "3057247701", "name": "Rag Doll of Pudsey", "other_tags": "\"addr:city\"=>\"Pudsey\",\"addr:housenumber\"=>\"76\",\"addr:postcode\"=>\"LS28 8LE\",\"addr:street\"=>\"Galloway Lane\",\"shop\"=>\"clothes\"" }, "geometry": { "type": "Point", "coordinates": [ -1.6897951, 53.8008212 ] } },
	{ "type": "Feature", "properties": { "osm_id": "3073182159", "name": "Uniformitry", "other_tags": "\"addr:city\"=>\"Farsley\",\"addr:housenumber\"=>\"5\",\"addr:street\"=>\"New Street\",\"phone\"=>\"+44 113 256 6020\",\"shop\"=>\"clothes\"" }, "geometry": { "type": "Point", "coordinates": [ -1.6723188, 53.8112816 ] } },
	{ "type": "Feature", "properties": { "osm_id": "3155299679", "name": "Peacocks", "other_tags": "\"shop\"=>\"clothes\"" }, "geometry": { "type": "Point", "coordinates": [ -1.6762534, 53.7083754 ] } },
	{ "type": "Feature", "properties": { "osm_id": "3518087594", "name": "Almond", "other_tags": "\"shop\"=>\"clothes\",\"clothes\"=>\"women\"" }, "geometry": { "type": "Point", "coordinates": [ -1.7858042, 53.570347 ] } },
	{ "type": "Feature", "properties": { "osm_id": "3621975746", "name": "Reiss", "other_tags": "\"addr:city\"=>\"Leeds\",\"addr:housenumber\"=>\"26-28\",\"addr:postcode\"=>\"LS1 6BH\",\"addr:street\"=>\"County Arcade\",\"shop\"=>\"clothes\",\"website\"=>\"https:\/\/www.reiss.com\/\"" }, "geometry": { "type": "Point", "coordinates": [ -1.5409442, 53.7984122 ] } },
	{ "type": "Feature", "properties": { "osm_id": "3621975750", "name": "Vivienne Westwood", "other_tags": "\"addr:city\"=>\"Leeds\",\"addr:housenumber\"=>\"11-17\",\"addr:postcode\"=>\"LS1 6BW\",\"addr:street\"=>\"County Arcade\",\"shop\"=>\"clothes\",\"website\"=>\"https:\/\/www.viviennewestwood.com\/\"" }, "geometry": { "type": "Point", "coordinates": [ -1.5413462, 53.7983088 ] } },
	{ "type": "Feature", "properties": { "osm_id": "3660968673", "name": "Coldspring Mill", "other_tags": "\"shop\"=>\"clothes\"" }, "geometry": { "type": "Point", "coordinates": [ -1.9115041, 53.8211105 ] } },
	{ "type": "Feature", "properties": { "osm_id": "3715263092", "name": "Farouche", "other_tags": "\"shop\"=>\"clothes\",\"addr:city\"=>\"Rawdon\",\"addr:street\"=>\"Harrogate Road\"" }, "geometry": { "type": "Point", "coordinates": [ -1.6842609, 53.8543587 ] } },
	{ "type": "Feature", "properties": { "osm_id": "3715282329", "name": "Bridal Apparel", "other_tags": "\"addr:city\"=>\"Rawdon\",\"addr:housenumber\"=>\"15\",\"addr:postcode\"=>\"LS19 6HW\",\"addr:street\"=>\"Harrogate Road\",\"phone\"=>\"+44 113 250 1616\",\"shop\"=>\"clothes\",\"website\"=>\"https:\/\/www.bridalapparelleeds.co.uk\/\"" }, "geometry": { "type": "Point", "coordinates": [ -1.6848443, 53.8539247 ] } },
	{ "type": "Feature", "properties": { "osm_id": "3718205537", "name": "Izzy", "other_tags": "\"shop\"=>\"clothes\",\"addr:city\"=>\"Yeadon\",\"addr:street\"=>\"High Street\",\"addr:postcode\"=>\"LS19 7SP\",\"addr:housenumber\"=>\"41\"" }, "geometry": { "type": "Point", "coordinates": [ -1.683903, 53.8662636 ] } },
	{ "type": "Feature", "properties": { "osm_id": "3718231085", "name": "Platinum Bridal Boutique", "other_tags": "\"addr:city\"=>\"Yeadon\",\"addr:housenumber\"=>\"4\",\"addr:postcode\"=>\"LS19 7PP\",\"addr:street\"=>\"High Street\",\"phone\"=>\"+44 113 250 6026\",\"shop\"=>\"clothes\",\"website\"=>\"https:\/\/www.platinumbridalboutique.co.uk\/\"" }, "geometry": { "type": "Point", "coordinates": [ -1.685352, 53.8659184 ] } },
	{ "type": "Feature", "properties": { "osm_id": "3874017907", "name": "Outfit", "other_tags": "\"shop\"=>\"clothes\"" }, "geometry": { "type": "Point", "coordinates": [ -1.6051866, 53.816872 ] } },
	{ "type": "Feature", "properties": { "osm_id": "3886416680", "name": "Harriet's", "other_tags": "\"addr:city\"=>\"Leeds\",\"addr:housenumber\"=>\"66\",\"addr:postcode\"=>\"LS18 4AP\",\"addr:street\"=>\"Town Street\",\"addr:suburb\"=>\"Horsforth\",\"phone\"=>\"+44 113 239 0399\",\"shop\"=>\"clothes\",\"website\"=>\"http:\/\/www.harrietsclothing.co.uk\/\"" }, "geometry": { "type": "Point", "coordinates": [ -1.6395376, 53.8384363 ] } },
	{ "type": "Feature", "properties": { "osm_id": "3887784748", "name": "Mini Mee's", "other_tags": "\"addr:city\"=>\"Leeds\",\"addr:housenumber\"=>\"100\",\"addr:postcode\"=>\"LS18 4AP\",\"addr:street\"=>\"Town Street\",\"addr:suburb\"=>\"Horsforth\",\"shop\"=>\"clothes\",\"website\"=>\"https:\/\/www.facebook.com\/Mini-Mees-1417529315186147\"" }, "geometry": { "type": "Point", "coordinates": [ -1.6380081, 53.839572 ] } },
	{ "type": "Feature", "properties": { "osm_id": "3892020075", "name": "Amelia Elliott Bridal", "other_tags": "\"addr:city\"=>\"Leeds\",\"addr:housenumber\"=>\"121\",\"addr:postcode\"=>\"LS18 5BL\",\"addr:street\"=>\"Town Street\",\"addr:suburb\"=>\"Horsforth\",\"opening_hours\"=>\"Mo-Fr 10:00-16:00; Sa 10:00-17:00; Su Closed\",\"phone\"=>\"+44 113 258 2783\",\"shop\"=>\"clothes\",\"website\"=>\"http:\/\/www.ameliaelliott.co.uk\/\"" }, "geometry": { "type": "Point", "coordinates": [ -1.6374153, 53.840099 ] } },
	{ "type": "Feature", "properties": { "osm_id": "3901161760", "name": "Sophie's Choice", "other_tags": "\"addr:city\"=>\"Horsforth\",\"addr:housenumber\"=>\"159\",\"addr:postcode\"=>\"LS18 4DR\",\"addr:street\"=>\"New Road Side\",\"phone\"=>\"+44 113 258 8881\",\"shop\"=>\"clothes\"" }, "geometry": { "type": "Point", "coordinates": [ -1.644706, 53.8321781 ] } },
	{ "type": "Feature", "properties": { "osm_id": "3901161761", "name": "Cash4Clothes", "other_tags": "\"shop\"=>\"clothes\",\"addr:city\"=>\"Horsforth\",\"addr:street\"=>\"New Road Side\",\"addr:postcode\"=>\"LS18 4DR\",\"addr:housenumber\"=>\"157\"" }, "geometry": { "type": "Point", "coordinates": [ -1.6446213, 53.8321676 ] } },
	{ "type": "Feature", "properties": { "osm_id": "3904761987", "name": "Nicola Jane", "other_tags": "\"addr:city\"=>\"Horsforth\",\"addr:housenumber\"=>\"97\",\"addr:postcode\"=>\"LS18 4QD\",\"addr:street\"=>\"New Road Side\",\"opening_hours\"=>\"Mo-Sa 09:30-17:00; Su Closed\",\"shop\"=>\"clothes\",\"website\"=>\"https:\/\/www.nicolajane.com\/leeds-shop\/\"" }, "geometry": { "type": "Point", "coordinates": [ -1.6417916, 53.8319934 ] } },
	{ "type": "Feature", "properties": { "osm_id": "3904772961", "name": "Oaks", "other_tags": "\"addr:city\"=>\"Horsforth\",\"addr:housenumber\"=>\"83\",\"addr:postcode\"=>\"LS18 4QD\",\"addr:street\"=>\"New Road Side\",\"phone\"=>\"+44 113 239 0333\",\"shop\"=>\"clothes\"" }, "geometry": { "type": "Point", "coordinates": [ -1.6410483, 53.8319456 ] } },
	{ "type": "Feature", "properties": { "osm_id": "3934263614", "name": "Paradise Grove", "other_tags": "\"shop\"=>\"clothes\",\"addr:city\"=>\"Horsforth\",\"addr:street\"=>\"Paradise Place\",\"addr:postcode\"=>\"LS18 4RN\",\"addr:housenumber\"=>\"27\"" }, "geometry": { "type": "Point", "coordinates": [ -1.6189911, 53.8355808 ] } },
	{ "type": "Feature", "properties": { "osm_id": "4353989162", "name": "Ashworth & Bird", "other_tags": "\"addr:city\"=>\"Wakefield\",\"addr:housenumber\"=>\"13-17\",\"addr:street\"=>\"Cross Square\",\"shop\"=>\"clothes\",\"website\"=>\"https:\/\/www.ashworthandbird.com\/\"" }, "geometry": { "type": "Point", "coordinates": [ -1.4988524, 53.6828565 ] } },
	{ "type": "Feature", "properties": { "osm_id": "4353989174", "name": "Greenwoods", "other_tags": "\"addr:city\"=>\"Wakefield\",\"addr:housenumber\"=>\"15\",\"addr:postcode\"=>\"WF1 1JZ\",\"addr:street\"=>\"Westgate\",\"shop\"=>\"clothes\"" }, "geometry": { "type": "Point", "coordinates": [ -1.4982611, 53.6824818 ] } },
	{ "type": "Feature", "properties": { "osm_id": "4353989177", "name": "Helen's Sock Shop", "other_tags": "\"shop\"=>\"clothes\",\"addr:city\"=>\"Wakefield\",\"addr:street\"=>\"Brook Street\",\"addr:housenumber\"=>\"25\"" }, "geometry": { "type": "Point", "coordinates": [ -1.4967529, 53.684001 ] } },
	{ "type": "Feature", "properties": { "osm_id": "4353989290", "name": "Peters", "other_tags": "\"shop\"=>\"clothes\",\"addr:city\"=>\"Wakefield\",\"addr:street\"=>\"Brook Street\",\"addr:housenumber\"=>\"33-35\"" }, "geometry": { "type": "Point", "coordinates": [ -1.4967086, 53.6841726 ] } },
	{ "type": "Feature", "properties": { "osm_id": "4413109076", "name": "Bridal Reloved", "other_tags": "\"addr:city\"=>\"Wakefield\",\"addr:housenumber\"=>\"24\",\"addr:postcode\"=>\"WF1 2ED\",\"addr:street\"=>\"Wood Street\",\"shop\"=>\"clothes\",\"website\"=>\"https:\/\/bridalreloved.co.uk\/\"" }, "geometry": { "type": "Point", "coordinates": [ -1.500018, 53.6835463 ] } },
	{ "type": "Feature", "properties": { "osm_id": "4420366053", "name": "Ghia", "other_tags": "\"shop\"=>\"clothes\",\"addr:city\"=>\"Wakefield\",\"addr:street\"=>\"Teall Street\",\"addr:postcode\"=>\"WF1 1PR\",\"addr:housenumber\"=>\"1\"" }, "geometry": { "type": "Point", "coordinates": [ -1.4961665, 53.6830418 ] } },
	{ "type": "Feature", "properties": { "osm_id": "4471283676", "name": "Roman", "other_tags": "\"shop\"=>\"clothes\",\"wheelchair\"=>\"yes\"" }, "geometry": { "type": "Point", "coordinates": [ -1.4515572, 53.8060632 ] } },
	{ "type": "Feature", "properties": { "osm_id": "4471283680", "name": "Select", "other_tags": "\"shop\"=>\"clothes\",\"wheelchair\"=>\"yes\"" }, "geometry": { "type": "Point", "coordinates": [ -1.4510254, 53.8060599 ] } },
	{ "type": "Feature", "properties": { "osm_id": "4471283681", "name": "New Look", "other_tags": "\"shop\"=>\"clothes\",\"wheelchair\"=>\"yes\"" }, "geometry": { "type": "Point", "coordinates": [ -1.4508744, 53.8060927 ] } },
	{ "type": "Feature", "properties": { "osm_id": "4471291131", "name": "Green Woods", "other_tags": "\"shop\"=>\"clothes\"" }, "geometry": { "type": "Point", "coordinates": [ -1.4511888, 53.8062644 ] } },
	{ "type": "Feature", "properties": { "osm_id": "4471291137", "name": "Officers Club", "other_tags": "\"shop\"=>\"clothes\",\"wheelchair\"=>\"yes\"" }, "geometry": { "type": "Point", "coordinates": [ -1.451162, 53.8060945 ] } },
	{ "type": "Feature", "properties": { "osm_id": "4475950123", "name": "Peacocks", "other_tags": "\"shop\"=>\"clothes\"" }, "geometry": { "type": "Point", "coordinates": [ -1.4501572, 53.8065496 ] } },
	{ "type": "Feature", "properties": { "osm_id": "4489200790", "name": "Buzz", "other_tags": "\"shop\"=>\"clothes\",\"opening_hours\"=>\"closed\"" }, "geometry": { "type": "Point", "coordinates": [ -1.4503754, 53.806936 ] } },
	{ "type": "Feature", "properties": { "osm_id": "4489200795", "name": "BonmarchÃ©", "other_tags": "\"shop\"=>\"clothes\"" }, "geometry": { "type": "Point", "coordinates": [ -1.450409, 53.8066477 ] } },
	{ "type": "Feature", "properties": { "osm_id": "4565158685", "name": "Adidas", "other_tags": "\"shop\"=>\"clothes\"" }, "geometry": { "type": "Point", "coordinates": [ -1.5453515, 53.7967596 ] } },
	{ "type": "Feature", "properties": { "osm_id": "4602768928", "name": "Yorkshire Menswear", "other_tags": "\"shop\"=>\"clothes\"" }, "geometry": { "type": "Point", "coordinates": [ -1.6629175, 53.8231128 ] } },
	{ "type": "Feature", "properties": { "osm_id": "4636108674", "name": "Fat Face", "other_tags": "\"shop\"=>\"clothes\"" }, "geometry": { "type": "Point", "coordinates": [ -2.0132507, 53.741658 ] } },
	{ "type": "Feature", "properties": { "osm_id": "4885695945", "name": "Select", "other_tags": "\"shop\"=>\"clothes\"" }, "geometry": { "type": "Point", "coordinates": [ -1.544226, 53.8010395 ] } },
	{ "type": "Feature", "properties": { "osm_id": "4951726045", "name": "USC", "other_tags": "\"shop\"=>\"clothes\"" }, "geometry": { "type": "Point", "coordinates": [ -1.781345, 53.6440407 ] } },
	{ "type": "Feature", "properties": { "osm_id": "4951726046", "name": "Dorothy Perkins", "other_tags": "\"shop\"=>\"clothes\"" }, "geometry": { "type": "Point", "coordinates": [ -1.7821254, 53.6440243 ] } },
	{ "type": "Feature", "properties": { "osm_id": "4951726047", "name": "Evans", "other_tags": "\"shop\"=>\"clothes\"" }, "geometry": { "type": "Point", "coordinates": [ -1.7819556, 53.6441397 ] } },
	{ "type": "Feature", "properties": { "osm_id": "4969745011", "name": "H&M", "other_tags": "\"addr:city\"=>\"Huddersfield\",\"addr:postcode\"=>\"HD1 2QB\",\"addr:street\"=>\"Kingsgate Centre\",\"shop\"=>\"clothes\"" }, "geometry": { "type": "Point", "coordinates": [ -1.7781878, 53.6455801 ] } },
	{ "type": "Feature", "properties": { "osm_id": "4969745014", "name": "Roman", "other_tags": "\"addr:city\"=>\"Huddersfield\",\"addr:postcode\"=>\"HD1 2QB\",\"addr:street\"=>\"Kingsgate Centre\",\"shop\"=>\"clothes\"" }, "geometry": { "type": "Point", "coordinates": [ -1.778558, 53.6458949 ] } },
	{ "type": "Feature", "properties": { "osm_id": "4969745016", "name": "Next", "other_tags": "\"addr:city\"=>\"Huddersfield\",\"addr:postcode\"=>\"HD1 2QB\",\"addr:street\"=>\"Kingsgate Centre\",\"shop\"=>\"clothes\"" }, "geometry": { "type": "Point", "coordinates": [ -1.7790408, 53.646259 ] } },
	{ "type": "Feature", "properties": { "osm_id": "4969745020", "name": "TK Maxx", "other_tags": "\"addr:city\"=>\"Huddersfield\",\"addr:postcode\"=>\"HD1 2QB\",\"addr:street\"=>\"Kingsgate Centre\",\"shop\"=>\"clothes\"" }, "geometry": { "type": "Point", "coordinates": [ -1.7800747, 53.6458622 ] } },
	{ "type": "Feature", "properties": { "osm_id": "5026332220", "name": "Imagine Dance & Theatrical Wear", "other_tags": "\"addr:city\"=>\"Wakefield\",\"addr:housenumber\"=>\"1\",\"addr:postcode\"=>\"WF1 1PA\",\"addr:street\"=>\"Marygate\",\"shop\"=>\"clothes\",\"website\"=>\"https:\/\/www.imaginewear.co.uk\/\"" }, "geometry": { "type": "Point", "coordinates": [ -1.4992623, 53.6826191 ] } },
	{ "type": "Feature", "properties": { "osm_id": "5071335020", "name": "River Island", "other_tags": "\"addr:city\"=>\"Huddersfield\",\"addr:postcode\"=>\"HD1 2QB\",\"addr:street\"=>\"Kingsgate Centre\",\"addr:unit\"=>\"4-5\",\"shop\"=>\"clothes\"" }, "geometry": { "type": "Point", "coordinates": [ -1.7798559, 53.646076 ] } },
	{ "type": "Feature", "properties": { "osm_id": "5071335227", "name": "Topshop Topman", "other_tags": "\"addr:city\"=>\"Huddersfield\",\"addr:postcode\"=>\"HD1 2QB\",\"addr:street\"=>\"Kingsgate Centre\",\"shop\"=>\"clothes\"" }, "geometry": { "type": "Point", "coordinates": [ -1.7787709, 53.6458152 ] } },
	{ "type": "Feature", "properties": { "osm_id": "5071335229", "name": "Suitdirect", "other_tags": "\"addr:city\"=>\"Huddersfield\",\"addr:postcode\"=>\"HD1 2QB\",\"addr:street\"=>\"Kingsgate Centre\",\"shop\"=>\"clothes\"" }, "geometry": { "type": "Point", "coordinates": [ -1.7789091, 53.6459536 ] } },
	{ "type": "Feature", "properties": { "osm_id": "5071349015", "name": "Peter's of Huddersfield", "other_tags": "\"addr:city\"=>\"Huddersfield\",\"addr:street\"=>\"Packhorse Centre\",\"shop\"=>\"clothes\"" }, "geometry": { "type": "Point", "coordinates": [ -1.7813284, 53.6465578 ] } },
	{ "type": "Feature", "properties": { "osm_id": "5071542356", "name": "Bonmarche", "other_tags": "\"addr:city\"=>\"Huddersfield\",\"addr:housenumber\"=>\"56\",\"addr:street\"=>\"New Street\",\"shop\"=>\"clothes\"" }, "geometry": { "type": "Point", "coordinates": [ -1.7833547, 53.6447814 ] } },
	{ "type": "Feature", "properties": { "osm_id": "5139532435", "name": "Slaters", "other_tags": "\"addr:city\"=>\"Leeds\",\"addr:housenumber\"=>\"83\",\"addr:postcode\"=>\"LS1 5AP\",\"addr:street\"=>\"Albion Street\",\"clothes\"=>\"men;formal_hire\",\"opening_hours\"=>\"Mo-We 08:30-17:30; Th 08:30-19:30; Fr-Sa 08:30-17:30; Su 11:00-16:00\",\"phone\"=>\"+44 113 234 9933\",\"shop\"=>\"clothes\",\"website\"=>\"https:\/\/www.slaters.co.uk\/store-locator\/slaters-leeds\/\",\"wheelchair\"=>\"yes\",\"wikipedia\"=>\"en:Slater menswear\"" }, "geometry": { "type": "Point", "coordinates": [ -1.5452485, 53.7985639 ] } },
	{ "type": "Feature", "properties": { "osm_id": "5296592028", "name": "Damsell Dancewear", "other_tags": "\"clothes\"=>\"dancewear\",\"shop\"=>\"clothes\"" }, "geometry": { "type": "Point", "coordinates": [ -1.6717753, 53.8114213 ] } },
	{ "type": "Feature", "properties": { "osm_id": "5311505827", "name": "The Boutique", "other_tags": "\"clothes\"=>\"bride\",\"shop\"=>\"clothes\"" }, "geometry": { "type": "Point", "coordinates": [ -1.6936085, 53.9061 ] } },
	{ "type": "Feature", "properties": { "osm_id": "5422663138", "name": "Peacocks", "other_tags": "\"addr:city\"=>\"Leeds\",\"addr:housename\"=>\"The Merrion Centre\",\"addr:postcode\"=>\"LS2 8NG\",\"addr:unit\"=>\"16-18\",\"shop\"=>\"clothes\"" }, "geometry": { "type": "Point", "coordinates": [ -1.5440203, 53.8013724 ] } },
	{ "type": "Feature", "properties": { "osm_id": "5422663144", "name": "Bonmarche", "other_tags": "\"addr:city\"=>\"Leeds\",\"addr:housename\"=>\"The Merrion Centre\",\"addr:postcode\"=>\"LS2 8NG\",\"addr:unit\"=>\"36-40\",\"shop\"=>\"clothes\"" }, "geometry": { "type": "Point", "coordinates": [ -1.5441893, 53.801713 ] } },
	{ "type": "Feature", "properties": { "osm_id": "5438626920", "name": "Burton", "other_tags": "\"addr:city\"=>\"Halifax\",\"addr:country\"=>\"GB\",\"addr:housenumber\"=>\"1-3\",\"addr:postcode\"=>\"HX1 1NT\",\"addr:street\"=>\"Southgate\",\"fhrs:id\"=>\"441480\",\"shop\"=>\"clothes\"" }, "geometry": { "type": "Point", "coordinates": [ -1.8599591, 53.7227754 ] } },
	{ "type": "Feature", "properties": { "osm_id": "5452280958", "name": "New Look", "other_tags": "\"shop\"=>\"clothes\"" }, "geometry": { "type": "Point", "coordinates": [ -1.8570355, 53.7233166 ] } },
	{ "type": "Feature", "properties": { "osm_id": "5452280959", "name": "Topshop \/ Topman", "other_tags": "\"shop\"=>\"clothes\"" }, "geometry": { "type": "Point", "coordinates": [ -1.8572286, 53.7232864 ] } },
	{ "type": "Feature", "properties": { "osm_id": "5452280970", "name": "River Island", "other_tags": "\"shop\"=>\"clothes\"" }, "geometry": { "type": "Point", "coordinates": [ -1.858618, 53.723407 ] } },
	{ "type": "Feature", "properties": { "osm_id": "5469277355", "name": "Miss Chief", "other_tags": "\"shop\"=>\"clothes\"" }, "geometry": { "type": "Point", "coordinates": [ -1.8576604, 53.722869 ] } },
	{ "type": "Feature", "properties": { "osm_id": "5469277357", "name": "Peacocks", "other_tags": "\"shop\"=>\"clothes\"" }, "geometry": { "type": "Point", "coordinates": [ -1.8572393, 53.7226341 ] } },
	{ "type": "Feature", "properties": { "osm_id": "5506248309", "name": "Next", "other_tags": "\"addr:housename\"=>\"Junction 32 Outlet Shopping Village\",\"addr:postcode\"=>\"WF10 4FR\",\"addr:town\"=>\"Castleford\",\"addr:unit\"=>\"57\",\"shop\"=>\"clothes\"" }, "geometry": { "type": "Point", "coordinates": [ -1.3387764, 53.7112408 ] } },
	{ "type": "Feature", "properties": { "osm_id": "5508872730", "name": "Tk Maxx", "other_tags": "\"addr:city\"=>\"Wakefield\",\"addr:postcode\"=>\"WF1 1YD\",\"addr:street\"=>\"Cathedral Walk The Ridings Centre\",\"addr:unit\"=>\"90-93\",\"fhrs:id\"=>\"313170\",\"level\"=>\"2\",\"shop\"=>\"clothes\",\"wheelchair\"=>\"yes\"" }, "geometry": { "type": "Point", "coordinates": [ -1.4982578, 53.6818304 ] } },
	{ "type": "Feature", "properties": { "osm_id": "5569969830", "name": "Dorothy Perkins", "other_tags": "\"shop\"=>\"clothes\"" }, "geometry": { "type": "Point", "coordinates": [ -1.8583497, 53.7220771 ] } },
	{ "type": "Feature", "properties": { "osm_id": "5572259413", "name": "Uniform Shop", "other_tags": "\"shop\"=>\"clothes\"" }, "geometry": { "type": "Point", "coordinates": [ -1.8581834, 53.7213597 ] } },
	{ "type": "Feature", "properties": { "osm_id": "5626680391", "name": "Louise Perry Bridal", "other_tags": "\"clothes\"=>\"wedding\",\"opening_hours\"=>\"Mo 11:00-16:00; Fr 10:00-16:00; Sa 10:30-17:00\",\"shop\"=>\"clothes\",\"website\"=>\"https:\/\/www.louiseperrybridal.co.uk\/\"" }, "geometry": { "type": "Point", "coordinates": [ -1.7908938, 53.8376215 ] } },
	{ "type": "Feature", "properties": { "osm_id": "5648164592", "name": "Officers Club", "other_tags": "\"addr:city\"=>\"Leeds\",\"addr:housename\"=>\"St Johns Centre\",\"addr:housenumber\"=>\"110-118\",\"addr:postcode\"=>\"LS2 8LQ\",\"addr:street\"=>\"Albion Street\",\"level\"=>\"1\",\"shop\"=>\"clothes\"" }, "geometry": { "type": "Point", "coordinates": [ -1.5440968, 53.8005186 ] } },
	{ "type": "Feature", "properties": { "osm_id": "5648164597", "name": "Yours", "other_tags": "\"addr:city\"=>\"Leeds\",\"addr:housename\"=>\"St Johns Centre\",\"addr:housenumber\"=>\"110-118\",\"addr:postcode\"=>\"LS2 8LQ\",\"addr:street\"=>\"Albion Street\",\"level\"=>\"0\",\"shop\"=>\"clothes\"" }, "geometry": { "type": "Point", "coordinates": [ -1.5439801, 53.7999301 ] } },
	{ "type": "Feature", "properties": { "osm_id": "5648164598", "name": "Roman", "other_tags": "\"addr:city\"=>\"Leeds\",\"addr:housename\"=>\"St Johns Centre\",\"addr:housenumber\"=>\"110-118\",\"addr:postcode\"=>\"LS2 8LQ\",\"addr:street\"=>\"Albion Street\",\"level\"=>\"0\",\"shop\"=>\"clothes\"" }, "geometry": { "type": "Point", "coordinates": [ -1.5437749, 53.7999277 ] } },
	{ "type": "Feature", "properties": { "osm_id": "5648164599", "name": "Shout", "other_tags": "\"addr:city\"=>\"Leeds\",\"addr:housename\"=>\"St Johns Centre\",\"addr:housenumber\"=>\"110-118\",\"addr:postcode\"=>\"LS2 8LQ\",\"addr:street\"=>\"Albion Street\",\"level\"=>\"0\",\"shop\"=>\"clothes\"" }, "geometry": { "type": "Point", "coordinates": [ -1.5437716, 53.799991 ] } },
	{ "type": "Feature", "properties": { "osm_id": "5700048221", "name": "The Shuttle", "other_tags": "\"shop\"=>\"clothes\"" }, "geometry": { "type": "Point", "coordinates": [ -1.7736368, 53.8369487 ] } },
	{ "type": "Feature", "properties": { "osm_id": "5711983937", "name": "Amour de Femme Lingerie", "other_tags": "\"addr:city\"=>\"Bingley\",\"addr:housenumber\"=>\"87\",\"addr:postcode\"=>\"BD16 2JA\",\"addr:street\"=>\"Main Street\",\"shop\"=>\"clothes\"" }, "geometry": { "type": "Point", "coordinates": [ -1.8384484, 53.8490727 ] } },
	{ "type": "Feature", "properties": { "osm_id": "5754417071", "name": "Primark", "other_tags": "\"addr:city\"=>\"Wakefield\",\"addr:postcode\"=>\"WF1 1YB\",\"addr:street\"=>\"Bishopgate Walk The Ridings Centre\",\"addr:unit\"=>\"56-62\",\"level\"=>\"1\",\"shop\"=>\"clothes\",\"wheelchair\"=>\"yes\"" }, "geometry": { "type": "Point", "coordinates": [ -1.4979708, 53.6817541 ] } },
	{ "type": "Feature", "properties": { "osm_id": "5754417072", "name": "Morgana & Hellraiser", "other_tags": "\"addr:city\"=>\"Wakefield\",\"addr:postcode\"=>\"WF1 1DS\",\"addr:street\"=>\"Bishopgate Walk The Ridings Centre\",\"addr:unit\"=>\"64\",\"level\"=>\"1\",\"shop\"=>\"clothes\",\"wheelchair\"=>\"yes\"" }, "geometry": { "type": "Point", "coordinates": [ -1.4972797, 53.6817181 ] } },
	{ "type": "Feature", "properties": { "osm_id": "5754417077", "name": "Yours", "other_tags": "\"addr:city\"=>\"Wakefield\",\"addr:postcode\"=>\"WF1 1DS\",\"addr:street\"=>\"Bishopgate Walk The Ridings Centre\",\"addr:unit\"=>\"67\",\"level\"=>\"1\",\"shop\"=>\"clothes\"" }, "geometry": { "type": "Point", "coordinates": [ -1.4966637, 53.681733 ] } },
	{ "type": "Feature", "properties": { "osm_id": "5754417080", "name": "Peacocks", "other_tags": "\"addr:city\"=>\"Wakefield\",\"addr:postcode\"=>\"WF1 1YB\",\"addr:street\"=>\"Bishopgate Walk The Ridings Centre\",\"addr:unit\"=>\"74\",\"level\"=>\"1\",\"shop\"=>\"clothes\",\"wheelchair\"=>\"yes\"" }, "geometry": { "type": "Point", "coordinates": [ -1.4958814, 53.6817208 ] } },
	{ "type": "Feature", "properties": { "osm_id": "5918770662", "name": "New Collection", "other_tags": "\"addr:city\"=>\"Leeds\",\"addr:housenumber\"=>\"124\",\"addr:postcode\"=>\"LS7 4NY\",\"addr:street\"=>\"Harrogate Road\",\"shop\"=>\"clothes\"" }, "geometry": { "type": "Point", "coordinates": [ -1.5381068, 53.8297769 ] } },
	{ "type": "Feature", "properties": { "osm_id": "5941346393", "name": "Seraphine", "other_tags": "\"addr:city\"=>\"Leeds\",\"addr:housenumber\"=>\"10-12\",\"addr:postcode\"=>\"LS1 6AZ\",\"addr:street\"=>\"Cross Arcade\",\"shop\"=>\"clothes\"" }, "geometry": { "type": "Point", "coordinates": [ -1.5409586, 53.7978706 ] } },
	{ "type": "Feature", "properties": { "osm_id": "5941346394", "name": "Sweaty Betty", "other_tags": "\"addr:city\"=>\"Leeds\",\"addr:housenumber\"=>\"7-11\",\"addr:postcode\"=>\"LS1 6AZ\",\"addr:street\"=>\"Cross Arcade\",\"shop\"=>\"clothes\"" }, "geometry": { "type": "Point", "coordinates": [ -1.5411651, 53.7979055 ] } },
	{ "type": "Feature", "properties": { "osm_id": "5941346395", "name": "Farah", "other_tags": "\"addr:city\"=>\"Leeds\",\"addr:housenumber\"=>\"18\",\"addr:postcode\"=>\"LS1 6AX\",\"addr:street\"=>\"King Edward Street\",\"shop\"=>\"clothes\"" }, "geometry": { "type": "Point", "coordinates": [ -1.5408741, 53.7975704 ] } },
	{ "type": "Feature", "properties": { "osm_id": "5941346397", "name": "Jigsaw", "other_tags": "\"addr:city\"=>\"Leeds\",\"addr:housenumber\"=>\"23\",\"addr:postcode\"=>\"LS1 6AX\",\"addr:street\"=>\"King Edward Street\",\"shop\"=>\"clothes\"" }, "geometry": { "type": "Point", "coordinates": [ -1.54074, 53.7977629 ] } },
	{ "type": "Feature", "properties": { "osm_id": "5941346400", "name": "Diesel", "other_tags": "\"addr:city\"=>\"Leeds\",\"addr:housenumber\"=>\"13-15\",\"addr:postcode\"=>\"LS1 6AX\",\"addr:street\"=>\"King Edward Street\",\"shop\"=>\"clothes\"" }, "geometry": { "type": "Point", "coordinates": [ -1.5412255, 53.7977986 ] } },
	{ "type": "Feature", "properties": { "osm_id": "5941346402", "name": "Pretty Green", "other_tags": "\"addr:city\"=>\"Leeds\",\"addr:housenumber\"=>\"9\",\"addr:postcode\"=>\"LS1 6AX\",\"addr:street\"=>\"King Edward Street\",\"shop\"=>\"clothes\"" }, "geometry": { "type": "Point", "coordinates": [ -1.5414695, 53.7978144 ] } },
	{ "type": "Feature", "properties": { "osm_id": "5941346403", "name": "Jack Wills", "other_tags": "\"addr:city\"=>\"Leeds\",\"addr:housenumber\"=>\"7\",\"addr:postcode\"=>\"LS1 6AX\",\"addr:street\"=>\"King Edward Street\",\"shop\"=>\"clothes\"" }, "geometry": { "type": "Point", "coordinates": [ -1.5415889, 53.7978247 ] } },
	{ "type": "Feature", "properties": { "osm_id": "5941346404", "name": "North Face", "other_tags": "\"addr:city\"=>\"Leeds\",\"addr:housenumber\"=>\"5\",\"addr:postcode\"=>\"LS1 6AX\",\"addr:street\"=>\"King Edward Street\",\"shop\"=>\"clothes\"" }, "geometry": { "type": "Point", "coordinates": [ -1.5417096, 53.7978318 ] } },
	{ "type": "Feature", "properties": { "osm_id": "5941346410", "name": "Allsaints", "other_tags": "\"addr:city\"=>\"Leeds\",\"addr:housenumber\"=>\"33-35\",\"addr:postcode\"=>\"LS1 6BD\",\"addr:street\"=>\"Queen Victoria Street\",\"shop\"=>\"clothes\"" }, "geometry": { "type": "Point", "coordinates": [ -1.5406327, 53.7980156 ] } },
	{ "type": "Feature", "properties": { "osm_id": "5941346416", "name": "Allsaints", "other_tags": "\"addr:city\"=>\"Leeds\",\"addr:housenumber\"=>\"30-32\",\"addr:postcode\"=>\"LS1 6BE\",\"addr:street\"=>\"Queen Victoria Street\",\"shop\"=>\"clothes\"" }, "geometry": { "type": "Point", "coordinates": [ -1.5407266, 53.7982065 ] } },
	{ "type": "Feature", "properties": { "osm_id": "5941346422", "name": "Whistles", "other_tags": "\"addr:city\"=>\"Leeds\",\"addr:housenumber\"=>\"12-14\",\"addr:postcode\"=>\"LS1 6BE\",\"addr:street\"=>\"Queen Victoria Street\",\"shop\"=>\"clothes\"" }, "geometry": { "type": "Point", "coordinates": [ -1.5414696, 53.7982711 ] } },
	{ "type": "Feature", "properties": { "osm_id": "5941346424", "name": "Hobbs", "other_tags": "\"addr:city\"=>\"Leeds\",\"addr:housenumber\"=>\"6-8\",\"addr:postcode\"=>\"LS1 6BE\",\"addr:street\"=>\"Queen Victoria Street\",\"shop\"=>\"clothes\"" }, "geometry": { "type": "Point", "coordinates": [ -1.5416841, 53.7982881 ] } },
	{ "type": "Feature", "properties": { "osm_id": "5941346433", "name": "Hawes & Curtis", "other_tags": "\"addr:city\"=>\"Leeds\",\"addr:housenumber\"=>\"22-24\",\"addr:postcode\"=>\"LS1 6BN\",\"addr:street\"=>\"County Arcade\",\"shop\"=>\"clothes\",\"website\"=>\"https:\/\/www.hawesandcurtis.co.uk\/\"" }, "geometry": { "type": "Point", "coordinates": [ -1.5410739, 53.7984196 ] } },
	{ "type": "Feature", "properties": { "osm_id": "5941346447", "name": "Accent", "other_tags": "\"addr:city\"=>\"Leeds\",\"addr:housenumber\"=>\"11-13\",\"addr:postcode\"=>\"LS1 6LF\",\"addr:street\"=>\"Queens Arcade\",\"shop\"=>\"clothes\"" }, "geometry": { "type": "Point", "coordinates": [ -1.5428854, 53.7984386 ] } },
	{ "type": "Feature", "properties": { "osm_id": "5941346451", "name": "Levi's", "other_tags": "\"addr:city\"=>\"Leeds\",\"addr:housenumber\"=>\"30\",\"addr:postcode\"=>\"LS1 6LB\",\"addr:street\"=>\"Lands Lane\",\"shop\"=>\"clothes\"" }, "geometry": { "type": "Point", "coordinates": [ -1.5433042, 53.7984956 ] } },
	{ "type": "Feature", "properties": { "osm_id": "5941346458", "name": "Tunnel", "other_tags": "\"addr:city\"=>\"Leeds\",\"addr:housenumber\"=>\"8\",\"addr:postcode\"=>\"LS1 6LF\",\"addr:street\"=>\"Queens Arcade\",\"shop\"=>\"clothes\"" }, "geometry": { "type": "Point", "coordinates": [ -1.5426873, 53.7983 ] } },
	{ "type": "Feature", "properties": { "osm_id": "5966004619", "name": "Marks & Spencer", "other_tags": "\"shop\"=>\"clothes\"" }, "geometry": { "type": "Point", "coordinates": [ -1.7498007, 53.7953136 ] } },
	{ "type": "Feature", "properties": { "osm_id": "5980089957", "name": "TK Maxx", "other_tags": "\"shop\"=>\"clothes\"" }, "geometry": { "type": "Point", "coordinates": [ -1.4236846, 53.8012099 ] } },
	{ "type": "Feature", "properties": { "osm_id": "5981573962", "name": "Aras of Leeds", "other_tags": "\"addr:city\"=>\"Leeds\",\"addr:housename\"=>\"Kirkgate Market\",\"addr:street\"=>\"Kirkgate\",\"shop\"=>\"clothes\"" }, "geometry": { "type": "Point", "coordinates": [ -1.5394372, 53.79726 ] } },
	{ "type": "Feature", "properties": { "osm_id": "5981573973", "name": "Pocket Friendly Fashions", "other_tags": "\"addr:city\"=>\"Leeds\",\"addr:housename\"=>\"Kirkgate Market\",\"addr:street\"=>\"Kirkgate\",\"shop\"=>\"clothes\"" }, "geometry": { "type": "Point", "coordinates": [ -1.5396858, 53.7970625 ] } },
	{ "type": "Feature", "properties": { "osm_id": "5981573978", "other_tags": "\"addr:city\"=>\"Leeds\",\"addr:housename\"=>\"Kirkgate Market\",\"addr:street\"=>\"Kirkgate\",\"addr:unit\"=>\"R\",\"shop\"=>\"clothes\"" }, "geometry": { "type": "Point", "coordinates": [ -1.5399211, 53.7970656 ] } },
	{ "type": "Feature", "properties": { "osm_id": "5981576286", "name": "Myers - The Cardigan Shop", "other_tags": "\"addr:city\"=>\"Leeds\",\"addr:housename\"=>\"Kirkgate Market\",\"addr:street\"=>\"Kirkgate\",\"shop\"=>\"clothes\"" }, "geometry": { "type": "Point", "coordinates": [ -1.5400628, 53.7968633 ] } },
	{ "type": "Feature", "properties": { "osm_id": "5981576296", "name": "Dorothy Goodall", "other_tags": "\"addr:city\"=>\"Leeds\",\"addr:housename\"=>\"Kirkgate Market\",\"addr:street\"=>\"Kirkgate\",\"addr:unit\"=>\"12\",\"shop\"=>\"clothes\"" }, "geometry": { "type": "Point", "coordinates": [ -1.5400266, 53.7972299 ] } },
	{ "type": "Feature", "properties": { "osm_id": "6001482107", "name": "Ego", "other_tags": "\"shop\"=>\"clothes\"" }, "geometry": { "type": "Point", "coordinates": [ -1.5383475, 53.797435 ] } },
	{ "type": "Feature", "properties": { "osm_id": "6001482138", "other_tags": "\"shop\"=>\"clothes\"" }, "geometry": { "type": "Point", "coordinates": [ -1.5385392, 53.7970714 ] } },
	{ "type": "Feature", "properties": { "osm_id": "6001596328", "name": "Calvin Klein", "other_tags": "\"addr:city\"=>\"Leeds\",\"addr:housename\"=>\"Victoria Gate\",\"addr:postcode\"=>\"LS2 7AR\",\"addr:street\"=>\"Harewood Street\",\"addr:unit\"=>\"29\",\"level\"=>\"0\",\"shop\"=>\"clothes\"" }, "geometry": { "type": "Point", "coordinates": [ -1.5390489, 53.7979245 ] } },
	{ "type": "Feature", "properties": { "osm_id": "6001596332", "name": "Seasalt", "other_tags": "\"addr:city\"=>\"Leeds\",\"addr:housename\"=>\"Victoria Gate\",\"addr:postcode\"=>\"LS2 7AR\",\"addr:street\"=>\"Harewood Street\",\"addr:unit\"=>\"30\",\"level\"=>\"0\",\"shop\"=>\"clothes\"" }, "geometry": { "type": "Point", "coordinates": [ -1.5389121, 53.7979245 ] } },
	{ "type": "Feature", "properties": { "osm_id": "6001596336", "name": "Joules", "other_tags": "\"addr:city\"=>\"Leeds\",\"addr:housename\"=>\"Victoria Gate\",\"addr:postcode\"=>\"LS2 7AR\",\"addr:street\"=>\"Harewood Street\",\"addr:unit\"=>\"32\",\"level\"=>\"0\",\"shop\"=>\"clothes\"" }, "geometry": { "type": "Point", "coordinates": [ -1.5386975, 53.7979293 ] } },
	{ "type": "Feature", "properties": { "osm_id": "6001596337", "name": "Honey Birdette", "other_tags": "\"addr:city\"=>\"Leeds\",\"addr:housename\"=>\"Victoria Gate\",\"addr:postcode\"=>\"LS2 7AR\",\"addr:street\"=>\"Harewood Street\",\"addr:unit\"=>\"25\",\"level\"=>\"0\",\"shop\"=>\"clothes\"" }, "geometry": { "type": "Point", "coordinates": [ -1.5384051, 53.798132 ] } },
	{ "type": "Feature", "properties": { "osm_id": "6001596338", "name": "Hackett", "other_tags": "\"addr:city\"=>\"Leeds\",\"addr:housename\"=>\"Victoria Gate\",\"addr:postcode\"=>\"LS2 7AR\",\"addr:street\"=>\"Harewood Street\",\"addr:unit\"=>\"7\",\"level\"=>\"0\",\"shop\"=>\"clothes\"" }, "geometry": { "type": "Point", "coordinates": [ -1.5381476, 53.7983934 ] } },
	{ "type": "Feature", "properties": { "osm_id": "6001596339", "name": "GANT", "other_tags": "\"addr:city\"=>\"Leeds\",\"addr:housename\"=>\"Victoria Gate\",\"addr:postcode\"=>\"LS2 7AR\",\"addr:street\"=>\"Harewood Street\",\"addr:unit\"=>\"33\",\"level\"=>\"0\",\"shop\"=>\"clothes\"" }, "geometry": { "type": "Point", "coordinates": [ -1.5385848, 53.7979324 ] } },
	{ "type": "Feature", "properties": { "osm_id": "6001596340", "name": "& Other Stories", "other_tags": "\"addr:city\"=>\"Leeds\",\"addr:housename\"=>\"Victoria Gate\",\"addr:postcode\"=>\"LS2 7AR\",\"addr:street\"=>\"Harewood Street\",\"addr:unit\"=>\"35-36\",\"level\"=>\"0\",\"shop\"=>\"clothes\"" }, "geometry": { "type": "Point", "coordinates": [ -1.5382683, 53.7979419 ] } },
	{ "type": "Feature", "properties": { "osm_id": "6001596341", "name": "COS", "other_tags": "\"addr:city\"=>\"Leeds\",\"addr:housename\"=>\"Victoria Gate\",\"addr:postcode\"=>\"LS2 7AR\",\"addr:street\"=>\"Harewood Street\",\"addr:unit\"=>\"37-38\",\"level\"=>\"0\",\"shop\"=>\"clothes\"" }, "geometry": { "type": "Point", "coordinates": [ -1.5381262, 53.7979483 ] } },
	{ "type": "Feature", "properties": { "osm_id": "6001596344", "name": "Tommy Hilfiger", "other_tags": "\"addr:city\"=>\"Leeds\",\"addr:housename\"=>\"Victoria Gate\",\"addr:postcode\"=>\"LS2 7AR\",\"addr:street\"=>\"Harewood Street\",\"addr:unit\"=>\"28\",\"level\"=>\"0\",\"shop\"=>\"clothes\"" }, "geometry": { "type": "Point", "coordinates": [ -1.5391964, 53.7979324 ] } },
	{ "type": "Feature", "properties": { "osm_id": "6022849874", "name": "Luvyababes", "other_tags": "\"addr:city\"=>\"Leeds\",\"addr:housenumber\"=>\"90-92\",\"addr:postcode\"=>\"LS1 6AD\",\"addr:street\"=>\"Albion Street\",\"addr:unit\"=>\"1\",\"shop\"=>\"clothes\",\"website\"=>\"https:\/\/www.luvyababes.co.uk\/\"" }, "geometry": { "type": "Point", "coordinates": [ -1.5449001, 53.798917 ] } },
	{ "type": "Feature", "properties": { "osm_id": "6022849883", "name": "Oliver Bonas", "other_tags": "\"addr:city\"=>\"Leeds\",\"addr:housenumber\"=>\"50\",\"addr:postcode\"=>\"LS1 6AD\",\"addr:street\"=>\"Albion Street\",\"shop\"=>\"clothes\"" }, "geometry": { "type": "Point", "coordinates": [ -1.5450329, 53.7976013 ] } },
	{ "type": "Feature", "properties": { "osm_id": "6022850189", "name": "Joy", "other_tags": "\"addr:city\"=>\"Leeds\",\"addr:housename\"=>\"Pinnacle\",\"addr:housenumber\"=>\"63-65\",\"addr:postcode\"=>\"LS1 5AA\",\"addr:street\"=>\"Albion Street\",\"shop\"=>\"clothes\"" }, "geometry": { "type": "Point", "coordinates": [ -1.5453386, 53.7978904 ] } },
	{ "type": "Feature", "properties": { "osm_id": "6022850194", "name": "New Look", "other_tags": "\"shop\"=>\"clothes\"" }, "geometry": { "type": "Point", "coordinates": [ -1.545521, 53.796463 ] } },
	{ "type": "Feature", "properties": { "osm_id": "6022850204", "name": "Monsoon", "other_tags": "\"addr:city\"=>\"Leeds\",\"addr:housenumber\"=>\"28\",\"addr:postcode\"=>\"LS1 6EX\",\"addr:street\"=>\"Commercial Street\",\"shop\"=>\"clothes\"" }, "geometry": { "type": "Point", "coordinates": [ -1.5448169, 53.7972623 ] } },
	{ "type": "Feature", "properties": { "osm_id": "6022850239", "name": "Pebbles Hats", "other_tags": "\"addr:city\"=>\"Leeds\",\"addr:housenumber\"=>\"4\",\"addr:postcode\"=>\"LS1 6DX\",\"addr:street\"=>\"Central Arcade\",\"shop\"=>\"clothes\"" }, "geometry": { "type": "Point", "coordinates": [ -1.5417264, 53.7964452 ] } },
	{ "type": "Feature", "properties": { "osm_id": "6022850240", "name": "World Of Dance", "other_tags": "\"addr:city\"=>\"Leeds\",\"addr:housenumber\"=>\"3\",\"addr:postcode\"=>\"LS1 6DX\",\"addr:street\"=>\"Central Arcade\",\"shop\"=>\"clothes\"" }, "geometry": { "type": "Point", "coordinates": [ -1.5419446, 53.7964577 ] } },
	{ "type": "Feature", "properties": { "osm_id": "6022850268", "name": "Intrigue Fashion", "other_tags": "\"addr:city\"=>\"Leeds\",\"addr:housename\"=>\"Kirkgate Market\",\"addr:postcode\"=>\"LS2 7JE\",\"addr:street\"=>\"Kirkgate\",\"addr:unit\"=>\"405-409\",\"shop\"=>\"clothes\"" }, "geometry": { "type": "Point", "coordinates": [ -1.5384306, 53.7971882 ] } },
	{ "type": "Feature", "properties": { "osm_id": "6022850269", "other_tags": "\"shop\"=>\"clothes\"" }, "geometry": { "type": "Point", "coordinates": [ -1.5383652, 53.7971866 ] } },
	{ "type": "Feature", "properties": { "osm_id": "6022850272", "other_tags": "\"shop\"=>\"clothes\"" }, "geometry": { "type": "Point", "coordinates": [ -1.5386693, 53.7971991 ] } },
	{ "type": "Feature", "properties": { "osm_id": "6022850282", "other_tags": "\"shop\"=>\"clothes\"" }, "geometry": { "type": "Point", "coordinates": [ -1.5381037, 53.7971803 ] } },
	{ "type": "Feature", "properties": { "osm_id": "6022850391", "other_tags": "\"shop\"=>\"clothes\"" }, "geometry": { "type": "Point", "coordinates": [ -1.5377708, 53.7971688 ] } },
	{ "type": "Feature", "properties": { "osm_id": "6033885578", "name": "Next One Leather", "other_tags": "\"addr:city\"=>\"Leeds\",\"addr:housename\"=>\"Corn Exchange\",\"addr:postcode\"=>\"LS1 7BR\",\"addr:street\"=>\"Call Lane\",\"level\"=>\"1\",\"shop\"=>\"clothes\"" }, "geometry": { "type": "Point", "coordinates": [ -1.5401167, 53.7960647 ] } },
	{ "type": "Feature", "properties": { "osm_id": "6033886292", "name": "Soho's Leeds", "other_tags": "\"addr:city\"=>\"Leeds\",\"addr:housename\"=>\"Corn Exchange\",\"addr:postcode\"=>\"LS1 7BR\",\"addr:street\"=>\"Call Lane\",\"level\"=>\"0\",\"shop\"=>\"clothes\",\"website\"=>\"https:\/\/www.sohos.co.uk\/\"" }, "geometry": { "type": "Point", "coordinates": [ -1.539845, 53.7959143 ] } },
	{ "type": "Feature", "properties": { "osm_id": "6033886295", "name": "Mki Miyuki Zoku", "other_tags": "\"addr:housename\"=>\"Corn Exchange\",\"addr:postcode\"=>\"LS1 7BR\",\"addr:street\"=>\"Call Lane\",\"level\"=>\"0\",\"shop\"=>\"clothes\"" }, "geometry": { "type": "Point", "coordinates": [ -1.540227, 53.7961102 ] } },
	{ "type": "Feature", "properties": { "osm_id": "6033886296", "name": "All Blues Co", "other_tags": "\"addr:city\"=>\"Leeds\",\"addr:housename\"=>\"Corn Exchange\",\"addr:postcode\"=>\"LS1 7BR\",\"addr:street\"=>\"Call Lane\",\"level\"=>\"0\",\"shop\"=>\"clothes\"" }, "geometry": { "type": "Point", "coordinates": [ -1.540338, 53.7961146 ] } },
	{ "type": "Feature", "properties": { "osm_id": "6033886297", "name": "The Little Pink Wardrobe", "other_tags": "\"addr:city\"=>\"Leeds\",\"addr:housename\"=>\"Corn Exchange\",\"addr:postcode\"=>\"LS1 7BR\",\"addr:street\"=>\"Call Lane\",\"level\"=>\"0\",\"shop\"=>\"clothes\"" }, "geometry": { "type": "Point", "coordinates": [ -1.5404195, 53.7960988 ] } },
	{ "type": "Feature", "properties": { "osm_id": "6052531526", "name": "Evans", "other_tags": "\"level\"=>\"0\",\"shop\"=>\"clothes\"" }, "geometry": { "type": "Point", "coordinates": [ -1.5745304, 53.7588759 ] } },
	{ "type": "Feature", "properties": { "osm_id": "6052531539", "name": "Monsoon", "other_tags": "\"level\"=>\"0\",\"shop\"=>\"clothes\"" }, "geometry": { "type": "Point", "coordinates": [ -1.5744968, 53.7593401 ] } },
	{ "type": "Feature", "properties": { "osm_id": "6052531540", "name": "Accessorize", "other_tags": "\"level\"=>\"0\",\"shop\"=>\"clothes\"" }, "geometry": { "type": "Point", "coordinates": [ -1.5745029, 53.7592574 ] } },
	{ "type": "Feature", "properties": { "osm_id": "6052531541", "name": "Burton", "other_tags": "\"level\"=>\"0\",\"shop\"=>\"clothes\"" }, "geometry": { "type": "Point", "coordinates": [ -1.5745089, 53.7591748 ] } },
	{ "type": "Feature", "properties": { "osm_id": "6052531542", "name": "Esquire", "other_tags": "\"level\"=>\"0\",\"shop\"=>\"clothes\"" }, "geometry": { "type": "Point", "coordinates": [ -1.5745149, 53.7590921 ] } },
	{ "type": "Feature", "properties": { "osm_id": "6052531543", "name": "Top Shop", "other_tags": "\"level\"=>\"0\",\"shop\"=>\"clothes\"" }, "geometry": { "type": "Point", "coordinates": [ -1.5745186, 53.7590022 ] } },
	{ "type": "Feature", "properties": { "osm_id": "6052531544", "name": "Jack Jones", "other_tags": "\"level\"=>\"0\",\"shop\"=>\"clothes\"" }, "geometry": { "type": "Point", "coordinates": [ -1.5745367, 53.7587876 ] } },
	{ "type": "Feature", "properties": { "osm_id": "6052531545", "name": "Tessuti", "other_tags": "\"level\"=>\"0\",\"shop\"=>\"clothes\"" }, "geometry": { "type": "Point", "coordinates": [ -1.5745431, 53.7586993 ] } },
	{ "type": "Feature", "properties": { "osm_id": "6052531548", "name": "Warehouse", "other_tags": "\"level\"=>\"0\",\"shop\"=>\"clothes\"" }, "geometry": { "type": "Point", "coordinates": [ -1.5746042, 53.7584291 ] } },
	{ "type": "Feature", "properties": { "osm_id": "6052531554", "name": "Select", "other_tags": "\"level\"=>\"0\",\"shop\"=>\"clothes\"" }, "geometry": { "type": "Point", "coordinates": [ -1.574433, 53.757513 ] } },
	{ "type": "Feature", "properties": { "osm_id": "6052531558", "name": "Superdry", "other_tags": "\"level\"=>\"0\",\"shop\"=>\"clothes\"" }, "geometry": { "type": "Point", "coordinates": [ -1.5744391, 53.7574299 ] } },
	{ "type": "Feature", "properties": { "osm_id": "6052531562", "name": "Zara", "other_tags": "\"level\"=>\"0\",\"shop\"=>\"clothes\"" }, "geometry": { "type": "Point", "coordinates": [ -1.5742032, 53.7566435 ] } },
	{ "type": "Feature", "properties": { "osm_id": "6052531564", "name": "River Island", "other_tags": "\"level\"=>\"0\",\"shop\"=>\"clothes\"" }, "geometry": { "type": "Point", "coordinates": [ -1.5737674, 53.756596 ] } },
	{ "type": "Feature", "properties": { "osm_id": "6052531571", "name": "Oasis", "other_tags": "\"level\"=>\"0\",\"shop\"=>\"clothes\"" }, "geometry": { "type": "Point", "coordinates": [ -1.5740034, 53.7584132 ] } },
	{ "type": "Feature", "properties": { "osm_id": "6052531575", "name": "Primark", "other_tags": "\"level\"=>\"0;1\",\"shop\"=>\"clothes\"" }, "geometry": { "type": "Point", "coordinates": [ -1.5736923, 53.757836 ] } },
	{ "type": "Feature", "properties": { "osm_id": "6052531585", "name": "Quiz", "other_tags": "\"level\"=>\"0\",\"shop\"=>\"clothes\"" }, "geometry": { "type": "Point", "coordinates": [ -1.5741858, 53.7585639 ] } },
	{ "type": "Feature", "properties": { "osm_id": "6052531588", "name": "Next", "other_tags": "\"level\"=>\"0;1\",\"shop\"=>\"clothes\"" }, "geometry": { "type": "Point", "coordinates": [ -1.5737432, 53.7587415 ] } },
	{ "type": "Feature", "properties": { "osm_id": "6052531590", "name": "Miss Selfridge", "other_tags": "\"level\"=>\"0\",\"shop\"=>\"clothes\"" }, "geometry": { "type": "Point", "coordinates": [ -1.5741456, 53.759044 ] } },
	{ "type": "Feature", "properties": { "osm_id": "6052531591", "name": "Boux Avenue", "other_tags": "\"level\"=>\"0\",\"shop\"=>\"clothes\"" }, "geometry": { "type": "Point", "coordinates": [ -1.5741389, 53.7591272 ] } },
	{ "type": "Feature", "properties": { "osm_id": "6052531592", "name": "H&M", "other_tags": "\"level\"=>\"0\",\"shop\"=>\"clothes\"" }, "geometry": { "type": "Point", "coordinates": [ -1.5738808, 53.7592646 ] } },
	{ "type": "Feature", "properties": { "osm_id": "6052531595", "name": "Yours", "other_tags": "\"level\"=>\"0\",\"shop\"=>\"clothes\"" }, "geometry": { "type": "Point", "coordinates": [ -1.5741097, 53.7594906 ] } },
	{ "type": "Feature", "properties": { "osm_id": "6067166284", "name": "FatFace", "other_tags": "\"addr:city\"=>\"Leeds\",\"addr:housename\"=>\"City Station\",\"addr:postcode\"=>\"LS1 4DY\",\"addr:street\"=>\"New Station Street\",\"addr:unit\"=>\"12 North Concourse\",\"shop\"=>\"clothes\"" }, "geometry": { "type": "Point", "coordinates": [ -1.5481925, 53.7957153 ] } },
	{ "type": "Feature", "properties": { "osm_id": "6101234048", "name": "H&M", "other_tags": "\"shop\"=>\"clothes\"" }, "geometry": { "type": "Point", "coordinates": [ -1.4241003, 53.8005885 ] } },
	{ "type": "Feature", "properties": { "osm_id": "6101234050", "name": "Fat Face", "other_tags": "\"shop\"=>\"clothes\"" }, "geometry": { "type": "Point", "coordinates": [ -1.4240919, 53.7999405 ] } },
	{ "type": "Feature", "properties": { "osm_id": "6101234052", "name": "River Island", "other_tags": "\"shop\"=>\"clothes\"" }, "geometry": { "type": "Point", "coordinates": [ -1.4240909, 53.7996868 ] } },
	{ "type": "Feature", "properties": { "osm_id": "6101234053", "name": "Outfit", "other_tags": "\"shop\"=>\"clothes\"" }, "geometry": { "type": "Point", "coordinates": [ -1.4240869, 53.7995355 ] } },
	{ "type": "Feature", "properties": { "osm_id": "6139531118", "name": "Cath Kidston", "other_tags": "\"addr:city\"=>\"Leeds\",\"addr:housenumber\"=>\"26\",\"addr:postcode\"=>\"LS1 6LB\",\"addr:street\"=>\"Lands Lane\",\"shop\"=>\"clothes\"" }, "geometry": { "type": "Point", "coordinates": [ -1.5433528, 53.7982743 ] } },
	{ "type": "Feature", "properties": { "osm_id": "6210514962", "name": "M&Co.", "other_tags": "\"shop\"=>\"clothes\"" }, "geometry": { "type": "Point", "coordinates": [ -1.6925886, 53.90509 ] } },
	{ "type": "Feature", "properties": { "osm_id": "6294180913", "name": "Clearance Outlet", "other_tags": "\"clothes\"=>\"women\",\"shop\"=>\"clothes\"" }, "geometry": { "type": "Point", "coordinates": [ -1.4519934, 53.8071202 ] } },
	{ "type": "Feature", "properties": { "osm_id": null, "centroid": { "latitude": 53.745935, "longitude": -1.645711 }, "osm_way_id": "24923112", "name": "TK Maxx", "building": "yes", "shop": "clothes" }, "geometry": { "type": "MultiPolygon", "coordinates": [ [ [ [ -1.6454557, 53.7457106 ], [ -1.6458345, 53.7456746 ], [ -1.6459662, 53.7461595 ], [ -1.6455875, 53.7461955 ], [ -1.6454754, 53.7457889 ], [ -1.6454557, 53.7457106 ] ] ] ] } },
	{ "type": "Feature", "properties": { "osm_id": null, "centroid": { "latitude": 53.702406, "longitude": -1.778698 }, "osm_way_id": "88397390", "name": "M&Co.", "building": "yes", "shop": "clothes" }, "geometry": { "type": "MultiPolygon", "coordinates": [ [ [ [ -1.7788828, 53.7023348 ], [ -1.7790493, 53.7023333 ], [ -1.7790479, 53.7024047 ], [ -1.779052, 53.7024593 ], [ -1.778898, 53.7024573 ], [ -1.7788895, 53.7024693 ], [ -1.77841, 53.7025276 ], [ -1.7783447, 53.7023472 ], [ -1.7787661, 53.7022909 ], [ -1.7788183, 53.7022836 ], [ -1.7788573, 53.7023388 ], [ -1.7788828, 53.7023348 ] ] ] ] } },
	{ "type": "Feature", "properties": { "osm_id": null, "centroid": { "latitude": 53.828593, "longitude": -1.712287 }, "osm_way_id": "89624038", "name": "Matalan", "building": "retail", "landuse": "retail", "shop": "clothes" }, "geometry": { "type": "MultiPolygon", "coordinates": [ [ [ [ -1.7129021, 53.8284212 ], [ -1.7125265, 53.8289635 ], [ -1.7116713, 53.8287759 ], [ -1.7120296, 53.8282234 ], [ -1.7129021, 53.8284212 ] ] ] ] } },
	{ "type": "Feature", "properties": { "osm_id": null, "centroid": { "latitude": 53.677426, "longitude": -1.495441 }, "osm_way_id": "97086040", "name": "Matalan", "building": "yes", "shop": "clothes", "other_tags": "\"addr:city\"=>\"Wakefield\",\"addr:housenumber\"=>\"Unit 8\",\"addr:postcode\"=>\"WF1 1RN\",\"addr:street\"=>\"Ings Road\"" }, "geometry": { "type": "MultiPolygon", "coordinates": [ [ [ [ -1.4958654, 53.67731 ], [ -1.4957667, 53.6774864 ], [ -1.4956646, 53.677669 ], [ -1.495016, 53.6775417 ], [ -1.4951884, 53.6772336 ], [ -1.4952169, 53.6771827 ], [ -1.4958654, 53.67731 ] ] ] ] } },
	{ "type": "Feature", "properties": { "osm_id": null, "centroid": { "latitude": 53.815939, "longitude": -1.600094 }, "osm_way_id": "111988178", "name": "Harvard Mills", "building": "retail", "shop": "clothes" }, "geometry": { "type": "MultiPolygon", "coordinates": [ [ [ [ -1.6006469, 53.8159613 ], [ -1.6003945, 53.8156643 ], [ -1.6002383, 53.8157105 ], [ -1.5995415, 53.8159168 ], [ -1.5997938, 53.8162139 ], [ -1.6006469, 53.8159613 ] ] ] ] } },
	{ "type": "Feature", "properties": { "osm_id": null, "centroid": { "latitude": 53.801192, "longitude": -1.533939 }, "osm_way_id": "113160885", "name": "J&S Motorcycle Clothing and Accessories", "building": "yes", "shop": "clothes", "other_tags": "\"addr:city\"=>\"Leeds\",\"addr:street\"=>\"Regent Street\",\"addr:postcode\"=>\"LS2 7QA\",\"addr:housenumber\"=>\"3\"" }, "geometry": { "type": "MultiPolygon", "coordinates": [ [ [ [ -1.5342035, 53.8012842 ], [ -1.533633, 53.801206 ], [ -1.5336748, 53.8010998 ], [ -1.5342453, 53.801178 ], [ -1.5342035, 53.8012842 ] ] ] ] } },
	{ "type": "Feature", "properties": { "osm_id": null, "centroid": { "latitude": 53.726017, "longitude": -1.852133 }, "osm_way_id": "118710058", "name": "Next", "building": "yes", "shop": "clothes", "other_tags": "\"addr:city\"=>\"Halifax\",\"addr:country\"=>\"GB\",\"addr:postcode\"=>\"HX3 6AB\",\"addr:street\"=>\"Charlestown Road\"" }, "geometry": { "type": "MultiPolygon", "coordinates": [ [ [ [ -1.8524344, 53.7262413 ], [ -1.8516492, 53.7259994 ], [ -1.8518313, 53.7257925 ], [ -1.8526165, 53.7260345 ], [ -1.8524344, 53.7262413 ] ] ] ] } },
	{ "type": "Feature", "properties": { "osm_id": null, "centroid": { "latitude": 53.771037, "longitude": -1.760862 }, "osm_way_id": "120860453", "name": "Matalan", "building": "yes", "shop": "clothes" }, "geometry": { "type": "MultiPolygon", "coordinates": [ [ [ [ -1.7609563, 53.7712998 ], [ -1.7603168, 53.7711419 ], [ -1.7604283, 53.7709841 ], [ -1.7603755, 53.770971 ], [ -1.760463, 53.7708473 ], [ -1.7605188, 53.770861 ], [ -1.7605806, 53.7707737 ], [ -1.7614065, 53.7709777 ], [ -1.7612879, 53.7711454 ], [ -1.7610985, 53.7710986 ], [ -1.7609563, 53.7712998 ] ] ] ] } },
	{ "type": "Feature", "properties": { "osm_id": null, "centroid": { "latitude": 53.801297, "longitude": -1.533898 }, "osm_way_id": "121485726", "name": "Getgeared", "building": "yes", "shop": "clothes", "other_tags": "\"addr:city\"=>\"Leeds\",\"addr:street\"=>\"Regent Street\",\"addr:postcode\"=>\"LS2 7QA\",\"addr:housenumber\"=>\"5\"" }, "geometry": { "type": "MultiPolygon", "coordinates": [ [ [ [ -1.5342035, 53.8012842 ], [ -1.5341626, 53.8013882 ], [ -1.5335922, 53.80131 ], [ -1.533633, 53.801206 ], [ -1.5342035, 53.8012842 ] ] ] ] } },
	{ "type": "Feature", "properties": { "osm_id": null, "centroid": { "latitude": 53.690233, "longitude": -1.624238 }, "osm_way_id": "148253700", "name": "Next", "building": "yes", "shop": "clothes" }, "geometry": { "type": "MultiPolygon", "coordinates": [ [ [ [ -1.6242362, 53.6900065 ], [ -1.6244407, 53.6901078 ], [ -1.6246152, 53.6901942 ], [ -1.6242406, 53.6904593 ], [ -1.6238616, 53.6902716 ], [ -1.6242362, 53.6900065 ] ] ] ] } },
	{ "type": "Feature", "properties": { "osm_id": null, "centroid": { "latitude": 53.702359, "longitude": -1.781166 }, "osm_way_id": "148853885", "name": "Fashion Direct", "building": "retail", "shop": "clothes" }, "geometry": { "type": "MultiPolygon", "coordinates": [ [ [ [ -1.7811608, 53.7022587 ], [ -1.7812109, 53.7023939 ], [ -1.7812325, 53.702452 ], [ -1.781171, 53.70246 ], [ -1.7810993, 53.7022667 ], [ -1.7811608, 53.7022587 ] ] ] ] } },
	{ "type": "Feature", "properties": { "osm_id": null, "centroid": { "latitude": 53.563498, "longitude": -1.780695 }, "osm_way_id": "151491879", "name": "LetsHike", "building": "yes", "shop": "clothes", "other_tags": "\"website\"=>\"http:\/\/www.letshike.co.uk\",\"addr:street\"=>\"Dunford Road\",\"addr:postcode\"=>\"HD9 2AR\",\"addr:housename\"=>\"LetsHike\",\"addr:housenumber\"=>\"LetsHike\"" }, "geometry": { "type": "MultiPolygon", "coordinates": [ [ [ [ -1.7805414, 53.563436 ], [ -1.7805416, 53.5635609 ], [ -1.7808488, 53.5635603 ], [ -1.7808438, 53.5634349 ], [ -1.7805414, 53.563436 ] ] ] ] } },
	{ "type": "Feature", "properties": { "osm_id": null, "centroid": { "latitude": 53.874277, "longitude": -1.906050 }, "osm_way_id": "151655170", "name": "TK Maxx", "building": "retail", "shop": "clothes", "other_tags": "\"addr:city\"=>\"Keighley\",\"addr:district\"=>\"Keighley Retail Park\",\"addr:postcode\"=>\"BD21 3NJ\",\"addr:street\"=>\"Hard Ings Road\"" }, "geometry": { "type": "MultiPolygon", "coordinates": [ [ [ [ -1.9064089, 53.8743114 ], [ -1.9062407, 53.8740945 ], [ -1.9056908, 53.8742427 ], [ -1.9058589, 53.8744596 ], [ -1.9064089, 53.8743114 ] ] ] ] } },
	{ "type": "Feature", "properties": { "osm_id": null, "centroid": { "latitude": 53.679407, "longitude": -1.661525 }, "osm_way_id": "154336027", "name": "Mona Lisa Fashion", "building": "yes", "shop": "clothes" }, "geometry": { "type": "MultiPolygon", "coordinates": [ [ [ [ -1.6615832, 53.6793431 ], [ -1.661639, 53.6794349 ], [ -1.6614659, 53.6794718 ], [ -1.6614101, 53.67938 ], [ -1.6615832, 53.6793431 ] ] ] ] } },
	{ "type": "Feature", "properties": { "osm_id": null, "centroid": { "latitude": 53.702507, "longitude": -1.779837 }, "osm_way_id": "154564228", "name": "Mis Dress", "building": "yes", "shop": "clothes" }, "geometry": { "type": "MultiPolygon", "coordinates": [ [ [ [ -1.7797791, 53.7024627 ], [ -1.7798534, 53.7024521 ], [ -1.779894, 53.7025522 ], [ -1.7798197, 53.7025628 ], [ -1.7797791, 53.7024627 ] ] ] ] } },
	{ "type": "Feature", "properties": { "osm_id": null, "centroid": { "latitude": 53.788188, "longitude": -1.541601 }, "osm_way_id": "161590960", "name": "Next", "building": "retail", "shop": "clothes" }, "geometry": { "type": "MultiPolygon", "coordinates": [ [ [ [ -1.5412096, 53.7880808 ], [ -1.5417492, 53.7880819 ], [ -1.5419921, 53.7880823 ], [ -1.5419912, 53.7882943 ], [ -1.5412093, 53.7882924 ], [ -1.5412096, 53.7880808 ] ] ] ] } },
	{ "type": "Feature", "properties": { "osm_id": null, "centroid": { "latitude": 53.686959, "longitude": -1.856125 }, "osm_way_id": "174658257", "name": "Westgate Bridal Studio", "building": "yes", "shop": "clothes", "other_tags": "\"addr:city\"=>\"Halifax\",\"addr:country\"=>\"GB\",\"addr:housenumber\"=>\"4\",\"addr:postcode\"=>\"HX4 8AD\",\"addr:street\"=>\"Stainland Road\",\"addr:suburb\"=>\"West Vale\",\"clothes\"=>\"bridal\",\"phone\"=>\"+44 1422 330132\",\"website\"=>\"http:\/\/www.westgatebridalstudio.com\/\"" }, "geometry": { "type": "MultiPolygon", "coordinates": [ [ [ [ -1.8560411, 53.6869446 ], [ -1.8560993, 53.6869082 ], [ -1.8562087, 53.6869699 ], [ -1.8561399, 53.6870094 ], [ -1.8560411, 53.6869446 ] ] ] ] } },
	{ "type": "Feature", "properties": { "osm_id": null, "centroid": { "latitude": 53.777505, "longitude": -1.570490 }, "osm_way_id": "193807781", "name": "Leeds United Shop", "building": "yes", "shop": "clothes", "other_tags": "\"addr:city\"=>\"Leeds\"" }, "geometry": { "type": "MultiPolygon", "coordinates": [ [ [ [ -1.5708119, 53.7774007 ], [ -1.5707517, 53.7773445 ], [ -1.5701681, 53.7775441 ], [ -1.5702921, 53.7776653 ], [ -1.5707679, 53.7775041 ], [ -1.5707784, 53.7774595 ], [ -1.5707966, 53.7774219 ], [ -1.5708119, 53.7774007 ] ] ] ] } },
	{ "type": "Feature", "properties": { "osm_id": null, "centroid": { "latitude": 53.712810, "longitude": -1.626871 }, "osm_way_id": "198205219", "name": "The Uniform Cenre", "building": "yes", "shop": "clothes" }, "geometry": { "type": "MultiPolygon", "coordinates": [ [ [ [ -1.6270075, 53.7128586 ], [ -1.6269997, 53.7128605 ], [ -1.6268324, 53.7129018 ], [ -1.6267341, 53.7127622 ], [ -1.6269092, 53.712719 ], [ -1.6270075, 53.7128586 ] ] ] ] } },
	{ "type": "Feature", "properties": { "osm_id": null, "centroid": { "latitude": 53.787978, "longitude": -1.541480 }, "osm_way_id": "203009419", "name": "New Look", "building": "retail", "shop": "clothes" }, "geometry": { "type": "MultiPolygon", "coordinates": [ [ [ [ -1.5412108, 53.7878737 ], [ -1.5412096, 53.7880808 ], [ -1.5417492, 53.7880819 ], [ -1.5417503, 53.7878747 ], [ -1.5412108, 53.7878737 ] ] ] ] } },
	{ "type": "Feature", "properties": { "osm_id": null, "centroid": { "latitude": 53.796498, "longitude": -1.470886 }, "osm_way_id": "218986484", "building": "retail", "shop": "clothes" }, "geometry": { "type": "MultiPolygon", "coordinates": [ [ [ [ -1.4713473, 53.7967982 ], [ -1.4715248, 53.7963539 ], [ -1.4705229, 53.7961984 ], [ -1.4703825, 53.796555 ], [ -1.4702967, 53.7965392 ], [ -1.4702476, 53.7966303 ], [ -1.4713473, 53.7967982 ] ] ] ] } },
	{ "type": "Feature", "properties": { "osm_id": null, "centroid": { "latitude": 53.724143, "longitude": -1.712358 }, "osm_way_id": "229723300", "name": "Paris", "building": "yes", "shop": "clothes" }, "geometry": { "type": "MultiPolygon", "coordinates": [ [ [ [ -1.7122964, 53.7241019 ], [ -1.7124499, 53.724136 ], [ -1.7124188, 53.724185 ], [ -1.7122653, 53.724151 ], [ -1.7122964, 53.7241019 ] ] ] ] } },
	{ "type": "Feature", "properties": { "osm_id": null, "centroid": { "latitude": 53.746128, "longitude": -1.643543 }, "osm_way_id": "299813643", "name": "Next", "building": "yes", "shop": "clothes" }, "geometry": { "type": "MultiPolygon", "coordinates": [ [ [ [ -1.643802, 53.7463495 ], [ -1.6432735, 53.746345 ], [ -1.6432745, 53.7463018 ], [ -1.6432842, 53.7459057 ], [ -1.6438127, 53.7459102 ], [ -1.643802, 53.7463495 ] ] ] ] } },
	{ "type": "Feature", "properties": { "osm_id": null, "centroid": { "latitude": 53.725138, "longitude": -1.870954 }, "osm_way_id": "322077415", "name": "TK Maxx", "building": "retail", "shop": "clothes", "other_tags": "\"addr:city\"=>\"Halifax\",\"addr:country\"=>\"GB\",\"addr:housename\"=>\"Unit 4\",\"addr:postcode\"=>\"HX1 5QN\",\"addr:street\"=>\"Hanson Lane\",\"website\"=>\"https:\/\/www.tkmaxx.com\/\"" }, "geometry": { "type": "MultiPolygon", "coordinates": [ [ [ [ -1.8706467, 53.7251678 ], [ -1.8706841, 53.7249143 ], [ -1.871286, 53.7249455 ], [ -1.8712244, 53.7253622 ], [ -1.8706226, 53.7253311 ], [ -1.8706467, 53.7251678 ] ] ] ] } },
	{ "type": "Feature", "properties": { "osm_id": null, "centroid": { "latitude": 53.684342, "longitude": -1.494782 }, "osm_way_id": "331240037", "name": "Peacocks", "building": "yes", "shop": "clothes", "other_tags": "\"operator\"=>\"Peacocks\"" }, "geometry": { "type": "MultiPolygon", "coordinates": [ [ [ [ -1.4946524, 53.684536 ], [ -1.4948311, 53.684549 ], [ -1.4949122, 53.6841479 ], [ -1.494739, 53.6841353 ], [ -1.4946524, 53.684536 ] ] ] ] } },
	{ "type": "Feature", "properties": { "osm_id": null, "centroid": { "latitude": 53.798741, "longitude": -1.586226 }, "osm_way_id": "332479593", "name": "Clothing World", "building": "retail", "shop": "clothes" }, "geometry": { "type": "MultiPolygon", "coordinates": [ [ [ [ -1.5864335, 53.7987248 ], [ -1.5863398, 53.7986262 ], [ -1.5860175, 53.7987331 ], [ -1.5860318, 53.7987482 ], [ -1.5860975, 53.7988173 ], [ -1.586134, 53.7988557 ], [ -1.5862498, 53.7988173 ], [ -1.5862269, 53.7987933 ], [ -1.5864335, 53.7987248 ] ] ] ] } },
	{ "type": "Feature", "properties": { "osm_id": null, "centroid": { "latitude": 53.653611, "longitude": -1.778804 }, "osm_way_id": "333917130", "name": "Next", "building": "retail", "shop": "clothes" }, "geometry": { "type": "MultiPolygon", "coordinates": [ [ [ [ -1.7792608, 53.6537082 ], [ -1.7792604, 53.6535128 ], [ -1.778393, 53.6535135 ], [ -1.7783931, 53.6535543 ], [ -1.7783471, 53.6535543 ], [ -1.7783473, 53.6536578 ], [ -1.7783919, 53.6536578 ], [ -1.778392, 53.653709 ], [ -1.7792608, 53.6537082 ] ] ] ] } },
	{ "type": "Feature", "properties": { "osm_id": null, "centroid": { "latitude": 53.646384, "longitude": -1.782829 }, "osm_way_id": "334175534", "name": "United Colors of Benetton", "shop": "clothes" }, "geometry": { "type": "MultiPolygon", "coordinates": [ [ [ [ -1.7830396, 53.646386 ], [ -1.7826357, 53.6463357 ], [ -1.7826191, 53.6463827 ], [ -1.7829506, 53.6464239 ], [ -1.783023, 53.6464329 ], [ -1.7830396, 53.646386 ] ] ] ] } },
	{ "type": "Feature", "properties": { "osm_id": null, "centroid": { "latitude": 53.645661, "longitude": -1.785823 }, "osm_way_id": "334204571", "name": "Fashion Factory", "shop": "clothes" }, "geometry": { "type": "MultiPolygon", "coordinates": [ [ [ [ -1.7859026, 53.6457151 ], [ -1.7859444, 53.6456531 ], [ -1.7857395, 53.6456068 ], [ -1.7857007, 53.6456719 ], [ -1.7859026, 53.6457151 ] ] ] ] } },
	{ "type": "Feature", "properties": { "osm_id": null, "centroid": { "latitude": 53.569974, "longitude": -1.787788 }, "osm_way_id": "334255807", "name": "Julie Ann", "building": "retail", "shop": "clothes", "other_tags": "\"clothes\"=>\"women\",\"building:levels\"=>\"2\",\"building:material\"=>\"stone\"" }, "geometry": { "type": "MultiPolygon", "coordinates": [ [ [ [ -1.7877175, 53.5699731 ], [ -1.7878041, 53.5700144 ], [ -1.787859, 53.5699716 ], [ -1.7877784, 53.5699341 ], [ -1.7877175, 53.5699731 ] ] ] ] } },
	{ "type": "Feature", "properties": { "osm_id": null, "centroid": { "latitude": 53.569380, "longitude": -1.789071 }, "osm_way_id": "334259712", "name": "Fair Trader", "building": "retail", "shop": "clothes", "other_tags": "\"website\"=>\"www.theFairTradersCooperative.co.uk\",\"alt_name\"=>\"TheFairTradersCooperative\",\"building:levels\"=>\"2\",\"building:material\"=>\"stone\"" }, "geometry": { "type": "MultiPolygon", "coordinates": [ [ [ [ -1.7890691, 53.5694171 ], [ -1.7890603, 53.5694193 ], [ -1.7889946, 53.5694356 ], [ -1.7889422, 53.5693802 ], [ -1.7890134, 53.5693598 ], [ -1.7891182, 53.5693247 ], [ -1.7891993, 53.5694021 ], [ -1.789124, 53.5694186 ], [ -1.7890691, 53.5694171 ] ] ] ] } },
	{ "type": "Feature", "properties": { "osm_id": null, "centroid": { "latitude": 53.569214, "longitude": -1.789510 }, "osm_way_id": "334434347", "name": "Swimbabes", "building": "retail", "shop": "clothes", "other_tags": "\"clothes\"=>\"children\",\"building:levels\"=>\"2\",\"building:material\"=>\"stone\"" }, "geometry": { "type": "MultiPolygon", "coordinates": [ [ [ [ -1.789539, 53.5692619 ], [ -1.7895882, 53.5692374 ], [ -1.7894883, 53.5691668 ], [ -1.7894314, 53.5691952 ], [ -1.7894866, 53.5692342 ], [ -1.7894942, 53.5692304 ], [ -1.7895146, 53.5692447 ], [ -1.789539, 53.5692619 ] ] ] ] } },
	{ "type": "Feature", "properties": { "osm_id": null, "centroid": { "latitude": 53.569401, "longitude": -1.787668 }, "osm_way_id": "335107033", "name": "Lotties Fashion Accessories", "shop": "clothes", "other_tags": "\"level\"=>\"0\"" }, "geometry": { "type": "MultiPolygon", "coordinates": [ [ [ [ -1.7877297, 53.5694346 ], [ -1.7876696, 53.5694505 ], [ -1.787662, 53.5694404 ], [ -1.7876559, 53.5694323 ], [ -1.7876073, 53.5693675 ], [ -1.7876675, 53.5693516 ], [ -1.7876841, 53.5693739 ], [ -1.787716, 53.5694164 ], [ -1.7877297, 53.5694346 ] ] ] ] } },
	{ "type": "Feature", "properties": { "osm_id": null, "centroid": { "latitude": 53.570700, "longitude": -1.787034 }, "osm_way_id": "335204493", "name": "Bijou Bridal Boutique", "building": "retail", "shop": "clothes", "other_tags": "\"clothes\"=>\"wedding\",\"roof:shape\"=>\"gabled\",\"building:levels\"=>\"2\",\"roof:orientation\"=>\"across\",\"building:material\"=>\"stone\"" }, "geometry": { "type": "MultiPolygon", "coordinates": [ [ [ [ -1.7871232, 53.5707024 ], [ -1.7871078, 53.5707299 ], [ -1.7869452, 53.5706979 ], [ -1.7869606, 53.5706704 ], [ -1.7871232, 53.5707024 ] ] ] ] } },
	{ "type": "Feature", "properties": { "osm_id": null, "centroid": { "latitude": 53.570645, "longitude": -1.787065 }, "osm_way_id": "335204495", "name": "Dvyne Boutique", "building": "retail", "shop": "clothes", "other_tags": "\"roof:shape\"=>\"gabled\",\"building:levels\"=>\"2\",\"roof:orientation\"=>\"across\",\"building:material\"=>\"stone\"" }, "geometry": { "type": "MultiPolygon", "coordinates": [ [ [ [ -1.7871385, 53.5706748 ], [ -1.786976, 53.5706428 ], [ -1.7869913, 53.5706153 ], [ -1.7871539, 53.5706473 ], [ -1.7871385, 53.5706748 ] ] ] ] } },
	{ "type": "Feature", "properties": { "osm_id": null, "centroid": { "latitude": 53.570485, "longitude": -1.787141 }, "osm_way_id": "335204503", "name": "Up Country", "building": "retail", "shop": "clothes", "other_tags": "\"website\"=>\"www.rowan-upcountry.com\",\"roof:shape\"=>\"gabled\",\"building:levels\"=>\"2\",\"addr:housenumber\"=>\"58\",\"roof:orientation\"=>\"across\",\"building:material\"=>\"stone\"" }, "geometry": { "type": "MultiPolygon", "coordinates": [ [ [ [ -1.7872661, 53.5704649 ], [ -1.787219, 53.5705463 ], [ -1.787212, 53.5705431 ], [ -1.7870494, 53.5705111 ], [ -1.7870151, 53.5705055 ], [ -1.7870569, 53.5704245 ], [ -1.7872661, 53.5704649 ] ] ] ] } },
	{ "type": "Feature", "properties": { "osm_id": null, "centroid": { "latitude": 53.570006, "longitude": -1.786567 }, "osm_way_id": "335209273", "name": "Pipa-nik Boutique", "building": "retail", "shop": "clothes", "other_tags": "\"building:levels\"=>\"2\",\"building:material\"=>\"stone\"" }, "geometry": { "type": "MultiPolygon", "coordinates": [ [ [ [ -1.7865974, 53.5699575 ], [ -1.7865249, 53.5699981 ], [ -1.7864871, 53.5700238 ], [ -1.7865482, 53.5700541 ], [ -1.7865803, 53.570031 ], [ -1.7866478, 53.5699925 ], [ -1.7865974, 53.5699575 ] ] ] ] } },
	{ "type": "Feature", "properties": { "osm_id": null, "centroid": { "latitude": 53.646853, "longitude": -1.783012 }, "osm_way_id": "335387365", "name": "Bronx", "building": "retail", "shop": "clothes", "other_tags": "\"addr:city\"=>\"Huddersfield\",\"addr:street\"=>\"Westgate\",\"addr:housename\"=>\"Westgate House\",\"building:levels\"=>\"4\"" }, "geometry": { "type": "MultiPolygon", "coordinates": [ [ [ [ -1.7830624, 53.6468953 ], [ -1.782944, 53.6468862 ], [ -1.7829617, 53.6468116 ], [ -1.78298, 53.6468131 ], [ -1.7830805, 53.6468212 ], [ -1.7830624, 53.6468953 ] ] ] ] } },
	{ "type": "Feature", "properties": { "osm_id": null, "centroid": { "latitude": 53.647147, "longitude": -1.783640 }, "osm_way_id": "337480213", "name": "Indigo Menswear", "shop": "clothes", "other_tags": "\"clothes\"=>\"men\"" }, "geometry": { "type": "MultiPolygon", "coordinates": [ [ [ [ -1.7836641, 53.6472077 ], [ -1.7836987, 53.647095 ], [ -1.7836219, 53.6470872 ], [ -1.7835808, 53.6471998 ], [ -1.7836641, 53.6472077 ] ] ] ] } },
	{ "type": "Feature", "properties": { "osm_id": null, "centroid": { "latitude": 53.600840, "longitude": -1.926978 }, "osm_way_id": "337485366", "name": "Cubecure Boutique", "building": "retail", "shop": "clothes", "other_tags": "\"building:levels\"=>\"2\",\"building:material\"=>\"stone\"" }, "geometry": { "type": "MultiPolygon", "coordinates": [ [ [ [ -1.926894, 53.6008511 ], [ -1.9269561, 53.6008922 ], [ -1.9270409, 53.6008359 ], [ -1.9270616, 53.6008226 ], [ -1.9270183, 53.6007888 ], [ -1.926894, 53.6008511 ] ] ] ] } },
	{ "type": "Feature", "properties": { "osm_id": null, "centroid": { "latitude": 53.600805, "longitude": -1.926936 }, "osm_way_id": "337485389", "name": "The Wardrobe", "building": "retail", "shop": "clothes", "other_tags": "\"building:levels\"=>\"2\",\"building:material\"=>\"stone\"" }, "geometry": { "type": "MultiPolygon", "coordinates": [ [ [ [ -1.9268529, 53.6008223 ], [ -1.926894, 53.6008511 ], [ -1.9270183, 53.6007888 ], [ -1.9269772, 53.6007599 ], [ -1.9268529, 53.6008223 ] ] ] ] } },
	{ "type": "Feature", "properties": { "osm_id": null, "centroid": { "latitude": 53.601390, "longitude": -1.927054 }, "osm_way_id": "337487457", "name": "Bits And Pieces", "building": "retail", "shop": "clothes", "other_tags": "\"addr:city\"=>\"Huddersfield\",\"addr:country\"=>\"GB\",\"addr:hamlet\"=>\"Marsden\",\"addr:postcode\"=>\"HD7 6BR\",\"addr:street\"=>\"Peel Street\",\"building:levels\"=>\"2\",\"building:material\"=>\"stone\",\"roof:levels\"=>\"1\"" }, "geometry": { "type": "MultiPolygon", "coordinates": [ [ [ [ -1.9269889, 53.6013848 ], [ -1.9269294, 53.601402 ], [ -1.9269614, 53.6014411 ], [ -1.9271792, 53.6013782 ], [ -1.9271472, 53.6013392 ], [ -1.9269889, 53.6013848 ] ] ] ] } },
	{ "type": "Feature", "properties": { "osm_id": null, "centroid": { "latitude": 53.795714, "longitude": -1.543954 }, "osm_way_id": "338011445", "name": "Nicholas Deakins", "shop": "clothes", "other_tags": "\"addr:city\"=>\"Leeds\",\"addr:housenumber\"=>\"15\",\"addr:postcode\"=>\"LS1 6EA\",\"addr:street\"=>\"Boar Lane\"" }, "geometry": { "type": "MultiPolygon", "coordinates": [ [ [ [ -1.5440345, 53.7957954 ], [ -1.5439525, 53.7958079 ], [ -1.543874, 53.795634 ], [ -1.5439579, 53.795621 ], [ -1.5440345, 53.7957954 ] ] ] ] } },
	{ "type": "Feature", "properties": { "osm_id": null, "centroid": { "latitude": 53.725468, "longitude": -1.355019 }, "osm_way_id": "338030816", "name": "Kamikaze", "shop": "clothes" }, "geometry": { "type": "MultiPolygon", "coordinates": [ [ [ [ -1.3550416, 53.7253775 ], [ -1.3550749, 53.7255515 ], [ -1.3549985, 53.7255578 ], [ -1.3549894, 53.7255132 ], [ -1.3549632, 53.7253844 ], [ -1.3550416, 53.7253775 ] ] ] ] } },
	{ "type": "Feature", "properties": { "osm_id": null, "centroid": { "latitude": 53.726449, "longitude": -1.351852 }, "osm_way_id": "338030847", "name": "Freddies", "building": "retail", "shop": "clothes", "other_tags": "\"building:levels\"=>\"3\",\"building:material\"=>\"brick\"" }, "geometry": { "type": "MultiPolygon", "coordinates": [ [ [ [ -1.3519115, 53.7264735 ], [ -1.3519513, 53.7265627 ], [ -1.3518506, 53.7265804 ], [ -1.351812, 53.7264918 ], [ -1.3518237, 53.72649 ], [ -1.3517524, 53.7263367 ], [ -1.3518363, 53.7263178 ], [ -1.3519115, 53.7264735 ] ] ] ] } },
	{ "type": "Feature", "properties": { "osm_id": null, "centroid": { "latitude": 53.726047, "longitude": -1.351738 }, "osm_way_id": "338057627", "name": "Jon Barrie", "building": "retail", "shop": "clothes", "other_tags": "\"building:levels\"=>\"2\",\"building:material\"=>\"brick\"" }, "geometry": { "type": "MultiPolygon", "coordinates": [ [ [ [ -1.351731, 53.7259717 ], [ -1.3518034, 53.7261009 ], [ -1.3518087, 53.7261066 ], [ -1.3517368, 53.7261231 ], [ -1.3516663, 53.7259839 ], [ -1.351731, 53.7259717 ] ] ] ] } },
	{ "type": "Feature", "properties": { "osm_id": null, "centroid": { "latitude": 53.726951, "longitude": -1.351497 }, "osm_way_id": "338062888", "name": "Bundle of Joy", "building": "retail", "shop": "clothes", "other_tags": "\"clothes\"=>\"babies\",\"building:levels\"=>\"2\"" }, "geometry": { "type": "MultiPolygon", "coordinates": [ [ [ [ -1.3514523, 53.7269777 ], [ -1.3514366, 53.7269396 ], [ -1.351542, 53.7269244 ], [ -1.3515577, 53.7269624 ], [ -1.3514523, 53.7269777 ] ] ] ] } },
	{ "type": "Feature", "properties": { "osm_id": null, "centroid": { "latitude": 53.727057, "longitude": -1.351486 }, "osm_way_id": "338062899", "name": "Val's Razzle Dazzle-Em", "building": "retail", "shop": "clothes", "other_tags": "\"description\"=>\"\\\"Dancewear & fancy dress\\\"\",\"building:levels\"=>\"2\"" }, "geometry": { "type": "MultiPolygon", "coordinates": [ [ [ [ -1.3513813, 53.7271122 ], [ -1.3513649, 53.7270724 ], [ -1.3514843, 53.7270551 ], [ -1.3514688, 53.7270175 ], [ -1.3515742, 53.7270022 ], [ -1.3516062, 53.7270796 ], [ -1.3513813, 53.7271122 ] ] ] ] } },
	{ "type": "Feature", "properties": { "osm_id": null, "centroid": { "latitude": 53.726319, "longitude": -1.350828 }, "osm_way_id": "338115700", "name": "The Bridal Room", "building": "retail", "shop": "clothes", "other_tags": "\"clothes\"=>\"wedding\",\"building:colour\"=>\"white\",\"building:levels\"=>\"2\"" }, "geometry": { "type": "MultiPolygon", "coordinates": [ [ [ [ -1.3508827, 53.7263498 ], [ -1.3508116, 53.7263617 ], [ -1.3507743, 53.7262877 ], [ -1.3508454, 53.7262759 ], [ -1.3508827, 53.7263498 ] ] ] ] } },
	{ "type": "Feature", "properties": { "osm_id": null, "centroid": { "latitude": 53.726555, "longitude": -1.350954 }, "osm_way_id": "338129572", "name": "Marlene Joyce", "shop": "clothes" }, "geometry": { "type": "MultiPolygon", "coordinates": [ [ [ [ -1.350878, 53.7264814 ], [ -1.3509694, 53.7264685 ], [ -1.3510303, 53.726629 ], [ -1.3509393, 53.7266418 ], [ -1.350878, 53.7264814 ] ] ] ] } },
	{ "type": "Feature", "properties": { "osm_id": null, "centroid": { "latitude": 53.840311, "longitude": -1.636590 }, "osm_way_id": "385904033", "name": "Keith James Menswear", "building": "yes", "shop": "clothes", "other_tags": "\"addr:city\"=>\"Leeds\",\"addr:housenumber\"=>\"124-128\",\"addr:postcode\"=>\"LS18 4AQ\",\"addr:street\"=>\"Town Street\",\"addr:suburb\"=>\"Horsforth\",\"opening_hours\"=>\"Mo-Sa 09:00-17:30; Su Closed\",\"phone\"=>\"+44 113 258 2605\",\"website\"=>\"http:\/\/keithjamesmenswear.com\/\"" }, "geometry": { "type": "MultiPolygon", "coordinates": [ [ [ [ -1.6366094, 53.8403877 ], [ -1.6364686, 53.8403521 ], [ -1.6365611, 53.8402334 ], [ -1.6367113, 53.8402635 ], [ -1.6366094, 53.8403877 ] ] ] ] } },
	{ "type": "Feature", "properties": { "osm_id": null, "centroid": { "latitude": 53.684084, "longitude": -1.499783 }, "osm_way_id": "428450170", "name": "Mabel James", "building": "yes", "shop": "clothes", "other_tags": "\"addr:city\"=>\"Wakefield\",\"addr:housenumber\"=>\"4-6\",\"addr:postcode\"=>\"WF1 3BW\",\"addr:street\"=>\"Cross Street\"" }, "geometry": { "type": "MultiPolygon", "coordinates": [ [ [ [ -1.49977, 53.6839995 ], [ -1.4999266, 53.6840863 ], [ -1.4997963, 53.6841688 ], [ -1.4997611, 53.6841492 ], [ -1.4997045, 53.6841179 ], [ -1.4996396, 53.6840819 ], [ -1.49977, 53.6839995 ] ] ] ] } },
	{ "type": "Feature", "properties": { "osm_id": null, "centroid": { "latitude": 53.683621, "longitude": -1.497489 }, "osm_way_id": "437585390", "name": "My Luna", "building": "yes", "shop": "clothes", "other_tags": "\"addr:city\"=>\"Wakefield\",\"addr:street\"=>\"Westmorland Street\",\"addr:housenumber\"=>\"1\"" }, "geometry": { "type": "MultiPolygon", "coordinates": [ [ [ [ -1.4974489, 53.683581 ], [ -1.4975603, 53.6835993 ], [ -1.4975099, 53.6836603 ], [ -1.4974181, 53.6836436 ], [ -1.4974489, 53.683581 ] ] ] ] } },
	{ "type": "Feature", "properties": { "osm_id": null, "centroid": { "latitude": 53.685470, "longitude": -1.500494 }, "osm_way_id": "443975132", "name": "Prestige Gowns", "building": "yes", "shop": "clothes", "other_tags": "\"addr:city\"=>\"Wakefield\",\"addr:street\"=>\"Northgate\",\"addr:postcode\"=>\"WF1 3BX\",\"addr:housenumber\"=>\"81\"" }, "geometry": { "type": "MultiPolygon", "coordinates": [ [ [ [ -1.500583, 53.6854328 ], [ -1.5006029, 53.6854696 ], [ -1.5004055, 53.6855069 ], [ -1.5003857, 53.68547 ], [ -1.500583, 53.6854328 ] ] ] ] } },
	{ "type": "Feature", "properties": { "osm_id": null, "centroid": { "latitude": 53.685431, "longitude": -1.500473 }, "osm_way_id": "443975134", "name": "Trutex", "building": "yes", "shop": "clothes", "other_tags": "\"addr:city\"=>\"Wakefield\",\"addr:street\"=>\"Northgate\",\"addr:postcode\"=>\"WF1 3BX\",\"addr:housenumber\"=>\"79\"" }, "geometry": { "type": "MultiPolygon", "coordinates": [ [ [ [ -1.5003857, 53.68547 ], [ -1.5003638, 53.6854294 ], [ -1.5005612, 53.6853921 ], [ -1.500583, 53.6854328 ], [ -1.5003857, 53.68547 ] ] ] ] } },
	{ "type": "Feature", "properties": { "osm_id": null, "centroid": { "latitude": 53.683512, "longitude": -1.496404 }, "osm_way_id": "444571949", "name": "Bonmarche", "building": "yes", "shop": "clothes", "other_tags": "\"addr:city\"=>\"Wakefield\",\"addr:street\"=>\"Westmorland Street\",\"addr:postcode\"=>\"WF1 1PN\",\"addr:housename\"=>\"Westmorland House\",\"addr:housenumber\"=>\"21\"" }, "geometry": { "type": "MultiPolygon", "coordinates": [ [ [ [ -1.4963309, 53.6834567 ], [ -1.4964964, 53.6834782 ], [ -1.4964709, 53.683567 ], [ -1.4963107, 53.6835545 ], [ -1.4963309, 53.6834567 ] ] ] ] } },
	{ "type": "Feature", "properties": { "osm_id": null, "centroid": { "latitude": 53.681700, "longitude": -1.493778 }, "osm_way_id": "448331925", "name": "The Uniform Center", "building": "yes", "shop": "clothes", "other_tags": "\"addr:city\"=>\"Wakefield\",\"addr:street\"=>\"Kirkgate\",\"addr:postcode\"=>\"WF1 1TB\",\"addr:housenumber\"=>\"88\"" }, "geometry": { "type": "MultiPolygon", "coordinates": [ [ [ [ -1.4939155, 53.6816426 ], [ -1.4939468, 53.6816959 ], [ -1.4936376, 53.6817567 ], [ -1.4936084, 53.6817031 ], [ -1.4939155, 53.6816426 ] ] ] ] } },
	{ "type": "Feature", "properties": { "osm_id": null, "centroid": { "latitude": 53.789910, "longitude": -1.539501 }, "osm_way_id": "449855864", "name": "TK Maxx", "building": "yes", "shop": "clothes" }, "geometry": { "type": "MultiPolygon", "coordinates": [ [ [ [ -1.5391034, 53.7897255 ], [ -1.5399016, 53.7897269 ], [ -1.5398894, 53.7900942 ], [ -1.5391009, 53.7900923 ], [ -1.5391034, 53.7897255 ] ] ] ] } },
	{ "type": "Feature", "properties": { "osm_id": null, "centroid": { "latitude": 53.686766, "longitude": -1.855127 }, "osm_way_id": "459856060", "name": "Elynor Jacks", "building": "yes", "shop": "clothes", "other_tags": "\"addr:city\"=>\"Halifax\",\"addr:country\"=>\"GB\",\"addr:housenumber\"=>\"62\",\"addr:postcode\"=>\"HX4 8AG\",\"addr:street\"=>\"Saddleworth Road\",\"addr:suburb\"=>\"West Vale\"" }, "geometry": { "type": "MultiPolygon", "coordinates": [ [ [ [ -1.8551176, 53.6868308 ], [ -1.8551919, 53.686821 ], [ -1.8551446, 53.6867018 ], [ -1.8550625, 53.6867039 ], [ -1.8551176, 53.6868308 ] ] ] ] } },
	{ "type": "Feature", "properties": { "osm_id": null, "centroid": { "latitude": 53.680665, "longitude": -1.495744 }, "osm_way_id": "463429324", "name": "Beaniequeen", "building": "yes", "shop": "clothes", "other_tags": "\"addr:street\"=>\"George Street\",\"addr:housenumber\"=>\"27\"" }, "geometry": { "type": "MultiPolygon", "coordinates": [ [ [ [ -1.4956785, 53.6806254 ], [ -1.4957697, 53.6806095 ], [ -1.495809, 53.680699 ], [ -1.4957119, 53.6807196 ], [ -1.4956785, 53.6806254 ] ] ] ] } },
	{ "type": "Feature", "properties": { "osm_id": null, "centroid": { "latitude": 53.720854, "longitude": -1.867344 }, "osm_way_id": "481829915", "name": "Wynsors World Of Shoes", "building": "yes", "shop": "clothes", "other_tags": "\"addr:city\"=>\"Halifax\",\"addr:country\"=>\"GB\",\"addr:postcode\"=>\"HX1 2SH\",\"addr:street\"=>\"King Cross Street\",\"website\"=>\"https:\/\/www.wynsors.com\/\"" }, "geometry": { "type": "MultiPolygon", "coordinates": [ [ [ [ -1.8675373, 53.7209217 ], [ -1.8671683, 53.720975 ], [ -1.8670958, 53.7207992 ], [ -1.8675497, 53.7207337 ], [ -1.8675924, 53.7208371 ], [ -1.8675075, 53.7208494 ], [ -1.8675373, 53.7209217 ] ] ] ] } },
	{ "type": "Feature", "properties": { "osm_id": null, "centroid": { "latitude": 53.808070, "longitude": -1.460377 }, "osm_way_id": "546203739", "name": "Sandroy", "building": "yes", "shop": "clothes" }, "geometry": { "type": "MultiPolygon", "coordinates": [ [ [ [ -1.4602868, 53.8081129 ], [ -1.4604673, 53.8081134 ], [ -1.4604682, 53.8080257 ], [ -1.4602869, 53.8080257 ], [ -1.4602868, 53.8081129 ] ] ] ] } },
	{ "type": "Feature", "properties": { "osm_id": null, "centroid": { "latitude": 53.746070, "longitude": -1.645145 }, "osm_way_id": "551074776", "name": "River Island", "building": "yes", "shop": "clothes" }, "geometry": { "type": "MultiPolygon", "coordinates": [ [ [ [ -1.6451845, 53.7458164 ], [ -1.644973, 53.7458365 ], [ -1.6451053, 53.7463232 ], [ -1.6453167, 53.7463031 ], [ -1.6451845, 53.7458164 ] ] ] ] } },