{
"type": "FeatureCollection",
"crs": { "type": "name", "properties": { "name": "urn:ogc:def:crs:OGC:1.3:CRS84" } },
"features": [
	{ "type": "Feature", "properties": { "osm_id": "320998140", "name": "CC Hair and Beauty", "other_tags": "\"shop\"=>\"cosmetics\"" }, "geometry": { "type": "Point", "coordinates": [ -1.5392695, 53.796631 ] } },
	{ "type": "Feature", "properties": { "osm_id": "333467298", "name": "The Body Shop", "other_tags": "\"addr:city\"=>\"Leeds\",\"addr:housenumber\"=>\"64\",\"addr:postcode\"=>\"LS1 6LH\",\"addr:street\"=>\"Briggate\",\"brand\"=>\"The Body Shop\",\"brand:wikidata\"=>\"Q837851\",\"brand:wikipedia\"=>\"en:The Body Shop\",\"shop\"=>\"cosmetics\"" }, "geometry": { "type": "Point", "coordinates": [ -1.5424439, 53.7978903 ] } },
	{ "type": "Feature", "properties": { "osm_id": "4411803743", "name": "Made Up", "other_tags": "\"shop\"=>\"cosmetics\",\"addr:street\"=>\"Westmorland Street\",\"addr:postcode\"=>\"WF1 1PJ\",\"addr:housenumber\"=>\"18a\"" }, "geometry": { "type": "Point", "coordinates": [ -1.4966035, 53.6832426 ] } },
	{ "type": "Feature", "properties": { "osm_id": "4489200798", "name": "Scentiments", "other_tags": "\"shop\"=>\"cosmetics\"" }, "geometry": { "type": "Point", "coordinates": [ -1.4504143, 53.8064394 ] } },
	{ "type": "Feature", "properties": { "osm_id": "4951726043", "name": "Bodycare", "other_tags": "\"shop\"=>\"cosmetics\"" }, "geometry": { "type": "Point", "coordinates": [ -1.7805993, 53.6443239 ] } },
	{ "type": "Feature", "properties": { "osm_id": "4951726044", "name": "Superdrug", "other_tags": "\"shop\"=>\"cosmetics\"" }, "geometry": { "type": "Point", "coordinates": [ -1.7811841, 53.6440154 ] } },
	{ "type": "Feature", "properties": { "osm_id": "5071335019", "name": "Body Shop", "other_tags": "\"addr:city\"=>\"Huddersfield\",\"addr:postcode\"=>\"HD1 2QB\",\"addr:street\"=>\"Kingsgate Centre\",\"addr:unit\"=>\"3\",\"shop\"=>\"cosmetics\"" }, "geometry": { "type": "Point", "coordinates": [ -1.7799954, 53.6460331 ] } },
	{ "type": "Feature", "properties": { "osm_id": "5452280965", "name": "Body Shop", "other_tags": "\"shop\"=>\"cosmetics\"" }, "geometry": { "type": "Point", "coordinates": [ -1.8580788, 53.7233928 ] } },
	{ "type": "Feature", "properties": { "osm_id": "5569969831", "name": "Savers", "other_tags": "\"addr:city\"=>\"Halifax\",\"addr:country\"=>\"GB\",\"addr:housename\"=>\"Westgate House\",\"addr:housenumber\"=>\"31\",\"addr:postcode\"=>\"HX1 1PD\",\"addr:street\"=>\"Market Street\",\"fhrs:id\"=>\"347937\",\"shop\"=>\"cosmetics\"" }, "geometry": { "type": "Point", "coordinates": [ -1.8584248, 53.7222152 ] } },
	{ "type": "Feature", "properties": { "osm_id": "5609665036", "name": "Superdrug", "other_tags": "\"addr:housenumber\"=>\"17-19\",\"addr:postcode\"=>\"WF9 2RN\",\"addr:street\"=>\"Barnsley Road\",\"addr:suburb\"=>\"South Elmsall\",\"addr:town\"=>\"Pontefract\",\"fhrs:id\"=>\"313558\",\"shop\"=>\"cosmetics\"" }, "geometry": { "type": "Point", "coordinates": [ -1.2891313, 53.5946762 ] } },
	{ "type": "Feature", "properties": { "osm_id": "5648164603", "name": "Bodycare", "other_tags": "\"addr:city\"=>\"Leeds\",\"addr:housename\"=>\"St Johns Centre\",\"addr:housenumber\"=>\"110-118\",\"addr:postcode\"=>\"LS2 8LQ\",\"addr:street\"=>\"Albion Street\",\"level\"=>\"0\",\"shop\"=>\"cosmetics\"" }, "geometry": { "type": "Point", "coordinates": [ -1.5437581, 53.8002445 ] } },
	{ "type": "Feature", "properties": { "osm_id": "5754417061", "name": "Bodycare", "other_tags": "\"addr:city\"=>\"Wakefield\",\"addr:postcode\"=>\"WF1 1YB\",\"addr:street\"=>\"Bishopgate Walk The Ridings Centre\",\"addr:unit\"=>\"51-52\",\"level\"=>\"1\",\"shop\"=>\"cosmetics\"" }, "geometry": { "type": "Point", "coordinates": [ -1.4974505, 53.6818963 ] } },
	{ "type": "Feature", "properties": { "osm_id": "5941346421", "name": "Space NK", "other_tags": "\"addr:city\"=>\"Leeds\",\"addr:housenumber\"=>\"16-18\",\"addr:postcode\"=>\"LS1 6BA\",\"addr:street\"=>\"Queen Victoria Street\",\"shop\"=>\"cosmetics\"" }, "geometry": { "type": "Point", "coordinates": [ -1.5413075, 53.7982583 ] } },
	{ "type": "Feature", "properties": { "osm_id": "5981573967", "name": "Maya's Hair & Cosmetics", "other_tags": "\"shop\"=>\"cosmetics\"" }, "geometry": { "type": "Point", "coordinates": [ -1.5393339, 53.7974424 ] } },
	{ "type": "Feature", "properties": { "osm_id": "6022850186", "name": "Sally", "other_tags": "\"addr:city\"=>\"Leeds\",\"addr:housenumber\"=>\"77\",\"addr:postcode\"=>\"LS1 5AA\",\"addr:street\"=>\"Albion Street\",\"shop\"=>\"cosmetics\"" }, "geometry": { "type": "Point", "coordinates": [ -1.5452823, 53.7983467 ] } },
	{ "type": "Feature", "properties": { "osm_id": "6022850275", "name": "The Look", "other_tags": "\"shop\"=>\"cosmetics\"" }, "geometry": { "type": "Point", "coordinates": [ -1.5387518, 53.7972548 ] } },
	{ "type": "Feature", "properties": { "osm_id": "6025306259", "name": "Savers Health And Beauty", "other_tags": "\"addr:city\"=>\"Leeds\",\"addr:postcode\"=>\"LS27 8DW\",\"addr:street\"=>\"Queen Street\",\"addr:suburb\"=>\"Morley\",\"fhrs:id\"=>\"467315\",\"shop\"=>\"cosmetics\"" }, "geometry": { "type": "Point", "coordinates": [ -1.6010883, 53.7454735 ] } },
	{ "type": "Feature", "properties": { "osm_id": "6052531556", "name": "The Body Shop", "other_tags": "\"brand\"=>\"The Body Shop\",\"brand:wikidata\"=>\"Q837851\",\"brand:wikipedia\"=>\"en:The Body Shop\",\"level\"=>\"0\",\"shop\"=>\"cosmetics\"" }, "geometry": { "type": "Point", "coordinates": [ -1.5744209, 53.7576793 ] } },
	{ "type": "Feature", "properties": { "osm_id": "6052531573", "name": "Lush", "other_tags": "\"brand\"=>\"Lush\",\"brand:wikidata\"=>\"Q1585448\",\"brand:wikipedia\"=>\"en:Lush (company)\",\"level\"=>\"0\",\"shop\"=>\"cosmetics\"" }, "geometry": { "type": "Point", "coordinates": [ -1.5739256, 53.7581405 ] } },
	{ "type": "Feature", "properties": { "osm_id": "6436610922", "name": "Body Shop", "other_tags": "\"addr:city\"=>\"Leeds\",\"addr:housenumber\"=>\"Unit 12a\",\"addr:postcode\"=>\"LS1 6LH\",\"addr:street\"=>\"Leeds City Station\",\"layer\"=>\"1\",\"opening_hours\"=>\"Mo-Fr 07:00-19:30; Sa 08:00-19:30; Su 10:30-17:30\",\"operator\"=>\"The Body Shop International Limited\",\"phone\"=>\"+44 113 243 2926\",\"shop\"=>\"cosmetics\"" }, "geometry": { "type": "Point", "coordinates": [ -1.5472845, 53.7948464 ] } },
	{ "type": "Feature", "properties": { "osm_id": "6600874671", "name": "Bodycare", "other_tags": "\"addr:housename\"=>\"Carlton Lanes Shopping Centre\",\"addr:postcode\"=>\"WF10 1AD\",\"addr:street\"=>\"Carlton Street\",\"addr:town\"=>\"Castleford\",\"addr:unit\"=>\"29\",\"shop\"=>\"cosmetics\"" }, "geometry": { "type": "Point", "coordinates": [ -1.3508439, 53.7259565 ] } },
	{ "type": "Feature", "properties": { "osm_id": "6606842411", "name": "Bodycare", "other_tags": "\"addr:housenumber\"=>\"20-22\",\"addr:postcode\"=>\"WF8 1AT\",\"addr:street\"=>\"Market Place\",\"addr:town\"=>\"Pontefract\",\"shop\"=>\"cosmetics\"" }, "geometry": { "type": "Point", "coordinates": [ -1.3110718, 53.6915824 ] } },
	{ "type": "Feature", "properties": { "osm_id": "6836878936", "name": "Bath House", "other_tags": "\"shop\"=>\"cosmetics\"" }, "geometry": { "type": "Point", "coordinates": [ -1.8239152, 53.9254246 ] } },
	{ "type": "Feature", "properties": { "osm_id": null, "centroid": { "latitude": 53.683942, "longitude": -1.496326 }, "osm_way_id": "331246150", "name": "Lush", "building": "yes", "shop": "cosmetics", "other_tags": "\"brand\"=>\"Lush\",\"brand:wikidata\"=>\"Q1585448\",\"brand:wikipedia\"=>\"en:Lush (company)\",\"operator\"=>\"Lush\"" }, "geometry": { "type": "MultiPolygon", "coordinates": [ [ [ [ -1.496574, 53.6839992 ], [ -1.4960631, 53.6839611 ], [ -1.4960772, 53.6838847 ], [ -1.4965886, 53.6839276 ], [ -1.496574, 53.6839992 ] ] ] ] } },
	{ "type": "Feature", "properties": { "osm_id": null, "centroid": { "latitude": 53.684420, "longitude": -1.496088 }, "osm_way_id": "331249627", "name": "The Body Shop", "building": "yes", "shop": "cosmetics", "other_tags": "\"brand\"=>\"The Body Shop\",\"brand:wikidata\"=>\"Q837851\",\"brand:wikipedia\"=>\"en:The Body Shop\",\"operator\"=>\"The Body Shop\"" }, "geometry": { "type": "MultiPolygon", "coordinates": [ [ [ [ -1.4962025, 53.6843952 ], [ -1.4961892, 53.6844593 ], [ -1.4959741, 53.6844433 ], [ -1.4959859, 53.6843797 ], [ -1.4962025, 53.6843952 ] ] ] ] } },
	{ "type": "Feature", "properties": { "osm_id": null, "centroid": { "latitude": 53.569364, "longitude": -1.788077 }, "osm_way_id": "334994599", "name": "The Cosmetic Boutique", "building": "retail", "shop": "cosmetics", "other_tags": "\"building:levels\"=>\"1\",\"building:material\"=>\"stone\"" }, "geometry": { "type": "MultiPolygon", "coordinates": [ [ [ [ -1.7881111, 53.5693726 ], [ -1.7880582, 53.5693848 ], [ -1.7880437, 53.5693564 ], [ -1.7880878, 53.5693433 ], [ -1.7881111, 53.5693726 ] ] ] ] } }
]
}
