{
"type": "FeatureCollection",
"crs": { "type": "name", "properties": { "name": "urn:ogc:def:crs:OGC:1.3:CRS84" } },
"features": [
	{ "type": "Feature", "properties": { "osm_id": "302049495", "name": "Burton", "other_tags": "\"shop\"=>\"clothes\"" }, "geometry": { "type": "Point", "coordinates": [ -1.6445187, 53.7459048 ] } },
	{ "type": "Feature", "properties": { "osm_id": "302049496", "name": "Dorothy Perkins", "other_tags": "\"shop\"=>\"clothes\"" }, "geometry": { "type": "Point", "coordinates": [ -1.64436, 53.7459241 ] } },
	{ "type": "Feature", "properties": { "osm_id": "302049497", "name": "Evans", "other_tags": "\"shop\"=>\"clothes\"" }, "geometry": { "type": "Point", "coordinates": [ -1.6444685, 53.7459108 ] } },
	{ "type": "Feature", "properties": { "osm_id": "302049498", "name": "Wallis", "other_tags": "\"shop\"=>\"clothes\"" }, "geometry": { "type": "Point", "coordinates": [ -1.644414, 53.7459172 ] } },
	{ "type": "Feature", "properties": { "osm_id": "313247813", "name": "Bruno Venezia", "other_tags": "\"shop\"=>\"clothes\"" }, "geometry": { "type": "Point", "coordinates": [ -1.6098804, 53.8031018 ] } },
	{ "type": "Feature", "properties": { "osm_id": "313247814", "name": "Helen Sykes", "other_tags": "\"shop\"=>\"clothes\"" }, "geometry": { "type": "Point", "coordinates": [ -1.6097039, 53.8030343 ] } },
	{ "type": "Feature", "properties": { "osm_id": "314445728", "name": "Primark", "other_tags": "\"shop\"=>\"clothes\"" }, "geometry": { "type": "Point", "coordinates": [ -1.7836815, 53.6439795 ] } },
	{ "type": "Feature", "properties": { "osm_id": "330089351", "name": "Baby's Need's", "other_tags": "\"shop\"=>\"clothes\"" }, "geometry": { "type": "Point", "coordinates": [ -1.5895164, 53.7970805 ] } },
	{ "type": "Feature", "properties": { "osm_id": "333467301", "name": "Michael Kors", "other_tags": "\"addr:city\"=>\"Leeds\",\"addr:housenumber\"=>\"112-114\",\"addr:postcode\"=>\"LS1 6BG\",\"addr:street\"=>\"Briggate\",\"brand\"=>\"Michael Kors\",\"brand:wikidata\"=>\"Q19572998\",\"brand:wikipedia\"=>\"en:Capri Holdings\",\"shop\"=>\"clothes\"" }, "geometry": { "type": "Point", "coordinates": [ -1.5419633, 53.7978638 ] } },
	{ "type": "Feature", "properties": { "osm_id": "333467317", "name": "Fat Face", "other_tags": "\"addr:city\"=>\"Leeds\",\"addr:housenumber\"=>\"69-70\",\"addr:postcode\"=>\"LS1 6LH\",\"addr:street\"=>\"Briggate\",\"brand\"=>\"Fat Face\",\"brand:wikidata\"=>\"Q5437186\",\"brand:wikipedia\"=>\"en:Fat Face\",\"shop\"=>\"clothes\",\"website\"=>\"https:\/\/www.fatface.com\/\"" }, "geometry": { "type": "Point", "coordinates": [ -1.5423938, 53.7981117 ] } },
	{ "type": "Feature", "properties": { "osm_id": "333799006", "name": "Mulberry", "other_tags": "\"addr:city\"=>\"Leeds\",\"addr:housenumber\"=>\"2\",\"addr:postcode\"=>\"LS1 6BE\",\"addr:street\"=>\"Queen Victoria Street\",\"old_name\"=>\"Karen Millen\",\"shop\"=>\"clothes\",\"wheelchair\"=>\"no\"" }, "geometry": { "type": "Point", "coordinates": [ -1.5419022, 53.7983256 ] } },
	{ "type": "Feature", "properties": { "osm_id": "333799013", "name": "Louis Vuitton", "other_tags": "\"addr:city\"=>\"Leeds\",\"addr:housenumber\"=>\"98-99\",\"addr:postcode\"=>\"LS1 6NP\",\"addr:street\"=>\"Briggate\",\"brand\"=>\"Louis Vuitton\",\"brand:wikidata\"=>\"Q191485\",\"brand:wikipedia\"=>\"en:Louis Vuitton\",\"shop\"=>\"clothes\"" }, "geometry": { "type": "Point", "coordinates": [ -1.5418889, 53.7985098 ] } },
	{ "type": "Feature", "properties": { "osm_id": "333799043", "name": "Matalan", "other_tags": "\"addr:city\"=>\"Leeds\",\"addr:housename\"=>\"The Core\",\"addr:postcode\"=>\"LS1 6JD\",\"addr:street\"=>\"The Headrow\",\"addr:unit\"=>\"A110-112\",\"brand\"=>\"Matalan\",\"brand:wikidata\"=>\"Q12061509\",\"brand:wikipedia\"=>\"en:Matalan\",\"shop\"=>\"clothes\"" }, "geometry": { "type": "Point", "coordinates": [ -1.5435792, 53.7991168 ] } },
	{ "type": "Feature", "properties": { "osm_id": "352872460", "name": "Jo Brand Junior", "other_tags": "\"shop\"=>\"clothes\"" }, "geometry": { "type": "Point", "coordinates": [ -1.5667801, 53.8290653 ] } },
	{ "type": "Feature", "properties": { "osm_id": "385014727", "name": "Matalan", "other_tags": "\"shop\"=>\"clothes\"" }, "geometry": { "type": "Point", "coordinates": [ -1.6252556, 53.6908846 ] } },
	{ "type": "Feature", "properties": { "osm_id": "535954699", "name": "Muhsin's", "other_tags": "\"shop\"=>\"clothes\"" }, "geometry": { "type": "Point", "coordinates": [ -1.6651246, 53.6785561 ] } },
	{ "type": "Feature", "properties": { "osm_id": "537113084", "name": "Cashmere Factory Outlet", "other_tags": "\"shop\"=>\"clothes\"" }, "geometry": { "type": "Point", "coordinates": [ -1.6925252, 53.6738631 ] } },
	{ "type": "Feature", "properties": { "osm_id": "540201164", "name": "Time & Time Again", "other_tags": "\"addr:city\"=>\"Ilkley\",\"addr:country\"=>\"GB\",\"addr:housenumber\"=>\"1\",\"addr:postcode\"=>\"LS29 9DR\",\"addr:street\"=>\"Church Street\",\"description\"=>\"Formal wear; Highland wear; clothes hire; men\",\"shop\"=>\"clothes\"" }, "geometry": { "type": "Point", "coordinates": [ -1.8236886, 53.9261128 ] } },
	{ "type": "Feature", "properties": { "osm_id": "662441113", "name": "United Footwear", "other_tags": "\"shop\"=>\"clothes\"" }, "geometry": { "type": "Point", "coordinates": [ -1.7279003, 53.7752053 ] } },
	{ "type": "Feature", "properties": { "osm_id": "662441219", "name": "St Vincent's", "other_tags": "\"shop\"=>\"clothes\"" }, "geometry": { "type": "Point", "coordinates": [ -1.7215148, 53.7711915 ] } },
	{ "type": "Feature", "properties": { "osm_id": "662441243", "name": "Step 2", "other_tags": "\"shop\"=>\"clothes\"" }, "geometry": { "type": "Point", "coordinates": [ -1.7215998, 53.7714484 ] } },
	{ "type": "Feature", "properties": { "osm_id": "687080933", "name": "Diva Bridal", "other_tags": "\"shop\"=>\"clothes\"" }, "geometry": { "type": "Point", "coordinates": [ -1.7160135, 53.7696628 ] } },
	{ "type": "Feature", "properties": { "osm_id": "687081050", "other_tags": "\"shop\"=>\"clothes\"" }, "geometry": { "type": "Point", "coordinates": [ -1.7123148, 53.7683463 ] } },
	{ "type": "Feature", "properties": { "osm_id": "888253998", "name": "Zara", "other_tags": "\"addr:city\"=>\"Leeds\",\"addr:housenumber\"=>\"129-132\",\"addr:postcode\"=>\"LS1 6BR\",\"addr:street\"=>\"Briggate\",\"brand\"=>\"Zara\",\"brand:wikidata\"=>\"Q147662\",\"brand:wikipedia\"=>\"en:Zara (retailer)\",\"shop\"=>\"clothes\"" }, "geometry": { "type": "Point", "coordinates": [ -1.5421279, 53.7971096 ] } },
	{ "type": "Feature", "properties": { "osm_id": "966181120", "name": "Ashy's Collection", "other_tags": "\"shop\"=>\"clothes\"" }, "geometry": { "type": "Point", "coordinates": [ -1.666767, 53.6782914 ] } },
	{ "type": "Feature", "properties": { "osm_id": "1039830673", "name": "Topman", "other_tags": "\"shop\"=>\"clothes\",\"indoor\"=>\"yes\"" }, "geometry": { "type": "Point", "coordinates": [ -1.7830802, 53.6446339 ] } },
	{ "type": "Feature", "properties": { "osm_id": "1055328716", "name": "Pronuptia", "other_tags": "\"shop\"=>\"clothes\"" }, "geometry": { "type": "Point", "coordinates": [ -1.7798098, 53.6455446 ] } },
	{ "type": "Feature", "properties": { "osm_id": "1137929818", "name": "Natasha School Wear", "other_tags": "\"shop\"=>\"clothes\"" }, "geometry": { "type": "Point", "coordinates": [ -1.6297191, 53.6933504 ] } },
	{ "type": "Feature", "properties": { "osm_id": "1137965475", "name": "Freedom", "other_tags": "\"shop\"=>\"clothes\",\"addr:housenumber\"=>\"29\"" }, "geometry": { "type": "Point", "coordinates": [ -1.6288401, 53.6929089 ] } },
	{ "type": "Feature", "properties": { "osm_id": "1139204123", "name": "Ansari's Variety House", "other_tags": "\"phone\"=>\"+44 7733 758094\",\"shop\"=>\"clothes\"" }, "geometry": { "type": "Point", "coordinates": [ -1.6278506, 53.6925894 ] } },
	{ "type": "Feature", "properties": { "osm_id": "1139236299", "name": "Kids Connection", "other_tags": "\"shop\"=>\"clothes\"" }, "geometry": { "type": "Point", "coordinates": [ -1.6288299, 53.6913753 ] } },
	{ "type": "Feature", "properties": { "osm_id": "1159765180", "other_tags": "\"addr:housename\"=>\"Junction 32 Outlet Shopping Village\",\"addr:postcode\"=>\"WF10 4FR\",\"addr:town\"=>\"Castleford\",\"addr:unit\"=>\"41\",\"shop\"=>\"clothes\"" }, "geometry": { "type": "Point", "coordinates": [ -1.3373868, 53.7126448 ] } },
	{ "type": "Feature", "properties": { "osm_id": "1159765193", "name": "Skops Menswear", "other_tags": "\"shop\"=>\"clothes\"" }, "geometry": { "type": "Point", "coordinates": [ -1.3405477, 53.7125708 ] } },
	{ "type": "Feature", "properties": { "osm_id": "1159765207", "name": "Double Two", "other_tags": "\"addr:housename\"=>\"Junction 32 Outlet Shopping Village\",\"addr:postcode\"=>\"WF10 4FR\",\"addr:town\"=>\"Castleford\",\"addr:unit\"=>\"38\",\"shop\"=>\"clothes\"" }, "geometry": { "type": "Point", "coordinates": [ -1.3377721, 53.712844 ] } },
	{ "type": "Feature", "properties": { "osm_id": "1159765235", "name": "Suits You", "other_tags": "\"shop\"=>\"clothes\"" }, "geometry": { "type": "Point", "coordinates": [ -1.3375083, 53.7127142 ] } },
	{ "type": "Feature", "properties": { "osm_id": "1534826943", "name": "Stitch & Style", "other_tags": "\"shop\"=>\"clothes\",\"addr:street\"=>\"Church Street\",\"addr:housenumber\"=>\"133\"" }, "geometry": { "type": "Point", "coordinates": [ -1.8101901, 53.6430254 ] } },
	{ "type": "Feature", "properties": { "osm_id": "1535922179", "name": "Trendz Clothing", "other_tags": "\"addr:city\"=>\"Huddersfield\",\"addr:country\"=>\"GB\",\"addr:postcode\"=>\"HD1 4UL\",\"addr:street\"=>\"Church Street\",\"addr:suburb\"=>\"Paddock\",\"shop\"=>\"clothes\"" }, "geometry": { "type": "Point", "coordinates": [ -1.8127963, 53.6435163 ] } },
	{ "type": "Feature", "properties": { "osm_id": "1562986913", "other_tags": "\"shop\"=>\"clothes\"" }, "geometry": { "type": "Point", "coordinates": [ -1.5372558, 53.7974437 ] } },
	{ "type": "Feature", "properties": { "osm_id": "1650942199", "name": "Abbey Wedding Warehouse", "other_tags": "\"shop\"=>\"clothes\",\"clothes\"=>\"bridal\"" }, "geometry": { "type": "Point", "coordinates": [ -1.6025998, 53.8157179 ] } },
	{ "type": "Feature", "properties": { "osm_id": "1959492746", "name": "Jannat Boutique", "other_tags": "\"shop\"=>\"clothes\"" }, "geometry": { "type": "Point", "coordinates": [ -1.9014119, 53.8702328 ] } },
	{ "type": "Feature", "properties": { "osm_id": "1959492752", "name": "Maria", "other_tags": "\"shop\"=>\"clothes\"" }, "geometry": { "type": "Point", "coordinates": [ -1.9017339, 53.8703047 ] } },
	{ "type": "Feature", "properties": { "osm_id": "1959492756", "name": "Mughal Boutique", "other_tags": "\"shop\"=>\"clothes\",\"wheelchair\"=>\"limited\"" }, "geometry": { "type": "Point", "coordinates": [ -1.9001762, 53.8699808 ] } },
	{ "type": "Feature", "properties": { "osm_id": "2091013189", "name": "Hugo Boss", "other_tags": "\"addr:city\"=>\"Leeds\",\"addr:housenumber\"=>\"71-75\",\"addr:postcode\"=>\"LS1 6QA\",\"addr:street\"=>\"Vicar Lane\",\"brand\"=>\"Hugo Boss\",\"brand:wikidata\"=>\"Q491627\",\"brand:wikipedia\"=>\"en:Hugo Boss\",\"old_name\"=>\"The Dutchess\",\"shop\"=>\"clothes\",\"short_name\"=>\"Boss\"" }, "geometry": { "type": "Point", "coordinates": [ -1.5401437, 53.7984455 ] } },
	{ "type": "Feature", "properties": { "osm_id": "2091013202", "name": "White Stuff", "other_tags": "\"addr:city\"=>\"Leeds\",\"addr:housenumber\"=>\"60-64\",\"addr:postcode\"=>\"LS1 7JH\",\"addr:street\"=>\"Vicar Lane\",\"brand\"=>\"White Stuff\",\"brand:wikidata\"=>\"Q7995442\",\"brand:wikipedia\"=>\"en:White Stuff Clothing\",\"shop\"=>\"clothes\"" }, "geometry": { "type": "Point", "coordinates": [ -1.5398736, 53.7980251 ] } },
	{ "type": "Feature", "properties": { "osm_id": "2098303575", "name": "Flannels", "other_tags": "\"addr:city\"=>\"Leeds\",\"addr:housenumber\"=>\"68-78\",\"addr:postcode\"=>\"LS1 7JH\",\"addr:street\"=>\"Vicar Lane\",\"shop\"=>\"clothes\"" }, "geometry": { "type": "Point", "coordinates": [ -1.5397253, 53.7983267 ] } },
	{ "type": "Feature", "properties": { "osm_id": "2125610501", "name": "Best", "other_tags": "\"addr:city\"=>\"Leeds\",\"addr:housenumber\"=>\"22-24\",\"addr:street\"=>\"New Market Street\",\"shop\"=>\"clothes\"" }, "geometry": { "type": "Point", "coordinates": [ -1.5410651, 53.7962165 ] } },
	{ "type": "Feature", "properties": { "osm_id": "2125610581", "name": "Ryan Vintage", "other_tags": "\"shop\"=>\"clothes\"" }, "geometry": { "type": "Point", "coordinates": [ -1.5415149, 53.7961008 ] } },
	{ "type": "Feature", "properties": { "osm_id": "2128107736", "name": "Rohan", "other_tags": "\"addr:city\"=>\"Leeds\",\"addr:housenumber\"=>\"10-12\",\"addr:postcode\"=>\"LS1 6LQ\",\"addr:street\"=>\"Thornton's Arcade\",\"shop\"=>\"clothes\"" }, "geometry": { "type": "Point", "coordinates": [ -1.5426306, 53.7987243 ] } },
	{ "type": "Feature", "properties": { "osm_id": "2128107741", "name": "The Hip Store", "other_tags": "\"addr:city\"=>\"Leeds\",\"addr:housenumber\"=>\"49-51\",\"addr:postcode\"=>\"LS1 6DS\",\"addr:street\"=>\"Vicar Lane\",\"phone\"=>\"+44 113 246 0347\",\"shop\"=>\"clothes\",\"website\"=>\"https:\/\/www.thehipstore.co.uk\/\"" }, "geometry": { "type": "Point", "coordinates": [ -1.5405615, 53.7975362 ] } },
	{ "type": "Feature", "properties": { "osm_id": "2135315777", "name": "Topshop", "other_tags": "\"addr:city\"=>\"Leeds\",\"addr:housenumber\"=>\"44\",\"addr:postcode\"=>\"LS1 6HD\",\"addr:street\"=>\"Briggate\",\"brand\"=>\"Topshop\",\"brand:wikidata\"=>\"Q1893576\",\"brand:wikipedia\"=>\"en:Topshop\",\"clothes\"=>\"women\",\"shop\"=>\"clothes\"" }, "geometry": { "type": "Point", "coordinates": [ -1.5427573, 53.7965528 ] } },
	{ "type": "Feature", "properties": { "osm_id": "2140301912", "name": "Bravissimo", "other_tags": "\"addr:city\"=>\"Leeds\",\"addr:housenumber\"=>\"6-8\",\"addr:postcode\"=>\"LS1 6AZ\",\"addr:street\"=>\"Cross Arcade\",\"shop\"=>\"clothes\"" }, "geometry": { "type": "Point", "coordinates": [ -1.5409436, 53.7979392 ] } },
	{ "type": "Feature", "properties": { "osm_id": "2140301913", "name": "Paul Smith", "other_tags": "\"addr:city\"=>\"Leeds\",\"addr:housenumber\"=>\"17-19\",\"addr:postcode\"=>\"LS1 6AX\",\"addr:street\"=>\"King Edward Street\",\"shop\"=>\"clothes\"" }, "geometry": { "type": "Point", "coordinates": [ -1.5409465, 53.7977781 ] } },
	{ "type": "Feature", "properties": { "osm_id": "2140301914", "name": "Ted Baker", "other_tags": "\"addr:city\"=>\"Leeds\",\"addr:housenumber\"=>\"23-25\",\"addr:postcode\"=>\"LS1 6BD\",\"addr:street\"=>\"Queen Victoria Street\",\"brand\"=>\"Ted Baker\",\"brand:wikidata\"=>\"Q2913458\",\"brand:wikipedia\"=>\"en:Ted Baker\",\"shop\"=>\"clothes\"" }, "geometry": { "type": "Point", "coordinates": [ -1.5408482, 53.7980331 ] } },
	{ "type": "Feature", "properties": { "osm_id": "2142553146", "name": "Blue Rinse", "other_tags": "\"shop\"=>\"clothes\",\"addr:city\"=>\"Leeds\",\"addr:street\"=>\"Call Lane\"" }, "geometry": { "type": "Point", "coordinates": [ -1.5399711, 53.7962754 ] } },
	{ "type": "Feature", "properties": { "osm_id": "2144729430", "name": "New Look", "other_tags": "\"brand\"=>\"New Look\",\"brand:wikidata\"=>\"Q12063852\",\"brand:wikipedia\"=>\"en:New Look (company)\",\"shop\"=>\"clothes\"" }, "geometry": { "type": "Point", "coordinates": [ -1.5442429, 53.7992206 ] } },
	{ "type": "Feature", "properties": { "osm_id": "2150181164", "name": "Butterflies", "other_tags": "\"shop\"=>\"clothes\"" }, "geometry": { "type": "Point", "coordinates": [ -1.4997076, 53.6842295 ] } },
	{ "type": "Feature", "properties": { "osm_id": "2195805631", "name": "Mothercare", "other_tags": "\"shop\"=>\"clothes\"" }, "geometry": { "type": "Point", "coordinates": [ -1.75351, 53.7989164 ] } },
	{ "type": "Feature", "properties": { "osm_id": "2195805657", "other_tags": "\"shop\"=>\"clothes\"" }, "geometry": { "type": "Point", "coordinates": [ -1.7577426, 53.796464 ] } },
	{ "type": "Feature", "properties": { "osm_id": "2212648134", "name": "Superdry", "other_tags": "\"brand\"=>\"Superdry\",\"brand:wikidata\"=>\"Q1684445\",\"brand:wikipedia\"=>\"en:Superdry\",\"shop\"=>\"clothes\"" }, "geometry": { "type": "Point", "coordinates": [ -1.544969, 53.7964543 ] } },
	{ "type": "Feature", "properties": { "osm_id": "2212648187", "name": "River Island", "other_tags": "\"addr:city\"=>\"Leeds\",\"addr:housenumber\"=>\"36\",\"addr:postcode\"=>\"LS1 6HD\",\"addr:street\"=>\"Briggate\",\"brand\"=>\"River Island\",\"brand:wikidata\"=>\"Q2670328\",\"brand:wikipedia\"=>\"en:River Island\",\"shop\"=>\"clothes\"" }, "geometry": { "type": "Point", "coordinates": [ -1.542783, 53.7963656 ] } },
	{ "type": "Feature", "properties": { "osm_id": "2212648198", "name": "Urban Outfitters", "other_tags": "\"brand\"=>\"Urban Outfitters\",\"brand:wikidata\"=>\"Q3552193\",\"brand:wikipedia\"=>\"en:Urban Outfitters\",\"shop\"=>\"clothes\"" }, "geometry": { "type": "Point", "coordinates": [ -1.5440999, 53.7960567 ] } },
	{ "type": "Feature", "properties": { "osm_id": "2212678965", "name": "New Look", "other_tags": "\"brand\"=>\"New Look\",\"brand:wikidata\"=>\"Q12063852\",\"brand:wikipedia\"=>\"en:New Look (company)\",\"shop\"=>\"clothes\"" }, "geometry": { "type": "Point", "coordinates": [ -1.5453143, 53.7960141 ] } },
	{ "type": "Feature", "properties": { "osm_id": "2212678966", "name": "Dorothy Perkins Burton", "other_tags": "\"shop\"=>\"clothes\"" }, "geometry": { "type": "Point", "coordinates": [ -1.5442039, 53.7970565 ] } },
	{ "type": "Feature", "properties": { "osm_id": "2212678969", "name": "H&M", "other_tags": "\"brand\"=>\"H&M\",\"brand:wikidata\"=>\"Q188326\",\"brand:wikipedia\"=>\"en:H&M\",\"shop\"=>\"clothes\"" }, "geometry": { "type": "Point", "coordinates": [ -1.545545, 53.7966161 ] } },
	{ "type": "Feature", "properties": { "osm_id": "2212678973", "name": "Next", "other_tags": "\"brand\"=>\"Next\",\"brand:wikidata\"=>\"Q246655\",\"brand:wikipedia\"=>\"en:Next plc\",\"shop\"=>\"clothes\"" }, "geometry": { "type": "Point", "coordinates": [ -1.5443166, 53.7964133 ] } },
	{ "type": "Feature", "properties": { "osm_id": "2213576305", "name": "Hollister", "other_tags": "\"brand\"=>\"Hollister\",\"brand:wikidata\"=>\"Q1257477\",\"brand:wikipedia\"=>\"en:Hollister Co.\",\"official_name\"=>\"Hollister Co.\",\"shop\"=>\"clothes\"" }, "geometry": { "type": "Point", "coordinates": [ -1.5440964, 53.7966462 ] } },
	{ "type": "Feature", "properties": { "osm_id": "2353394451", "other_tags": "\"shop\"=>\"clothes\"" }, "geometry": { "type": "Point", "coordinates": [ -1.6888021, 53.9062092 ] } },
	{ "type": "Feature", "properties": { "osm_id": "2353473495", "name": "Silk Sisters", "other_tags": "\"addr:city\"=>\"Otley\",\"addr:country\"=>\"GB\",\"addr:street\"=>\"Market Street\",\"is_in:town\"=>\"Otley\",\"phone\"=>\"+44 1943 463353\",\"shop\"=>\"clothes\",\"website\"=>\"www.silksisters.co.uk\"" }, "geometry": { "type": "Point", "coordinates": [ -1.6932251, 53.905525 ] } },
	{ "type": "Feature", "properties": { "osm_id": "2353501509", "name": "Wedding Belles of Otley", "other_tags": "\"shop\"=>\"clothes\",\"website\"=>\"www.weddingbellesofotley.co.uk\",\"addr:street\"=>\"New Inn Court\",\"description\"=>\"Quality bridal wear & accessories\"" }, "geometry": { "type": "Point", "coordinates": [ -1.6936781, 53.9048992 ] } },
	{ "type": "Feature", "properties": { "osm_id": "2353531362", "other_tags": "\"shop\"=>\"clothes\"" }, "geometry": { "type": "Point", "coordinates": [ -1.6943784, 53.9046922 ] } },
	{ "type": "Feature", "properties": { "osm_id": "2353558009", "name": "Wild Thing", "other_tags": "\"shop\"=>\"clothes\"" }, "geometry": { "type": "Point", "coordinates": [ -1.6938608, 53.9042341 ] } },
	{ "type": "Feature", "properties": { "osm_id": "2353737752", "name": "Tabatha's Trendz", "other_tags": "\"shop\"=>\"clothes\",\"addr:city\"=>\"Otley\",\"addr:street\"=>\"Westgate\",\"description\"=>\"Ladies fashion. Sewing alteration & repairs.\"" }, "geometry": { "type": "Point", "coordinates": [ -1.6972294, 53.9044709 ] } },
	{ "type": "Feature", "properties": { "osm_id": "2571193605", "other_tags": "\"shop\"=>\"clothes\",\"clothes\"=>\"bride\"" }, "geometry": { "type": "Point", "coordinates": [ -1.7222925, 53.8773072 ] } },
	{ "type": "Feature", "properties": { "osm_id": "2661206206", "name": "Backcountry UK", "other_tags": "\"shop\"=>\"clothes\",\"clothes\"=>\"outsoor\"" }, "geometry": { "type": "Point", "coordinates": [ -1.822436, 53.9263064 ] } },
	{ "type": "Feature", "properties": { "osm_id": "2888243501", "name": "vacant unit", "other_tags": "\"brand\"=>\"Next\",\"opening_hours\"=>\"Closed\",\"shop\"=>\"clothes\"" }, "geometry": { "type": "Point", "coordinates": [ -1.434228, 53.793417 ] } },
	{ "type": "Feature", "properties": { "osm_id": "3057247701", "name": "Rag Doll of Pudsey", "other_tags": "\"addr:city\"=>\"Pudsey\",\"addr:housenumber\"=>\"76\",\"addr:postcode\"=>\"LS28 8LE\",\"addr:street\"=>\"Galloway Lane\",\"shop\"=>\"clothes\"" }, "geometry": { "type": "Point", "coordinates": [ -1.6897951, 53.8008212 ] } },
	{ "type": "Feature", "properties": { "osm_id": "3073182159", "name": "Uniformitry", "other_tags": "\"addr:city\"=>\"Farsley\",\"addr:housenumber\"=>\"5\",\"addr:street\"=>\"New Street\",\"phone\"=>\"+44 113 256 6020\",\"shop\"=>\"clothes\"" }, "geometry": { "type": "Point", "coordinates": [ -1.6723188, 53.8112816 ] } },
	{ "type": "Feature", "properties": { "osm_id": "3155299679", "name": "Peacocks", "other_tags": "\"shop\"=>\"clothes\"" }, "geometry": { "type": "Point", "coordinates": [ -1.6762534, 53.7083754 ] } },
	{ "type": "Feature", "properties": { "osm_id": "3518087594", "name": "Almond", "other_tags": "\"shop\"=>\"clothes\",\"clothes\"=>\"women\"" }, "geometry": { "type": "Point", "coordinates": [ -1.7858042, 53.570347 ] } },
	{ "type": "Feature", "properties": { "osm_id": "3621975746", "name": "Reiss", "other_tags": "\"addr:city\"=>\"Leeds\",\"addr:housenumber\"=>\"26-28\",\"addr:postcode\"=>\"LS1 6BH\",\"addr:street\"=>\"County Arcade\",\"brand\"=>\"Reiss\",\"brand:wikidata\"=>\"Q7310479\",\"brand:wikipedia\"=>\"en:Reiss (brand)\",\"shop\"=>\"clothes\",\"website\"=>\"https:\/\/www.reiss.com\/\"" }, "geometry": { "type": "Point", "coordinates": [ -1.5409442, 53.7984122 ] } },
	{ "type": "Feature", "properties": { "osm_id": "3621975750", "name": "Vivienne Westwood", "other_tags": "\"addr:city\"=>\"Leeds\",\"addr:housenumber\"=>\"11-17\",\"addr:postcode\"=>\"LS1 6BW\",\"addr:street\"=>\"County Arcade\",\"shop\"=>\"clothes\",\"website\"=>\"https:\/\/www.viviennewestwood.com\/\"" }, "geometry": { "type": "Point", "coordinates": [ -1.5413462, 53.7983088 ] } },
	{ "type": "Feature", "properties": { "osm_id": "3660968673", "name": "Coldspring Mill", "other_tags": "\"shop\"=>\"clothes\"" }, "geometry": { "type": "Point", "coordinates": [ -1.9115041, 53.8211105 ] } },
	{ "type": "Feature", "properties": { "osm_id": "3715263092", "name": "Farouche", "other_tags": "\"shop\"=>\"clothes\",\"addr:city\"=>\"Rawdon\",\"addr:street\"=>\"Harrogate Road\"" }, "geometry": { "type": "Point", "coordinates": [ -1.6842609, 53.8543587 ] } },
	{ "type": "Feature", "properties": { "osm_id": "3715282329", "name": "Bridal Apparel", "other_tags": "\"addr:city\"=>\"Rawdon\",\"addr:housenumber\"=>\"15\",\"addr:postcode\"=>\"LS19 6HW\",\"addr:street\"=>\"Harrogate Road\",\"phone\"=>\"+44 113 250 1616\",\"shop\"=>\"clothes\",\"website\"=>\"https:\/\/www.bridalapparelleeds.co.uk\/\"" }, "geometry": { "type": "Point", "coordinates": [ -1.6848443, 53.8539247 ] } },
	{ "type": "Feature", "properties": { "osm_id": "3718205537", "name": "Izzy", "other_tags": "\"shop\"=>\"clothes\",\"addr:city\"=>\"Yeadon\",\"addr:street\"=>\"High Street\",\"addr:postcode\"=>\"LS19 7SP\",\"addr:housenumber\"=>\"41\"" }, "geometry": { "type": "Point", "coordinates": [ -1.683903, 53.8662636 ] } },
	{ "type": "Feature", "properties": { "osm_id": "3718231085", "name": "Platinum Bridal Boutique", "other_tags": "\"addr:city\"=>\"Yeadon\",\"addr:housenumber\"=>\"4\",\"addr:postcode\"=>\"LS19 7PP\",\"addr:street\"=>\"High Street\",\"phone\"=>\"+44 113 250 6026\",\"shop\"=>\"clothes\",\"website\"=>\"https:\/\/www.platinumbridalboutique.co.uk\/\"" }, "geometry": { "type": "Point", "coordinates": [ -1.685352, 53.8659184 ] } },
	{ "type": "Feature", "properties": { "osm_id": "3874017907", "name": "Outfit", "other_tags": "\"brand\"=>\"Outfit\",\"brand:wikidata\"=>\"Q7112061\",\"brand:wikipedia\"=>\"en:Outfit (retailer)\",\"shop\"=>\"clothes\"" }, "geometry": { "type": "Point", "coordinates": [ -1.6051866, 53.816872 ] } },
	{ "type": "Feature", "properties": { "osm_id": "3886416680", "name": "Harriet's", "other_tags": "\"addr:city\"=>\"Leeds\",\"addr:housenumber\"=>\"66\",\"addr:postcode\"=>\"LS18 4AP\",\"addr:street\"=>\"Town Street\",\"addr:suburb\"=>\"Horsforth\",\"phone\"=>\"+44 113 239 0399\",\"shop\"=>\"clothes\",\"website\"=>\"http:\/\/www.harrietsclothing.co.uk\/\"" }, "geometry": { "type": "Point", "coordinates": [ -1.6395376, 53.8384363 ] } },
	{ "type": "Feature", "properties": { "osm_id": "3887784748", "name": "Mini Mee's", "other_tags": "\"addr:city\"=>\"Leeds\",\"addr:housenumber\"=>\"100\",\"addr:postcode\"=>\"LS18 4AP\",\"addr:street\"=>\"Town Street\",\"addr:suburb\"=>\"Horsforth\",\"shop\"=>\"clothes\",\"website\"=>\"https:\/\/www.facebook.com\/Mini-Mees-1417529315186147\"" }, "geometry": { "type": "Point", "coordinates": [ -1.6380081, 53.839572 ] } },
	{ "type": "Feature", "properties": { "osm_id": "3892020075", "name": "Amelia Elliott Bridal", "other_tags": "\"addr:city\"=>\"Leeds\",\"addr:housenumber\"=>\"121\",\"addr:postcode\"=>\"LS18 5BL\",\"addr:street\"=>\"Town Street\",\"addr:suburb\"=>\"Horsforth\",\"opening_hours\"=>\"Mo-Fr 10:00-16:00; Sa 10:00-17:00; Su Closed\",\"phone\"=>\"+44 113 258 2783\",\"shop\"=>\"clothes\",\"website\"=>\"http:\/\/www.ameliaelliott.co.uk\/\"" }, "geometry": { "type": "Point", "coordinates": [ -1.6374153, 53.840099 ] } },
	{ "type": "Feature", "properties": { "osm_id": "3901161760", "name": "Sophie's Choice", "other_tags": "\"addr:city\"=>\"Horsforth\",\"addr:housenumber\"=>\"159\",\"addr:postcode\"=>\"LS18 4DR\",\"addr:street\"=>\"New Road Side\",\"phone\"=>\"+44 113 258 8881\",\"shop\"=>\"clothes\"" }, "geometry": { "type": "Point", "coordinates": [ -1.644706, 53.8321781 ] } },
	{ "type": "Feature", "properties": { "osm_id": "3901161761", "name": "Cash4Clothes", "other_tags": "\"shop\"=>\"clothes\",\"addr:city\"=>\"Horsforth\",\"addr:street\"=>\"New Road Side\",\"addr:postcode\"=>\"LS18 4DR\",\"addr:housenumber\"=>\"157\"" }, "geometry": { "type": "Point", "coordinates": [ -1.6446213, 53.8321676 ] } },
	{ "type": "Feature", "properties": { "osm_id": "3904761987", "name": "Nicola Jane", "other_tags": "\"addr:city\"=>\"Horsforth\",\"addr:housenumber\"=>\"97\",\"addr:postcode\"=>\"LS18 4QD\",\"addr:street\"=>\"New Road Side\",\"opening_hours\"=>\"Mo-Sa 09:30-17:00; Su Closed\",\"shop\"=>\"clothes\",\"website\"=>\"https:\/\/www.nicolajane.com\/leeds-shop\/\"" }, "geometry": { "type": "Point", "coordinates": [ -1.6417916, 53.8319934 ] } },
	{ "type": "Feature", "properties": { "osm_id": "3904772961", "name": "Oaks", "other_tags": "\"addr:city\"=>\"Horsforth\",\"addr:housenumber\"=>\"83\",\"addr:postcode\"=>\"LS18 4QD\",\"addr:street\"=>\"New Road Side\",\"phone\"=>\"+44 113 239 0333\",\"shop\"=>\"clothes\"" }, "geometry": { "type": "Point", "coordinates": [ -1.6410483, 53.8319456 ] } },
	{ "type": "Feature", "properties": { "osm_id": "3934263614", "name": "Paradise Grove", "other_tags": "\"shop\"=>\"clothes\",\"addr:city\"=>\"Horsforth\",\"addr:street\"=>\"Paradise Place\",\"addr:postcode\"=>\"LS18 4RN\",\"addr:housenumber\"=>\"27\"" }, "geometry": { "type": "Point", "coordinates": [ -1.6189911, 53.8355808 ] } },
	{ "type": "Feature", "properties": { "osm_id": "4353989162", "name": "Ashworth & Bird", "other_tags": "\"addr:city\"=>\"Wakefield\",\"addr:housenumber\"=>\"13-17\",\"addr:street\"=>\"Cross Square\",\"shop\"=>\"clothes\",\"website\"=>\"https:\/\/www.ashworthandbird.com\/\"" }, "geometry": { "type": "Point", "coordinates": [ -1.4988524, 53.6828565 ] } },
	{ "type": "Feature", "properties": { "osm_id": "4353989290", "name": "Peters", "other_tags": "\"addr:city\"=>\"Wakefield\",\"addr:housenumber\"=>\"33-35\",\"addr:postcode\"=>\"WF1 1QW\",\"addr:street\"=>\"Brook Street\",\"shop\"=>\"clothes\"" }, "geometry": { "type": "Point", "coordinates": [ -1.4967086, 53.6841726 ] } },
	{ "type": "Feature", "properties": { "osm_id": "4413109076", "name": "Bridal Reloved", "other_tags": "\"addr:city\"=>\"Wakefield\",\"addr:housenumber\"=>\"24\",\"addr:postcode\"=>\"WF1 2ED\",\"addr:street\"=>\"Wood Street\",\"shop\"=>\"clothes\",\"website\"=>\"https:\/\/bridalreloved.co.uk\/\"" }, "geometry": { "type": "Point", "coordinates": [ -1.500018, 53.6835463 ] } },
	{ "type": "Feature", "properties": { "osm_id": "4414777795", "name": "Dress2Party", "other_tags": "\"addr:city\"=>\"Wakefield\",\"addr:housenumber\"=>\"57\",\"addr:postcode\"=>\"WF1 3BP\",\"addr:street\"=>\"Northgate\",\"shop\"=>\"clothes\"" }, "geometry": { "type": "Point", "coordinates": [ -1.4999083, 53.6845074 ] } },
	{ "type": "Feature", "properties": { "osm_id": "4471283676", "name": "Roman", "other_tags": "\"shop\"=>\"clothes\",\"wheelchair\"=>\"yes\"" }, "geometry": { "type": "Point", "coordinates": [ -1.4515572, 53.8060632 ] } },
	{ "type": "Feature", "properties": { "osm_id": "4471283680", "name": "Select", "other_tags": "\"shop\"=>\"clothes\",\"wheelchair\"=>\"yes\"" }, "geometry": { "type": "Point", "coordinates": [ -1.4510254, 53.8060599 ] } },
	{ "type": "Feature", "properties": { "osm_id": "4471283681", "name": "New Look", "other_tags": "\"brand\"=>\"New Look\",\"brand:wikidata\"=>\"Q12063852\",\"brand:wikipedia\"=>\"en:New Look (company)\",\"shop\"=>\"clothes\",\"wheelchair\"=>\"yes\"" }, "geometry": { "type": "Point", "coordinates": [ -1.4508744, 53.8060927 ] } },
	{ "type": "Feature", "properties": { "osm_id": "4475950123", "name": "Peacocks", "other_tags": "\"brand\"=>\"Peacocks\",\"brand:wikidata\"=>\"Q7157762\",\"brand:wikipedia\"=>\"en:Peacocks (clothing)\",\"shop\"=>\"clothes\"" }, "geometry": { "type": "Point", "coordinates": [ -1.4501572, 53.8065496 ] } },
	{ "type": "Feature", "properties": { "osm_id": "4489200790", "name": "For Giving", "other_tags": "\"opening_hours\"=>\"closed\",\"shop\"=>\"clothes\"" }, "geometry": { "type": "Point", "coordinates": [ -1.4503754, 53.806936 ] } },
	{ "type": "Feature", "properties": { "osm_id": "4489200794", "name": "Jack & Jill", "other_tags": "\"clothes\"=>\"children;toys\",\"shop\"=>\"clothes\"" }, "geometry": { "type": "Point", "coordinates": [ -1.4504103, 53.8067031 ] } },
	{ "type": "Feature", "properties": { "osm_id": "4602768928", "name": "Yorkshire Menswear", "other_tags": "\"shop\"=>\"clothes\"" }, "geometry": { "type": "Point", "coordinates": [ -1.6629175, 53.8231128 ] } },
	{ "type": "Feature", "properties": { "osm_id": "4636108674", "name": "Fat Face", "other_tags": "\"shop\"=>\"clothes\"" }, "geometry": { "type": "Point", "coordinates": [ -2.0132507, 53.741658 ] } }
]
}
