{
"type": "FeatureCollection",
"crs": { "type": "name", "properties": { "name": "urn:ogc:def:crs:OGC:1.3:CRS84" } },
"features": [
	{ "type": "Feature", "properties": { "osm_id": "2128107759", "name": "Stitches", "other_tags": "\"shop\"=>\"tailor\"" }, "geometry": { "type": "Point", "coordinates": [ -1.5416342, 53.7989348 ] } },
	{ "type": "Feature", "properties": { "osm_id": "2358548420", "name": "Stitch Patren", "other_tags": "\"description\"=>\"Clothing alteration and repairs\",\"shop\"=>\"tailor\"" }, "geometry": { "type": "Point", "coordinates": [ -1.7789621, 53.8348107 ] } },
	{ "type": "Feature", "properties": { "osm_id": "3718205540", "name": "Sew Quick", "other_tags": "\"shop\"=>\"tailor\",\"phone\"=>\"+44 113 250 4182\",\"addr:city\"=>\"Yeadon\",\"addr:street\"=>\"High Street\",\"addr:postcode\"=>\"LS19 7SP\",\"addr:housenumber\"=>\"35\"" }, "geometry": { "type": "Point", "coordinates": [ -1.6841065, 53.8662668 ] } },
	{ "type": "Feature", "properties": { "osm_id": "4411803755", "name": "Stitch Express", "other_tags": "\"shop\"=>\"tailor\",\"addr:street\"=>\"Westmorland Street\",\"addr:postcode\"=>\"WF1 1PJ\",\"addr:housenumber\"=>\"20\"" }, "geometry": { "type": "Point", "coordinates": [ -1.4965166, 53.6832276 ] } },
	{ "type": "Feature", "properties": { "osm_id": "4468401789", "name": "Hem and Stitch", "other_tags": "\"shop\"=>\"tailor\",\"addr:city\"=>\"Wakefield\",\"addr:street\"=>\"The Springs\",\"addr:postcode\"=>\"WF1 1PU\",\"addr:housenumber\"=>\"6\"" }, "geometry": { "type": "Point", "coordinates": [ -1.49529, 53.6830445 ] } },
	{ "type": "Feature", "properties": { "osm_id": "4998540245", "name": "Mr. Tailor", "other_tags": "\"shop\"=>\"tailor\",\"phone\"=>\"+44 113 887 8446\",\"addr:city\"=>\"Leeds\",\"addr:street\"=>\"Wilton Grove\",\"addr:postcode\"=>\"LS6 4ES\",\"addr:housenumber\"=>\"2\"" }, "geometry": { "type": "Point", "coordinates": [ -1.571084, 53.8258023 ] } },
	{ "type": "Feature", "properties": { "osm_id": "5694793445", "name": "Stitchy Buckle Alterations", "other_tags": "\"shop\"=>\"tailor\",\"website\"=>\"http:\/\/www.alterations-hire-bingley.co.uk\/\",\"addr:city\"=>\"Bingley\",\"addr:street\"=>\"Queens Court\",\"addr:postcode\"=>\"BD16 2LT\",\"addr:housenumber\"=>\"5\"" }, "geometry": { "type": "Point", "coordinates": [ -1.8390544, 53.8486075 ] } },
	{ "type": "Feature", "properties": { "osm_id": "5794581341", "name": "Stitch in Time", "other_tags": "\"shop\"=>\"tailor\",\"addr:city\"=>\"Bingley\",\"addr:street\"=>\"Main Street\",\"addr:postcode\"=>\"BD16 2JH\",\"addr:housenumber\"=>\"100\"" }, "geometry": { "type": "Point", "coordinates": [ -1.8401021, 53.8501861 ] } },
	{ "type": "Feature", "properties": { "osm_id": "5918770665", "name": "The Zip Yard", "other_tags": "\"shop\"=>\"tailor\",\"addr:city\"=>\"Leeds\",\"addr:street\"=>\"Harrogate Road\",\"addr:postcode\"=>\"LS7 4NY\",\"addr:housenumber\"=>\"114 a\"" }, "geometry": { "type": "Point", "coordinates": [ -1.5379807, 53.8293953 ] } },
	{ "type": "Feature", "properties": { "osm_id": "5940390389", "name": "The Gentlemans Tailor", "other_tags": "\"shop\"=>\"tailor\",\"addr:city\"=>\"Leeds\",\"addr:street\"=>\"Grand Arcade\",\"addr:postcode\"=>\"LS1 6PG\",\"addr:housenumber\"=>\"23\"" }, "geometry": { "type": "Point", "coordinates": [ -1.540405, 53.8003063 ] } },
	{ "type": "Feature", "properties": { "osm_id": "5941346391", "name": "Michelsberg Tailoring", "other_tags": "\"shop\"=>\"tailor\",\"addr:city\"=>\"Leeds\",\"addr:street\"=>\"Queen Victoria Street\",\"addr:postcode\"=>\"LS1 6BE\",\"addr:housenumber\"=>\"24a\"" }, "geometry": { "type": "Point", "coordinates": [ -1.5410498, 53.7982635 ] } },
	{ "type": "Feature", "properties": { "osm_id": "5941346420", "name": "T M Lewin", "other_tags": "\"shop\"=>\"tailor\",\"addr:city\"=>\"Leeds\",\"addr:street\"=>\"Queen Victoria Street\",\"addr:postcode\"=>\"LS1 6BE\",\"addr:housenumber\"=>\"20-22\"" }, "geometry": { "type": "Point", "coordinates": [ -1.5411695, 53.7982475 ] } },
	{ "type": "Feature", "properties": { "osm_id": "5981576297", "name": "Vena Alterations", "other_tags": "\"shop\"=>\"tailor\",\"addr:city\"=>\"Leeds\",\"addr:unit\"=>\"7-9\",\"addr:street\"=>\"Kirkgate\",\"addr:housename\"=>\"Kirkgate Market\"" }, "geometry": { "type": "Point", "coordinates": [ -1.5400143, 53.7974245 ] } },
	{ "type": "Feature", "properties": { "osm_id": "6551413437", "name": "Alisons Alterations", "other_tags": "\"shop\"=>\"tailor\"" }, "geometry": { "type": "Point", "coordinates": [ -1.4980103, 53.6854292 ] } },
	{ "type": "Feature", "properties": { "osm_id": "6606842520", "name": "Stitch In Time", "other_tags": "\"shop\"=>\"tailor\",\"addr:town\"=>\"Pontefract\",\"addr:street\"=>\"Gillygate\",\"addr:postcode\"=>\"WF8 1PQ\",\"addr:housenumber\"=>\"16\"" }, "geometry": { "type": "Point", "coordinates": [ -1.3091971, 53.6917394 ] } },
	{ "type": "Feature", "properties": { "osm_id": "6606842529", "name": "Sewing Room", "other_tags": "\"addr:housename\"=>\"Horsefair House\",\"addr:postcode\"=>\"WF8 1NX\",\"addr:street\"=>\"Horsefair\",\"addr:town\"=>\"Pontefract\",\"addr:unit\"=>\"2\",\"shop\"=>\"tailor\"" }, "geometry": { "type": "Point", "coordinates": [ -1.3086833, 53.6925705 ] } },
	{ "type": "Feature", "properties": { "osm_id": "6969267535", "name": "Goodall's Tailors", "other_tags": "\"shop\"=>\"tailor\"" }, "geometry": { "type": "Point", "coordinates": [ -1.4801811, 53.7482635 ] } },
	{ "type": "Feature", "properties": { "osm_id": "8928445917", "name": "Serious Stitchin'", "other_tags": "\"addr:city\"=>\"Leeds\",\"addr:housenumber\"=>\"3\",\"addr:street\"=>\"Oxford Road\",\"addr:suburb\"=>\"Guisley\",\"shop\"=>\"tailor\"" }, "geometry": { "type": "Point", "coordinates": [ -1.7083888, 53.8758027 ] } },
	{ "type": "Feature", "properties": { "osm_id": null, "centroid": { "latitude": 53.796588, "longitude": -1.541111 }, "osm_way_id": "639133106", "name": "Alter 8", "building": "yes", "shop": "tailor", "other_tags": "\"addr:city\"=>\"Leeds\",\"addr:street\"=>\"Central Road\",\"addr:postcode\"=>\"LS1 6DE\",\"addr:housenumber\"=>\"22\"" }, "geometry": { "type": "MultiPolygon", "coordinates": [ [ [ [ -1.5410091, 53.7965893 ], [ -1.5410239, 53.7965555 ], [ -1.5412134, 53.7965889 ], [ -1.5411979, 53.796621 ], [ -1.5410091, 53.7965893 ] ] ] ] } },
	{ "type": "Feature", "properties": { "osm_id": null, "centroid": { "latitude": 53.713292, "longitude": -1.268309 }, "osm_way_id": "939795835", "name": "Ideas To Adore", "building": "yes", "shop": "tailor", "other_tags": "\"addr:housenumber\"=>\"5\",\"addr:postcode\"=>\"WF11 8NQ\",\"addr:street\"=>\"High Street\",\"addr:suburb\"=>\"Ferrybridge\",\"addr:town\"=>\"Knottingley\"" }, "geometry": { "type": "MultiPolygon", "coordinates": [ [ [ [ -1.2682108, 53.7132898 ], [ -1.2683821, 53.7132558 ], [ -1.268408, 53.7133019 ], [ -1.2682863, 53.7133281 ], [ -1.2682658, 53.7132943 ], [ -1.2682203, 53.7133035 ], [ -1.2682108, 53.7132898 ] ] ] ] } },
	{ "type": "Feature", "properties": { "osm_id": null, "centroid": { "latitude": 53.767443, "longitude": -1.771373 }, "osm_way_id": "946052486", "name": "Wibsey Sewing Room", "building": "yes", "shop": "tailor", "other_tags": "\"addr:city\"=>\"Bradford\",\"addr:housenumber\"=>\"122\",\"addr:postcode\"=>\"BD6 1LS\",\"addr:street\"=>\"High Street\"" }, "geometry": { "type": "MultiPolygon", "coordinates": [ [ [ [ -1.7714249, 53.7674194 ], [ -1.7714241, 53.7674697 ], [ -1.7713218, 53.7674642 ], [ -1.7713218, 53.7674161 ], [ -1.7714249, 53.7674194 ] ] ] ] } }
]
}
