{
"type": "FeatureCollection",
"crs": { "type": "name", "properties": { "name": "urn:ogc:def:crs:OGC:1.3:CRS84" } },
"features": [
	{ "type": "Feature", "properties": { "osm_id": "302049495", "name": "Burton", "other_tags": "\"brand\"=>\"Burton\",\"brand:wikidata\"=>\"Q5000795\",\"brand:wikipedia\"=>\"en:Burton (retailer)\",\"shop\"=>\"clothes\"" }, "geometry": { "type": "Point", "coordinates": [ -1.644519, 53.7459081 ] } },
	{ "type": "Feature", "properties": { "osm_id": "302049497", "name": "Evans", "other_tags": "\"brand\"=>\"Evans\",\"brand:wikidata\"=>\"Q5415877\",\"brand:wikipedia\"=>\"en:Evans (retailer)\",\"clothes\"=>\"women\",\"shop\"=>\"clothes\"" }, "geometry": { "type": "Point", "coordinates": [ -1.644469, 53.7459124 ] } },
	{ "type": "Feature", "properties": { "osm_id": "302049498", "name": "Wallis", "other_tags": "\"brand\"=>\"Wallis\",\"brand:wikidata\"=>\"Q7963123\",\"brand:wikipedia\"=>\"en:Wallis (retailer)\",\"shop\"=>\"clothes\"" }, "geometry": { "type": "Point", "coordinates": [ -1.644414, 53.7459172 ] } },
	{ "type": "Feature", "properties": { "osm_id": "313247813", "name": "Bruno Venezia", "other_tags": "\"shop\"=>\"clothes\"" }, "geometry": { "type": "Point", "coordinates": [ -1.6098804, 53.8031018 ] } },
	{ "type": "Feature", "properties": { "osm_id": "313247814", "name": "Helen Sykes", "other_tags": "\"shop\"=>\"clothes\"" }, "geometry": { "type": "Point", "coordinates": [ -1.6097039, 53.8030343 ] } },
	{ "type": "Feature", "properties": { "osm_id": "314445728", "name": "Primark", "other_tags": "\"shop\"=>\"clothes\",\"brand\"=>\"Primark\",\"brand:wikidata\"=>\"Q137023\",\"brand:wikipedia\"=>\"en:Primark\",\"contact:website\"=>\"https:\/\/stores.primark.com\/united-kingdom\/huddersfield\/82-86-new-street\"" }, "geometry": { "type": "Point", "coordinates": [ -1.7836815, 53.6439795 ] } },
	{ "type": "Feature", "properties": { "osm_id": "330089351", "name": "Baby's Need's", "other_tags": "\"shop\"=>\"clothes\"" }, "geometry": { "type": "Point", "coordinates": [ -1.5895164, 53.7970805 ] } },
	{ "type": "Feature", "properties": { "osm_id": "333467301", "name": "Michael Kors", "other_tags": "\"shop\"=>\"clothes\",\"brand\"=>\"Michael Kors\",\"addr:city\"=>\"Leeds\",\"addr:street\"=>\"Briggate\",\"addr:postcode\"=>\"LS1 6BG\",\"brand:wikidata\"=>\"Q19572998\",\"brand:wikipedia\"=>\"en:Capri Holdings\",\"addr:housenumber\"=>\"112-114\"" }, "geometry": { "type": "Point", "coordinates": [ -1.5419633, 53.7978638 ] } },
	{ "type": "Feature", "properties": { "osm_id": "333467317", "name": "Fat Face", "other_tags": "\"shop\"=>\"clothes\",\"brand\"=>\"Fat Face\",\"website\"=>\"https:\/\/www.fatface.com\/\",\"addr:city\"=>\"Leeds\",\"addr:street\"=>\"Briggate\",\"addr:postcode\"=>\"LS1 6LH\",\"brand:wikidata\"=>\"Q5437186\",\"brand:wikipedia\"=>\"en:Fat Face\",\"addr:housenumber\"=>\"69-70\"" }, "geometry": { "type": "Point", "coordinates": [ -1.5423938, 53.7981117 ] } },
	{ "type": "Feature", "properties": { "osm_id": "333799013", "name": "Louis Vuitton", "other_tags": "\"shop\"=>\"clothes\",\"brand\"=>\"Louis Vuitton\",\"addr:city\"=>\"Leeds\",\"addr:street\"=>\"Briggate\",\"addr:postcode\"=>\"LS1 6NP\",\"brand:wikidata\"=>\"Q191485\",\"brand:wikipedia\"=>\"en:Louis Vuitton\",\"addr:housenumber\"=>\"98-99\"" }, "geometry": { "type": "Point", "coordinates": [ -1.5418889, 53.7985098 ] } },
	{ "type": "Feature", "properties": { "osm_id": "333799043", "name": "Matalan", "other_tags": "\"shop\"=>\"clothes\",\"brand\"=>\"Matalan\",\"addr:city\"=>\"Leeds\",\"addr:unit\"=>\"A110-112\",\"addr:street\"=>\"The Headrow\",\"addr:postcode\"=>\"LS1 6JD\",\"addr:housename\"=>\"The Core\",\"brand:wikidata\"=>\"Q12061509\",\"brand:wikipedia\"=>\"en:Matalan\"" }, "geometry": { "type": "Point", "coordinates": [ -1.5435792, 53.7991168 ] } },
	{ "type": "Feature", "properties": { "osm_id": "352872460", "name": "Jo Brand Junior", "other_tags": "\"shop\"=>\"clothes\"" }, "geometry": { "type": "Point", "coordinates": [ -1.5667801, 53.8290653 ] } },
	{ "type": "Feature", "properties": { "osm_id": "385014727", "name": "Matalan", "other_tags": "\"brand\"=>\"Matalan\",\"brand:wikidata\"=>\"Q12061509\",\"brand:wikipedia\"=>\"en:Matalan\",\"shop\"=>\"clothes\"" }, "geometry": { "type": "Point", "coordinates": [ -1.6252556, 53.6908846 ] } },
	{ "type": "Feature", "properties": { "osm_id": "535954699", "name": "Muhsin's", "other_tags": "\"shop\"=>\"clothes\"" }, "geometry": { "type": "Point", "coordinates": [ -1.6651246, 53.6785561 ] } },
	{ "type": "Feature", "properties": { "osm_id": "540201164", "name": "Time & Time Again", "other_tags": "\"shop\"=>\"clothes\",\"addr:city\"=>\"Ilkley\",\"addr:street\"=>\"Church Street\",\"description\"=>\"Formal wear; Highland wear; clothes hire; men\",\"addr:country\"=>\"GB\",\"addr:postcode\"=>\"LS29 9DR\",\"addr:housenumber\"=>\"1\"" }, "geometry": { "type": "Point", "coordinates": [ -1.8236886, 53.9261128 ] } },
	{ "type": "Feature", "properties": { "osm_id": "662441113", "name": "United Footwear", "other_tags": "\"shop\"=>\"clothes\"" }, "geometry": { "type": "Point", "coordinates": [ -1.7279003, 53.7752053 ] } },
	{ "type": "Feature", "properties": { "osm_id": "662441219", "name": "St Vincent's", "other_tags": "\"shop\"=>\"clothes\"" }, "geometry": { "type": "Point", "coordinates": [ -1.7215148, 53.7711915 ] } },
	{ "type": "Feature", "properties": { "osm_id": "662441243", "name": "Step 2", "other_tags": "\"shop\"=>\"clothes\"" }, "geometry": { "type": "Point", "coordinates": [ -1.7215998, 53.7714484 ] } },
	{ "type": "Feature", "properties": { "osm_id": "687080933", "name": "Diva Bridal", "other_tags": "\"shop\"=>\"clothes\"" }, "geometry": { "type": "Point", "coordinates": [ -1.7160135, 53.7696628 ] } },
	{ "type": "Feature", "properties": { "osm_id": "687081050", "other_tags": "\"shop\"=>\"clothes\"" }, "geometry": { "type": "Point", "coordinates": [ -1.7123148, 53.7683463 ] } },
	{ "type": "Feature", "properties": { "osm_id": "888253998", "name": "Zara", "other_tags": "\"shop\"=>\"clothes\",\"brand\"=>\"Zara\",\"addr:city\"=>\"Leeds\",\"addr:street\"=>\"Briggate\",\"addr:postcode\"=>\"LS1 6BR\",\"brand:wikidata\"=>\"Q147662\",\"brand:wikipedia\"=>\"en:Zara (retailer)\",\"addr:housenumber\"=>\"129-132\"" }, "geometry": { "type": "Point", "coordinates": [ -1.5421279, 53.7971096 ] } },
	{ "type": "Feature", "properties": { "osm_id": "966181120", "name": "Ashy's Collection", "other_tags": "\"shop\"=>\"clothes\"" }, "geometry": { "type": "Point", "coordinates": [ -1.666767, 53.6782914 ] } },
	{ "type": "Feature", "properties": { "osm_id": "1039830673", "name": "Topman", "other_tags": "\"brand\"=>\"Topman\",\"brand:wikidata\"=>\"Q1090880\",\"brand:wikipedia\"=>\"en:Topman\",\"clothes\"=>\"men\",\"indoor\"=>\"yes\",\"shop\"=>\"clothes\"" }, "geometry": { "type": "Point", "coordinates": [ -1.7830802, 53.6446339 ] } },
	{ "type": "Feature", "properties": { "osm_id": "1055328716", "name": "Pronuptia", "other_tags": "\"shop\"=>\"clothes\"" }, "geometry": { "type": "Point", "coordinates": [ -1.7798098, 53.6455446 ] } },
	{ "type": "Feature", "properties": { "osm_id": "1137929818", "name": "Natasha School Wear", "other_tags": "\"shop\"=>\"clothes\"" }, "geometry": { "type": "Point", "coordinates": [ -1.6297191, 53.6933504 ] } },
	{ "type": "Feature", "properties": { "osm_id": "1137965475", "name": "Freedom", "other_tags": "\"shop\"=>\"clothes\",\"addr:housenumber\"=>\"29\"" }, "geometry": { "type": "Point", "coordinates": [ -1.6288401, 53.6929089 ] } },
	{ "type": "Feature", "properties": { "osm_id": "1139204123", "name": "Ansari's Variety House", "other_tags": "\"shop\"=>\"clothes\",\"phone\"=>\"+44 7733 758094\"" }, "geometry": { "type": "Point", "coordinates": [ -1.6278506, 53.6925894 ] } },
	{ "type": "Feature", "properties": { "osm_id": "1139236299", "name": "Kids Connection", "other_tags": "\"shop\"=>\"clothes\"" }, "geometry": { "type": "Point", "coordinates": [ -1.6288299, 53.6913753 ] } },
	{ "type": "Feature", "properties": { "osm_id": "1159765180", "name": "Regatta", "other_tags": "\"addr:housename\"=>\"Junction 32 Outlet Shopping Village\",\"addr:postcode\"=>\"WF10 4FR\",\"addr:street\"=>\"Tomahawk Trail\",\"addr:town\"=>\"Castleford\",\"addr:unit\"=>\"41\",\"shop\"=>\"clothes\"" }, "geometry": { "type": "Point", "coordinates": [ -1.3375687, 53.7127253 ] } },
	{ "type": "Feature", "properties": { "osm_id": "1159765193", "name": "Skopes", "other_tags": "\"addr:housename\"=>\"Junction 32 Outlet Shopping Village\",\"addr:postcode\"=>\"WF10 4FR\",\"addr:street\"=>\"Tomahawk Trail\",\"addr:town\"=>\"Castleford\",\"addr:unit\"=>\"17\",\"clothes\"=>\"men\",\"shop\"=>\"clothes\"" }, "geometry": { "type": "Point", "coordinates": [ -1.3406511, 53.7124817 ] } },
	{ "type": "Feature", "properties": { "osm_id": "1534826943", "name": "Stitch & Style", "other_tags": "\"shop\"=>\"clothes\",\"addr:street\"=>\"Church Street\",\"addr:housenumber\"=>\"133\"" }, "geometry": { "type": "Point", "coordinates": [ -1.8101901, 53.6430254 ] } },
	{ "type": "Feature", "properties": { "osm_id": "1535922179", "name": "Trendz Clothing", "other_tags": "\"shop\"=>\"clothes\",\"addr:city\"=>\"Huddersfield\",\"addr:street\"=>\"Church Street\",\"addr:suburb\"=>\"Paddock\",\"addr:country\"=>\"GB\",\"addr:postcode\"=>\"HD1 4UL\"" }, "geometry": { "type": "Point", "coordinates": [ -1.8127963, 53.6435163 ] } },
	{ "type": "Feature", "properties": { "osm_id": "1650942199", "name": "Abbey Wedding Warehouse", "other_tags": "\"shop\"=>\"clothes\",\"clothes\"=>\"bridal\"" }, "geometry": { "type": "Point", "coordinates": [ -1.6025998, 53.8157179 ] } },
	{ "type": "Feature", "properties": { "osm_id": "1959492746", "name": "Jannat Boutique", "other_tags": "\"shop\"=>\"clothes\"" }, "geometry": { "type": "Point", "coordinates": [ -1.9014119, 53.8702328 ] } },
	{ "type": "Feature", "properties": { "osm_id": "1959492752", "name": "Maria", "other_tags": "\"shop\"=>\"clothes\"" }, "geometry": { "type": "Point", "coordinates": [ -1.9017339, 53.8703047 ] } },
	{ "type": "Feature", "properties": { "osm_id": "1959492756", "name": "Mughal Boutique", "other_tags": "\"shop\"=>\"clothes\",\"wheelchair\"=>\"limited\"" }, "geometry": { "type": "Point", "coordinates": [ -1.9001762, 53.8699808 ] } },
	{ "type": "Feature", "properties": { "osm_id": "2091013189", "name": "Hugo Boss", "other_tags": "\"shop\"=>\"clothes\",\"brand\"=>\"Hugo Boss\",\"old_name\"=>\"The Dutchess\",\"addr:city\"=>\"Leeds\",\"short_name\"=>\"Boss\",\"addr:street\"=>\"Vicar Lane\",\"addr:postcode\"=>\"LS1 6QA\",\"brand:wikidata\"=>\"Q491627\",\"brand:wikipedia\"=>\"en:Hugo Boss\",\"addr:housenumber\"=>\"71-75\"" }, "geometry": { "type": "Point", "coordinates": [ -1.5401437, 53.7984455 ] } },
	{ "type": "Feature", "properties": { "osm_id": "2091013202", "name": "White Stuff", "other_tags": "\"shop\"=>\"clothes\",\"brand\"=>\"White Stuff\",\"addr:city\"=>\"Leeds\",\"addr:street\"=>\"Vicar Lane\",\"addr:postcode\"=>\"LS1 7JH\",\"brand:wikidata\"=>\"Q7995442\",\"brand:wikipedia\"=>\"en:White Stuff Clothing\",\"addr:housenumber\"=>\"60-64\"" }, "geometry": { "type": "Point", "coordinates": [ -1.5398736, 53.7980251 ] } },
	{ "type": "Feature", "properties": { "osm_id": "2098303575", "name": "Flannels", "other_tags": "\"shop\"=>\"clothes\",\"addr:city\"=>\"Leeds\",\"addr:street\"=>\"Vicar Lane\",\"addr:postcode\"=>\"LS1 7JH\",\"addr:housenumber\"=>\"68-78\"" }, "geometry": { "type": "Point", "coordinates": [ -1.5397253, 53.7983267 ] } },
	{ "type": "Feature", "properties": { "osm_id": "2125610501", "name": "Best", "other_tags": "\"shop\"=>\"clothes\",\"addr:city\"=>\"Leeds\",\"addr:street\"=>\"New Market Street\",\"addr:housenumber\"=>\"22-24\"" }, "geometry": { "type": "Point", "coordinates": [ -1.5410651, 53.7962165 ] } },
	{ "type": "Feature", "properties": { "osm_id": "2125610581", "name": "Ryan Vintage", "other_tags": "\"shop\"=>\"clothes\"" }, "geometry": { "type": "Point", "coordinates": [ -1.5415149, 53.7961008 ] } },
	{ "type": "Feature", "properties": { "osm_id": "2128107736", "name": "Rohan", "other_tags": "\"shop\"=>\"clothes\",\"addr:city\"=>\"Leeds\",\"addr:street\"=>\"Thornton's Arcade\",\"addr:postcode\"=>\"LS1 6LQ\",\"addr:housenumber\"=>\"10-12\"" }, "geometry": { "type": "Point", "coordinates": [ -1.5426306, 53.7987243 ] } },
	{ "type": "Feature", "properties": { "osm_id": "2128107741", "name": "The Hip Store", "other_tags": "\"shop\"=>\"clothes\",\"phone\"=>\"+44 113 246 0347\",\"website\"=>\"https:\/\/www.thehipstore.co.uk\/\",\"addr:city\"=>\"Leeds\",\"addr:street\"=>\"Vicar Lane\",\"addr:postcode\"=>\"LS1 6DS\",\"addr:housenumber\"=>\"49-51\"" }, "geometry": { "type": "Point", "coordinates": [ -1.5405615, 53.7975362 ] } },
	{ "type": "Feature", "properties": { "osm_id": "2140301912", "name": "Bravissimo", "other_tags": "\"shop\"=>\"clothes\",\"addr:city\"=>\"Leeds\",\"addr:street\"=>\"Cross Arcade\",\"addr:postcode\"=>\"LS1 6AZ\",\"addr:housenumber\"=>\"6-8\"" }, "geometry": { "type": "Point", "coordinates": [ -1.5409436, 53.7979392 ] } },
	{ "type": "Feature", "properties": { "osm_id": "2140301913", "name": "Paul Smith", "other_tags": "\"shop\"=>\"clothes\",\"addr:city\"=>\"Leeds\",\"addr:street\"=>\"King Edward Street\",\"addr:postcode\"=>\"LS1 6AX\",\"addr:housenumber\"=>\"17-19\"" }, "geometry": { "type": "Point", "coordinates": [ -1.5409465, 53.7977781 ] } },
	{ "type": "Feature", "properties": { "osm_id": "2140301914", "name": "Ted Baker", "other_tags": "\"shop\"=>\"clothes\",\"brand\"=>\"Ted Baker\",\"addr:city\"=>\"Leeds\",\"addr:street\"=>\"Queen Victoria Street\",\"addr:postcode\"=>\"LS1 6BD\",\"brand:wikidata\"=>\"Q2913458\",\"brand:wikipedia\"=>\"en:Ted Baker\",\"addr:housenumber\"=>\"23-25\"" }, "geometry": { "type": "Point", "coordinates": [ -1.5408482, 53.7980331 ] } },
	{ "type": "Feature", "properties": { "osm_id": "2142553146", "name": "Blue Rinse", "other_tags": "\"shop\"=>\"clothes\",\"addr:city\"=>\"Leeds\",\"addr:street\"=>\"Call Lane\"" }, "geometry": { "type": "Point", "coordinates": [ -1.5399711, 53.7962754 ] } },
	{ "type": "Feature", "properties": { "osm_id": "2144729430", "name": "New Look", "other_tags": "\"shop\"=>\"clothes\",\"brand\"=>\"New Look\",\"brand:wikidata\"=>\"Q12063852\",\"brand:wikipedia\"=>\"en:New Look (company)\"" }, "geometry": { "type": "Point", "coordinates": [ -1.5442429, 53.7992206 ] } },
	{ "type": "Feature", "properties": { "osm_id": "2195805644", "name": "USC", "other_tags": "\"brand\"=>\"USC\",\"brand:wikidata\"=>\"Q7866331\",\"brand:wikipedia\"=>\"en:USC (clothing retailer)\",\"shop\"=>\"clothes\"" }, "geometry": { "type": "Point", "coordinates": [ -1.7551731, 53.8015873 ] } },
	{ "type": "Feature", "properties": { "osm_id": "2195805657", "other_tags": "\"shop\"=>\"clothes\"" }, "geometry": { "type": "Point", "coordinates": [ -1.7577426, 53.796464 ] } },
	{ "type": "Feature", "properties": { "osm_id": "2212648134", "name": "Superdry", "other_tags": "\"shop\"=>\"clothes\",\"brand\"=>\"Superdry\",\"brand:wikidata\"=>\"Q1684445\",\"brand:wikipedia\"=>\"en:Superdry\"" }, "geometry": { "type": "Point", "coordinates": [ -1.544969, 53.7964543 ] } },
	{ "type": "Feature", "properties": { "osm_id": "2212648187", "name": "River Island", "other_tags": "\"shop\"=>\"clothes\",\"brand\"=>\"River Island\",\"addr:city\"=>\"Leeds\",\"addr:street\"=>\"Briggate\",\"addr:postcode\"=>\"LS1 6HD\",\"brand:wikidata\"=>\"Q2670328\",\"brand:wikipedia\"=>\"en:River Island\",\"addr:housenumber\"=>\"36\"" }, "geometry": { "type": "Point", "coordinates": [ -1.542783, 53.7963656 ] } },
	{ "type": "Feature", "properties": { "osm_id": "2212648198", "name": "Urban Outfitters", "other_tags": "\"shop\"=>\"clothes\",\"brand\"=>\"Urban Outfitters\",\"brand:wikidata\"=>\"Q3552193\",\"brand:wikipedia\"=>\"en:Urban Outfitters\"" }, "geometry": { "type": "Point", "coordinates": [ -1.5440999, 53.7960567 ] } },
	{ "type": "Feature", "properties": { "osm_id": "2212678969", "name": "H&M", "other_tags": "\"shop\"=>\"clothes\",\"brand\"=>\"H&M\",\"brand:wikidata\"=>\"Q188326\",\"brand:wikipedia\"=>\"en:H&M\"" }, "geometry": { "type": "Point", "coordinates": [ -1.545545, 53.7966161 ] } },
	{ "type": "Feature", "properties": { "osm_id": "2212678973", "name": "Next", "other_tags": "\"shop\"=>\"clothes\",\"brand\"=>\"Next\",\"brand:wikidata\"=>\"Q246655\",\"brand:wikipedia\"=>\"en:Next plc\"" }, "geometry": { "type": "Point", "coordinates": [ -1.5443166, 53.7964133 ] } },
	{ "type": "Feature", "properties": { "osm_id": "2213576305", "name": "Hollister", "other_tags": "\"shop\"=>\"clothes\",\"brand\"=>\"Hollister\",\"official_name\"=>\"Hollister Co.\",\"brand:wikidata\"=>\"Q1257477\",\"brand:wikipedia\"=>\"en:Hollister Co.\"" }, "geometry": { "type": "Point", "coordinates": [ -1.5440964, 53.7966462 ] } },
	{ "type": "Feature", "properties": { "osm_id": "2353394451", "other_tags": "\"shop\"=>\"clothes\"" }, "geometry": { "type": "Point", "coordinates": [ -1.6888021, 53.9062092 ] } },
	{ "type": "Feature", "properties": { "osm_id": "2353473495", "name": "Silk Sisters", "other_tags": "\"shop\"=>\"clothes\",\"phone\"=>\"+44 1943 463353\",\"website\"=>\"www.silksisters.co.uk\",\"addr:city\"=>\"Otley\",\"is_in:town\"=>\"Otley\",\"addr:street\"=>\"Market Street\",\"addr:country\"=>\"GB\"" }, "geometry": { "type": "Point", "coordinates": [ -1.6932251, 53.905525 ] } },
	{ "type": "Feature", "properties": { "osm_id": "2353501509", "name": "Wedding Belles of Otley", "other_tags": "\"shop\"=>\"clothes\",\"website\"=>\"www.weddingbellesofotley.co.uk\",\"addr:street\"=>\"New Inn Court\",\"description\"=>\"Quality bridal wear & accessories\"" }, "geometry": { "type": "Point", "coordinates": [ -1.6936781, 53.9048992 ] } },
	{ "type": "Feature", "properties": { "osm_id": "2353531362", "other_tags": "\"shop\"=>\"clothes\"" }, "geometry": { "type": "Point", "coordinates": [ -1.6943784, 53.9046922 ] } },
	{ "type": "Feature", "properties": { "osm_id": "2353558009", "name": "Wild Thing", "other_tags": "\"shop\"=>\"clothes\"" }, "geometry": { "type": "Point", "coordinates": [ -1.6938608, 53.9042341 ] } },
	{ "type": "Feature", "properties": { "osm_id": "2353737752", "name": "Tabatha's Trendz", "other_tags": "\"shop\"=>\"clothes\",\"addr:city\"=>\"Otley\",\"addr:street\"=>\"Westgate\",\"description\"=>\"Ladies fashion. Sewing alteration & repairs.\"" }, "geometry": { "type": "Point", "coordinates": [ -1.6972294, 53.9044709 ] } },
	{ "type": "Feature", "properties": { "osm_id": "2571193605", "other_tags": "\"clothes\"=>\"wedding\",\"shop\"=>\"clothes\"" }, "geometry": { "type": "Point", "coordinates": [ -1.7222925, 53.8773072 ] } },
	{ "type": "Feature", "properties": { "osm_id": "2661206206", "name": "Backcountry UK", "other_tags": "\"shop\"=>\"clothes\",\"clothes\"=>\"outsoor\"" }, "geometry": { "type": "Point", "coordinates": [ -1.822436, 53.9263064 ] } },
	{ "type": "Feature", "properties": { "osm_id": "3057247701", "name": "Rag Doll of Pudsey", "other_tags": "\"shop\"=>\"clothes\",\"addr:city\"=>\"Pudsey\",\"addr:street\"=>\"Galloway Lane\",\"addr:postcode\"=>\"LS28 8LE\",\"addr:housenumber\"=>\"76\"" }, "geometry": { "type": "Point", "coordinates": [ -1.6897951, 53.8008212 ] } },
	{ "type": "Feature", "properties": { "osm_id": "3073182159", "name": "Uniformitry", "other_tags": "\"shop\"=>\"clothes\",\"phone\"=>\"+44 113 256 6020\",\"addr:city\"=>\"Farsley\",\"addr:street\"=>\"New Street\",\"addr:housenumber\"=>\"5\"" }, "geometry": { "type": "Point", "coordinates": [ -1.6723188, 53.8112816 ] } },
	{ "type": "Feature", "properties": { "osm_id": "3155299679", "name": "Peacocks", "other_tags": "\"shop\"=>\"clothes\"" }, "geometry": { "type": "Point", "coordinates": [ -1.6762534, 53.7083754 ] } },
	{ "type": "Feature", "properties": { "osm_id": "3518087594", "name": "Almond", "other_tags": "\"shop\"=>\"clothes\",\"clothes\"=>\"women\"" }, "geometry": { "type": "Point", "coordinates": [ -1.7858042, 53.570347 ] } },
	{ "type": "Feature", "properties": { "osm_id": "3621975746", "name": "Reiss", "other_tags": "\"shop\"=>\"clothes\",\"brand\"=>\"Reiss\",\"website\"=>\"https:\/\/www.reiss.com\/\",\"addr:city\"=>\"Leeds\",\"addr:street\"=>\"County Arcade\",\"addr:postcode\"=>\"LS1 6BH\",\"brand:wikidata\"=>\"Q7310479\",\"brand:wikipedia\"=>\"en:Reiss (brand)\",\"addr:housenumber\"=>\"26-28\"" }, "geometry": { "type": "Point", "coordinates": [ -1.5409442, 53.7984122 ] } },
	{ "type": "Feature", "properties": { "osm_id": "3621975750", "name": "Vivienne Westwood", "other_tags": "\"shop\"=>\"clothes\",\"website\"=>\"https:\/\/www.viviennewestwood.com\/\",\"addr:city\"=>\"Leeds\",\"addr:street\"=>\"County Arcade\",\"addr:postcode\"=>\"LS1 6BW\",\"addr:housenumber\"=>\"11-17\"" }, "geometry": { "type": "Point", "coordinates": [ -1.5413462, 53.7983088 ] } },
	{ "type": "Feature", "properties": { "osm_id": "3660968673", "name": "Coldspring Mill", "other_tags": "\"shop\"=>\"clothes\"" }, "geometry": { "type": "Point", "coordinates": [ -1.9115041, 53.8211105 ] } },
	{ "type": "Feature", "properties": { "osm_id": "3715263092", "name": "Farouche", "other_tags": "\"shop\"=>\"clothes\",\"addr:city\"=>\"Rawdon\",\"addr:street\"=>\"Harrogate Road\"" }, "geometry": { "type": "Point", "coordinates": [ -1.6842609, 53.8543587 ] } },
	{ "type": "Feature", "properties": { "osm_id": "3715282329", "name": "Bridal Apparel", "other_tags": "\"shop\"=>\"clothes\",\"phone\"=>\"+44 113 250 1616\",\"website\"=>\"https:\/\/www.bridalapparelleeds.co.uk\/\",\"addr:city\"=>\"Rawdon\",\"addr:street\"=>\"Harrogate Road\",\"addr:postcode\"=>\"LS19 6HW\",\"addr:housenumber\"=>\"15\"" }, "geometry": { "type": "Point", "coordinates": [ -1.6848443, 53.8539247 ] } },
	{ "type": "Feature", "properties": { "osm_id": "3718207674", "name": "New Collection", "other_tags": "\"addr:city\"=>\"Yeadon\",\"addr:street\"=>\"High Street\",\"shop\"=>\"clothes\"" }, "geometry": { "type": "Point", "coordinates": [ -1.684724, 53.8661948 ] } },
	{ "type": "Feature", "properties": { "osm_id": "3886416680", "name": "Harriet's", "other_tags": "\"shop\"=>\"clothes\",\"phone\"=>\"+44 113 239 0399\",\"website\"=>\"http:\/\/www.harrietsclothing.co.uk\/\",\"addr:city\"=>\"Leeds\",\"addr:street\"=>\"Town Street\",\"addr:suburb\"=>\"Horsforth\",\"addr:postcode\"=>\"LS18 4AP\",\"addr:housenumber\"=>\"66\"" }, "geometry": { "type": "Point", "coordinates": [ -1.6395376, 53.8384363 ] } },
	{ "type": "Feature", "properties": { "osm_id": "3887784748", "name": "Mini Mee's", "other_tags": "\"shop\"=>\"clothes\",\"website\"=>\"https:\/\/www.facebook.com\/Mini-Mees-1417529315186147\",\"addr:city\"=>\"Leeds\",\"addr:street\"=>\"Town Street\",\"addr:suburb\"=>\"Horsforth\",\"addr:postcode\"=>\"LS18 4AP\",\"addr:housenumber\"=>\"100\"" }, "geometry": { "type": "Point", "coordinates": [ -1.6380081, 53.839572 ] } },
	{ "type": "Feature", "properties": { "osm_id": "3892020075", "name": "Amelia Elliott Bridal", "other_tags": "\"shop\"=>\"clothes\",\"phone\"=>\"+44 113 258 2783\",\"website\"=>\"http:\/\/www.ameliaelliott.co.uk\/\",\"addr:city\"=>\"Leeds\",\"addr:street\"=>\"Town Street\",\"addr:suburb\"=>\"Horsforth\",\"addr:postcode\"=>\"LS18 5BL\",\"opening_hours\"=>\"Mo-Fr 10:00-16:00; Sa 10:00-17:00; Su Closed\",\"addr:housenumber\"=>\"121\"" }, "geometry": { "type": "Point", "coordinates": [ -1.6374153, 53.840099 ] } },
	{ "type": "Feature", "properties": { "osm_id": "3892414281", "name": "Dressie Boutique", "other_tags": "\"addr:city\"=>\"Leeds\",\"addr:housenumber\"=>\"164\",\"addr:postcode\"=>\"LS18 4AQ\",\"addr:street\"=>\"Town Street\",\"addr:suburb\"=>\"Horsforth\",\"opening_hours\"=>\"Tu 11:00-15:00; Th 11:00-15:00; Fr 11:00-15:00; Sa 11:00-15:00\",\"phone\"=>\"+44 113 318 4683\",\"shop\"=>\"clothes\",\"website\"=>\"https:\/\/www.facebook.com\/Dressie-B-Horsforth-1547982788803939\"" }, "geometry": { "type": "Point", "coordinates": [ -1.6360364, 53.8411583 ] } },
	{ "type": "Feature", "properties": { "osm_id": "3901161760", "name": "Sophie's Choice", "other_tags": "\"shop\"=>\"clothes\",\"phone\"=>\"+44 113 258 8881\",\"addr:city\"=>\"Horsforth\",\"addr:street\"=>\"New Road Side\",\"addr:postcode\"=>\"LS18 4DR\",\"addr:housenumber\"=>\"159\"" }, "geometry": { "type": "Point", "coordinates": [ -1.644706, 53.8321781 ] } },
	{ "type": "Feature", "properties": { "osm_id": "3901161761", "name": "Cash4Clothes", "other_tags": "\"shop\"=>\"clothes\",\"addr:city\"=>\"Horsforth\",\"addr:street\"=>\"New Road Side\",\"addr:postcode\"=>\"LS18 4DR\",\"addr:housenumber\"=>\"157\"" }, "geometry": { "type": "Point", "coordinates": [ -1.6446213, 53.8321676 ] } },
	{ "type": "Feature", "properties": { "osm_id": "3904761987", "name": "Nicola Jane", "other_tags": "\"shop\"=>\"clothes\",\"website\"=>\"https:\/\/www.nicolajane.com\/leeds-shop\/\",\"addr:city\"=>\"Horsforth\",\"addr:street\"=>\"New Road Side\",\"addr:postcode\"=>\"LS18 4QD\",\"opening_hours\"=>\"Mo-Sa 09:30-17:00; Su Closed\",\"addr:housenumber\"=>\"97\"" }, "geometry": { "type": "Point", "coordinates": [ -1.6417916, 53.8319934 ] } },
	{ "type": "Feature", "properties": { "osm_id": "3904772961", "name": "Oaks", "other_tags": "\"shop\"=>\"clothes\",\"phone\"=>\"+44 113 239 0333\",\"addr:city\"=>\"Horsforth\",\"addr:street\"=>\"New Road Side\",\"addr:postcode\"=>\"LS18 4QD\",\"addr:housenumber\"=>\"83\"" }, "geometry": { "type": "Point", "coordinates": [ -1.6410483, 53.8319456 ] } },
	{ "type": "Feature", "properties": { "osm_id": "3934263614", "name": "Paradise Grove", "other_tags": "\"shop\"=>\"clothes\",\"addr:city\"=>\"Horsforth\",\"addr:street\"=>\"Paradise Place\",\"addr:postcode\"=>\"LS18 4RN\",\"addr:housenumber\"=>\"27\"" }, "geometry": { "type": "Point", "coordinates": [ -1.6189911, 53.8355808 ] } },
	{ "type": "Feature", "properties": { "osm_id": "4353989162", "name": "Ashworth & Bird", "other_tags": "\"shop\"=>\"clothes\",\"website\"=>\"https:\/\/www.ashworthandbird.com\/\",\"addr:city\"=>\"Wakefield\",\"addr:street\"=>\"Cross Square\",\"addr:housenumber\"=>\"13-17\"" }, "geometry": { "type": "Point", "coordinates": [ -1.4988524, 53.6828565 ] } },
	{ "type": "Feature", "properties": { "osm_id": "4353989290", "name": "Peters", "other_tags": "\"shop\"=>\"clothes\",\"addr:city\"=>\"Wakefield\",\"addr:street\"=>\"Brook Street\",\"addr:postcode\"=>\"WF1 1QW\",\"addr:housenumber\"=>\"33-35\"" }, "geometry": { "type": "Point", "coordinates": [ -1.4967086, 53.6841726 ] } },
	{ "type": "Feature", "properties": { "osm_id": "4413109076", "name": "Bridal Reloved", "other_tags": "\"shop\"=>\"clothes\",\"website\"=>\"https:\/\/bridalreloved.co.uk\/\",\"addr:city\"=>\"Wakefield\",\"addr:street\"=>\"Wood Street\",\"addr:postcode\"=>\"WF1 2ED\",\"addr:housenumber\"=>\"24\"" }, "geometry": { "type": "Point", "coordinates": [ -1.500018, 53.6835463 ] } },
	{ "type": "Feature", "properties": { "osm_id": "4414777795", "name": "Dress2Party", "other_tags": "\"shop\"=>\"clothes\",\"addr:city\"=>\"Wakefield\",\"addr:street\"=>\"Northgate\",\"addr:postcode\"=>\"WF1 3BP\",\"addr:housenumber\"=>\"57\"" }, "geometry": { "type": "Point", "coordinates": [ -1.4999083, 53.6845074 ] } },
	{ "type": "Feature", "properties": { "osm_id": "4602768928", "name": "Yorkshire Menswear", "other_tags": "\"shop\"=>\"clothes\"" }, "geometry": { "type": "Point", "coordinates": [ -1.6629175, 53.8231128 ] } },
	{ "type": "Feature", "properties": { "osm_id": "4636108674", "name": "Fat Face", "other_tags": "\"brand\"=>\"Fat Face\",\"brand:wikidata\"=>\"Q5437186\",\"brand:wikipedia\"=>\"en:Fat Face\",\"shop\"=>\"clothes\"" }, "geometry": { "type": "Point", "coordinates": [ -2.0132507, 53.741658 ] } },
	{ "type": "Feature", "properties": { "osm_id": "4653490142", "name": "Cats", "other_tags": "\"shop\"=>\"clothes\",\"second_hand\"=>\"only\"" }, "geometry": { "type": "Point", "coordinates": [ -1.4512422, 53.8073106 ] } },
	{ "type": "Feature", "properties": { "osm_id": "4885695945", "name": "Select", "other_tags": "\"shop\"=>\"clothes\"" }, "geometry": { "type": "Point", "coordinates": [ -1.544226, 53.8010395 ] } },
	{ "type": "Feature", "properties": { "osm_id": "4951726045", "name": "USC", "other_tags": "\"brand\"=>\"USC\",\"brand:wikidata\"=>\"Q7866331\",\"brand:wikipedia\"=>\"en:USC (clothing retailer)\",\"shop\"=>\"clothes\"" }, "geometry": { "type": "Point", "coordinates": [ -1.781345, 53.6440407 ] } },
	{ "type": "Feature", "properties": { "osm_id": "4951726046", "name": "Dorothy Perkins", "other_tags": "\"brand\"=>\"Dorothy Perkins\",\"brand:wikidata\"=>\"Q5298588\",\"brand:wikipedia\"=>\"en:Dorothy Perkins\",\"shop\"=>\"clothes\"" }, "geometry": { "type": "Point", "coordinates": [ -1.7821254, 53.6440243 ] } },
	{ "type": "Feature", "properties": { "osm_id": "4951726047", "name": "Evans", "other_tags": "\"brand\"=>\"Evans\",\"brand:wikidata\"=>\"Q5415877\",\"brand:wikipedia\"=>\"en:Evans (retailer)\",\"clothes\"=>\"women\",\"shop\"=>\"clothes\"" }, "geometry": { "type": "Point", "coordinates": [ -1.7819556, 53.6441397 ] } },
	{ "type": "Feature", "properties": { "osm_id": "4969745011", "name": "H&M", "other_tags": "\"shop\"=>\"clothes\",\"brand\"=>\"H&M\",\"addr:city\"=>\"Huddersfield\",\"addr:street\"=>\"Kingsgate Centre\",\"addr:postcode\"=>\"HD1 2QB\",\"brand:wikidata\"=>\"Q188326\",\"brand:wikipedia\"=>\"en:H&M\"" }, "geometry": { "type": "Point", "coordinates": [ -1.7781878, 53.6455801 ] } },
	{ "type": "Feature", "properties": { "osm_id": "4969745014", "name": "Roman", "other_tags": "\"addr:city\"=>\"Huddersfield\",\"addr:postcode\"=>\"HD1 2QB\",\"addr:street\"=>\"Kingsgate Centre\",\"shop\"=>\"clothes\"" }, "geometry": { "type": "Point", "coordinates": [ -1.7785601, 53.6458941 ] } },
	{ "type": "Feature", "properties": { "osm_id": "4969745016", "name": "Next", "other_tags": "\"shop\"=>\"clothes\",\"brand\"=>\"Next\",\"addr:city\"=>\"Huddersfield\",\"addr:street\"=>\"Kingsgate Centre\",\"addr:postcode\"=>\"HD1 2QB\",\"brand:wikidata\"=>\"Q246655\",\"brand:wikipedia\"=>\"en:Next plc\"" }, "geometry": { "type": "Point", "coordinates": [ -1.7790408, 53.646259 ] } },
	{ "type": "Feature", "properties": { "osm_id": "5026332220", "name": "Imagine Dance & Theatrical Wear", "other_tags": "\"shop\"=>\"clothes\",\"website\"=>\"https:\/\/www.imaginewear.co.uk\/\",\"addr:city\"=>\"Wakefield\",\"addr:street\"=>\"Marygate\",\"addr:postcode\"=>\"WF1 1PA\",\"addr:housenumber\"=>\"1\"" }, "geometry": { "type": "Point", "coordinates": [ -1.4992623, 53.6826191 ] } },
	{ "type": "Feature", "properties": { "osm_id": "5071335020", "name": "River Island", "other_tags": "\"addr:city\"=>\"Huddersfield\",\"addr:postcode\"=>\"HD1 2QB\",\"addr:street\"=>\"Kingsgate Centre\",\"addr:unit\"=>\"4-5\",\"brand\"=>\"River Island\",\"brand:wikidata\"=>\"Q2670328\",\"brand:wikipedia\"=>\"en:River Island\",\"shop\"=>\"clothes\"" }, "geometry": { "type": "Point", "coordinates": [ -1.7798577, 53.6460779 ] } },
	{ "type": "Feature", "properties": { "osm_id": "5071335227", "name": "Topshop Topman", "other_tags": "\"addr:city\"=>\"Huddersfield\",\"addr:postcode\"=>\"HD1 2QB\",\"addr:street\"=>\"Kingsgate Centre\",\"shop\"=>\"clothes\"" }, "geometry": { "type": "Point", "coordinates": [ -1.778769, 53.6458159 ] } },
	{ "type": "Feature", "properties": { "osm_id": "5071335229", "name": "Suitdirect", "other_tags": "\"addr:city\"=>\"Huddersfield\",\"addr:postcode\"=>\"HD1 2QB\",\"addr:street\"=>\"Kingsgate Centre\",\"shop\"=>\"clothes\"" }, "geometry": { "type": "Point", "coordinates": [ -1.778911, 53.6459529 ] } },
	{ "type": "Feature", "properties": { "osm_id": "5071349015", "name": "Peter's of Huddersfield", "other_tags": "\"shop\"=>\"clothes\",\"addr:city\"=>\"Huddersfield\",\"addr:street\"=>\"Packhorse Centre\"" }, "geometry": { "type": "Point", "coordinates": [ -1.7813284, 53.6465578 ] } },
	{ "type": "Feature", "properties": { "osm_id": "5071542356", "name": "Bonmarché", "other_tags": "\"addr:city\"=>\"Huddersfield\",\"addr:housenumber\"=>\"56\",\"addr:postcode\"=>\"HD1 2BW\",\"addr:street\"=>\"New Street\",\"brand\"=>\"Bonmarché\",\"brand:wikidata\"=>\"Q4942146\",\"brand:wikipedia\"=>\"en:Bonmarché\",\"shop\"=>\"clothes\"" }, "geometry": { "type": "Point", "coordinates": [ -1.7833547, 53.6447814 ] } },
	{ "type": "Feature", "properties": { "osm_id": "5139532435", "name": "Slaters", "other_tags": "\"shop\"=>\"clothes\",\"brand\"=>\"Slaters\",\"phone\"=>\"+44 113 234 9933\",\"clothes\"=>\"suits\",\"website\"=>\"https:\/\/www.slaters.co.uk\/store-locator\/slaters-leeds\/\",\"addr:city\"=>\"Leeds\",\"wikipedia\"=>\"en:Slater menswear\",\"wheelchair\"=>\"yes\",\"addr:street\"=>\"Albion Street\",\"addr:postcode\"=>\"LS1 5AP\",\"opening_hours\"=>\"Mo-We 08:30-17:30; Th 08:30-19:30; Fr-Sa 08:30-17:30; Su 11:00-16:00\",\"brand:wikidata\"=>\"Q7538912\",\"brand:wikipedia\"=>\"en:Slater Menswear\",\"addr:housenumber\"=>\"83\"" }, "geometry": { "type": "Point", "coordinates": [ -1.5452485, 53.7985639 ] } },
	{ "type": "Feature", "properties": { "osm_id": "5296592028", "name": "Damsell Dancewear", "other_tags": "\"shop\"=>\"clothes\",\"clothes\"=>\"dancewear\"" }, "geometry": { "type": "Point", "coordinates": [ -1.6717753, 53.8114213 ] } },
	{ "type": "Feature", "properties": { "osm_id": "5311505827", "name": "The Boutique", "other_tags": "\"clothes\"=>\"wedding\",\"shop\"=>\"clothes\"" }, "geometry": { "type": "Point", "coordinates": [ -1.6936085, 53.9061 ] } },
	{ "type": "Feature", "properties": { "osm_id": "5422663138", "name": "Peacocks", "other_tags": "\"addr:city\"=>\"Leeds\",\"addr:housename\"=>\"The Merrion Centre\",\"addr:postcode\"=>\"LS2 8NG\",\"addr:unit\"=>\"16-18\",\"brand\"=>\"Peacocks\",\"brand:wikidata\"=>\"Q7157762\",\"brand:wikipedia\"=>\"en:Peacocks (clothing)\",\"contact:website\"=>\"https:\/\/www.peacocks.co.uk\/store-finder\/index\/storeDetail\/id\/493\/\",\"shop\"=>\"clothes\"" }, "geometry": { "type": "Point", "coordinates": [ -1.5440203, 53.8013724 ] } },
	{ "type": "Feature", "properties": { "osm_id": "5422663144", "name": "Bonmarché", "other_tags": "\"shop\"=>\"clothes\",\"brand\"=>\"Bonmarché\",\"addr:city\"=>\"Leeds\",\"addr:unit\"=>\"36-40\",\"addr:postcode\"=>\"LS2 8NG\",\"addr:housename\"=>\"The Merrion Centre\",\"brand:wikidata\"=>\"Q4942146\",\"brand:wikipedia\"=>\"en:Bonmarché\"" }, "geometry": { "type": "Point", "coordinates": [ -1.5441893, 53.801713 ] } },
	{ "type": "Feature", "properties": { "osm_id": "5452280958", "name": "New Look", "other_tags": "\"brand\"=>\"New Look\",\"brand:wikidata\"=>\"Q12063852\",\"brand:wikipedia\"=>\"en:New Look (company)\",\"shop\"=>\"clothes\"" }, "geometry": { "type": "Point", "coordinates": [ -1.8570355, 53.7233166 ] } },
	{ "type": "Feature", "properties": { "osm_id": "5452280959", "name": "Topshop", "other_tags": "\"brand\"=>\"Topshop\",\"brand:wikidata\"=>\"Q1893576\",\"brand:wikipedia\"=>\"en:Topshop\",\"clothes\"=>\"women\",\"shop\"=>\"clothes\"" }, "geometry": { "type": "Point", "coordinates": [ -1.8572286, 53.7232864 ] } },
	{ "type": "Feature", "properties": { "osm_id": "5452280970", "name": "River Island", "other_tags": "\"brand\"=>\"River Island\",\"brand:wikidata\"=>\"Q2670328\",\"brand:wikipedia\"=>\"en:River Island\",\"shop\"=>\"clothes\"" }, "geometry": { "type": "Point", "coordinates": [ -1.858618, 53.723407 ] } },
	{ "type": "Feature", "properties": { "osm_id": "5469277355", "name": "Miss Chief", "other_tags": "\"shop\"=>\"clothes\"" }, "geometry": { "type": "Point", "coordinates": [ -1.8576604, 53.722869 ] } },
	{ "type": "Feature", "properties": { "osm_id": "5469277357", "name": "Peacocks", "other_tags": "\"brand\"=>\"Peacocks\",\"brand:wikidata\"=>\"Q7157762\",\"brand:wikipedia\"=>\"en:Peacocks (clothing)\",\"contact:website\"=>\"https:\/\/www.peacocks.co.uk\/store-finder\/index\/storeDetail\/id\/418\/\",\"shop\"=>\"clothes\"" }, "geometry": { "type": "Point", "coordinates": [ -1.8572393, 53.7226341 ] } },
	{ "type": "Feature", "properties": { "osm_id": "5469277358", "name": "Kelly's Boutique", "other_tags": "\"shop\"=>\"clothes\"" }, "geometry": { "type": "Point", "coordinates": [ -1.8573118, 53.7227278 ] } },
	{ "type": "Feature", "properties": { "osm_id": "5569969821", "name": "Uptown Boutique", "other_tags": "\"shop\"=>\"clothes\"" }, "geometry": { "type": "Point", "coordinates": [ -1.8585643, 53.7217803 ] } },
	{ "type": "Feature", "properties": { "osm_id": "5569969830", "name": "Dorothy Perkins", "other_tags": "\"brand\"=>\"Dorothy Perkins\",\"brand:wikidata\"=>\"Q5298588\",\"brand:wikipedia\"=>\"en:Dorothy Perkins\",\"shop\"=>\"clothes\"" }, "geometry": { "type": "Point", "coordinates": [ -1.8583497, 53.7220771 ] } },
	{ "type": "Feature", "properties": { "osm_id": "5572259413", "name": "Uniform Shop", "other_tags": "\"shop\"=>\"clothes\"" }, "geometry": { "type": "Point", "coordinates": [ -1.8581834, 53.7213597 ] } },
	{ "type": "Feature", "properties": { "osm_id": "5626680391", "name": "Louise Perry Bridal", "other_tags": "\"shop\"=>\"clothes\",\"clothes\"=>\"wedding\",\"website\"=>\"https:\/\/www.louiseperrybridal.co.uk\/\",\"opening_hours\"=>\"Mo 11:00-16:00; Fr 10:00-16:00; Sa 10:30-17:00\"" }, "geometry": { "type": "Point", "coordinates": [ -1.7908938, 53.8376215 ] } },
	{ "type": "Feature", "properties": { "osm_id": "5632562238", "name": "Dolls Boutique", "other_tags": "\"shop\"=>\"clothes\",\"addr:city\"=>\"Leeds\",\"addr:unit\"=>\"10a\",\"addr:street\"=>\"The Headrow\",\"addr:postcode\"=>\"LS1 8TL\",\"addr:housename\"=>\"The Light\"" }, "geometry": { "type": "Point", "coordinates": [ -1.5460065, 53.7998873 ] } },
	{ "type": "Feature", "properties": { "osm_id": "5648164592", "name": "Officers Club", "other_tags": "\"shop\"=>\"clothes\",\"level\"=>\"1\",\"addr:city\"=>\"Leeds\",\"addr:street\"=>\"Albion Street\",\"addr:postcode\"=>\"LS2 8LQ\",\"addr:housename\"=>\"St Johns Centre\",\"addr:housenumber\"=>\"110-118\"" }, "geometry": { "type": "Point", "coordinates": [ -1.5440968, 53.8005186 ] } },
	{ "type": "Feature", "properties": { "osm_id": "5648164597", "name": "Yours Clothing", "other_tags": "\"addr:city\"=>\"Leeds\",\"addr:housename\"=>\"St Johns Centre\",\"addr:housenumber\"=>\"110-118\",\"addr:postcode\"=>\"LS2 8LQ\",\"addr:street\"=>\"Albion Street\",\"brand\"=>\"Yours Clothing\",\"brand:wikidata\"=>\"Q84163322\",\"clothes\"=>\"women\",\"level\"=>\"0\",\"shop\"=>\"clothes\"" }, "geometry": { "type": "Point", "coordinates": [ -1.5439801, 53.7999301 ] } },
	{ "type": "Feature", "properties": { "osm_id": "5648164598", "name": "Roman", "other_tags": "\"shop\"=>\"clothes\",\"level\"=>\"0\",\"addr:city\"=>\"Leeds\",\"addr:street\"=>\"Albion Street\",\"addr:postcode\"=>\"LS2 8LQ\",\"addr:housename\"=>\"St Johns Centre\",\"addr:housenumber\"=>\"110-118\"" }, "geometry": { "type": "Point", "coordinates": [ -1.5437749, 53.7999277 ] } },
	{ "type": "Feature", "properties": { "osm_id": "5648164599", "name": "Shout", "other_tags": "\"shop\"=>\"clothes\",\"level\"=>\"0\",\"addr:city\"=>\"Leeds\",\"addr:street\"=>\"Albion Street\",\"addr:postcode\"=>\"LS2 8LQ\",\"addr:housename\"=>\"St Johns Centre\",\"addr:housenumber\"=>\"110-118\"" }, "geometry": { "type": "Point", "coordinates": [ -1.5437716, 53.799991 ] } },
	{ "type": "Feature", "properties": { "osm_id": "5700048221", "name": "The Shuttle", "other_tags": "\"shop\"=>\"clothes\"" }, "geometry": { "type": "Point", "coordinates": [ -1.7736368, 53.8369487 ] } },
	{ "type": "Feature", "properties": { "osm_id": "5711983937", "name": "Amour de Femme Lingerie", "other_tags": "\"shop\"=>\"clothes\",\"addr:city\"=>\"Bingley\",\"addr:street\"=>\"Main Street\",\"addr:postcode\"=>\"BD16 2JA\",\"addr:housenumber\"=>\"87\"" }, "geometry": { "type": "Point", "coordinates": [ -1.8384484, 53.8490727 ] } },
	{ "type": "Feature", "properties": { "osm_id": "5754417060", "name": "Hype", "other_tags": "\"shop\"=>\"clothes\",\"level\"=>\"1\",\"addr:city\"=>\"Wakefield\",\"addr:unit\"=>\"53\",\"addr:street\"=>\"Bishopgate Walk The Ridings Centre\",\"addr:postcode\"=>\"WF1 1YB\"" }, "geometry": { "type": "Point", "coordinates": [ -1.4973995, 53.6819908 ] } },
	{ "type": "Feature", "properties": { "osm_id": "5754417071", "name": "Primark", "other_tags": "\"addr:city\"=>\"Wakefield\",\"addr:country\"=>\"GB\",\"addr:postcode\"=>\"WF1 1YB\",\"addr:street\"=>\"Bishopgate Walk The Ridings Centre\",\"addr:unit\"=>\"56-62\",\"brand\"=>\"Primark\",\"brand:wikidata\"=>\"Q137023\",\"brand:wikipedia\"=>\"en:Primark\",\"contact:website\"=>\"https:\/\/stores.primark.com\/united-kingdom\/wakefield\/57-58-bishopsgate-walk\",\"level\"=>\"1\",\"shop\"=>\"clothes\",\"wheelchair\"=>\"yes\"" }, "geometry": { "type": "Point", "coordinates": [ -1.4977898, 53.6820617 ] } },
	{ "type": "Feature", "properties": { "osm_id": "5754417072", "name": "Morgana & Hellraiser", "other_tags": "\"shop\"=>\"clothes\",\"level\"=>\"1\",\"addr:city\"=>\"Wakefield\",\"addr:unit\"=>\"64\",\"wheelchair\"=>\"yes\",\"addr:street\"=>\"Bishopgate Walk The Ridings Centre\",\"addr:postcode\"=>\"WF1 1DS\"" }, "geometry": { "type": "Point", "coordinates": [ -1.4972797, 53.6817181 ] } },
	{ "type": "Feature", "properties": { "osm_id": "5754417077", "name": "Yours", "other_tags": "\"shop\"=>\"clothes\",\"level\"=>\"1\",\"addr:city\"=>\"Wakefield\",\"addr:unit\"=>\"67\",\"addr:street\"=>\"Bishopgate Walk The Ridings Centre\",\"addr:postcode\"=>\"WF1 1DS\"" }, "geometry": { "type": "Point", "coordinates": [ -1.4966637, 53.681733 ] } },
	{ "type": "Feature", "properties": { "osm_id": "5754417080", "name": "Peacocks", "other_tags": "\"addr:city\"=>\"Wakefield\",\"addr:postcode\"=>\"WF1 1YB\",\"addr:street\"=>\"Bishopgate Walk The Ridings Centre\",\"addr:unit\"=>\"74\",\"brand\"=>\"Peacocks\",\"brand:wikidata\"=>\"Q7157762\",\"brand:wikipedia\"=>\"en:Peacocks (clothing)\",\"contact:website\"=>\"https:\/\/www.peacocks.co.uk\/store-finder\/index\/storeDetail\/id\/461\/\",\"level\"=>\"1\",\"shop\"=>\"clothes\",\"wheelchair\"=>\"yes\"" }, "geometry": { "type": "Point", "coordinates": [ -1.4958814, 53.6817208 ] } },
	{ "type": "Feature", "properties": { "osm_id": "5918770662", "name": "New Collection", "other_tags": "\"shop\"=>\"clothes\",\"addr:city\"=>\"Leeds\",\"addr:street\"=>\"Harrogate Road\",\"addr:postcode\"=>\"LS7 4NY\",\"addr:housenumber\"=>\"124\"" }, "geometry": { "type": "Point", "coordinates": [ -1.5381068, 53.8297769 ] } },
	{ "type": "Feature", "properties": { "osm_id": "5940387580", "name": "Bridal Emporium", "other_tags": "\"shop\"=>\"clothes\",\"website\"=>\"https:\/\/www.the-bridal-emporium.com\/\",\"addr:city\"=>\"Leeds\",\"addr:street\"=>\"Grand Arcade\",\"addr:postcode\"=>\"LS1 6PG\",\"addr:housenumber\"=>\"4-5\"" }, "geometry": { "type": "Point", "coordinates": [ -1.5399788, 53.8001544 ] } },
	{ "type": "Feature", "properties": { "osm_id": "5940387584", "name": "Labels Designer Menswear", "other_tags": "\"shop\"=>\"clothes\",\"addr:city\"=>\"Leeds\",\"addr:street\"=>\"Grand Arcade\",\"addr:postcode\"=>\"LS1 6PG\",\"addr:housenumber\"=>\"13\"" }, "geometry": { "type": "Point", "coordinates": [ -1.5408117, 53.8002481 ] } },
	{ "type": "Feature", "properties": { "osm_id": "5941346393", "name": "Seraphine", "other_tags": "\"shop\"=>\"clothes\",\"addr:city\"=>\"Leeds\",\"addr:street\"=>\"Cross Arcade\",\"addr:postcode\"=>\"LS1 6AZ\",\"addr:housenumber\"=>\"10-12\"" }, "geometry": { "type": "Point", "coordinates": [ -1.5409586, 53.7978706 ] } },
	{ "type": "Feature", "properties": { "osm_id": "5941346394", "name": "Sweaty Betty", "other_tags": "\"shop\"=>\"clothes\",\"addr:city\"=>\"Leeds\",\"addr:street\"=>\"Cross Arcade\",\"addr:postcode\"=>\"LS1 6AZ\",\"addr:housenumber\"=>\"7-11\"" }, "geometry": { "type": "Point", "coordinates": [ -1.5411651, 53.7979055 ] } },
	{ "type": "Feature", "properties": { "osm_id": "5941346395", "name": "Farah", "other_tags": "\"shop\"=>\"clothes\",\"addr:city\"=>\"Leeds\",\"addr:street\"=>\"King Edward Street\",\"addr:postcode\"=>\"LS1 6AX\",\"addr:housenumber\"=>\"18\"" }, "geometry": { "type": "Point", "coordinates": [ -1.5408741, 53.7975704 ] } },
	{ "type": "Feature", "properties": { "osm_id": "5941346397", "name": "Jigsaw", "other_tags": "\"shop\"=>\"clothes\",\"brand\"=>\"Jigsaw\",\"addr:city\"=>\"Leeds\",\"addr:street\"=>\"King Edward Street\",\"addr:postcode\"=>\"LS1 6AX\",\"brand:wikidata\"=>\"Q6192383\",\"brand:wikipedia\"=>\"en:Jigsaw (clothing retailer)\",\"addr:housenumber\"=>\"23\"" }, "geometry": { "type": "Point", "coordinates": [ -1.54074, 53.7977629 ] } },
	{ "type": "Feature", "properties": { "osm_id": "5941346400", "name": "Diesel", "other_tags": "\"shop\"=>\"clothes\",\"brand\"=>\"Diesel\",\"addr:city\"=>\"Leeds\",\"addr:street\"=>\"King Edward Street\",\"addr:postcode\"=>\"LS1 6AX\",\"brand:wikidata\"=>\"Q158285\",\"brand:wikipedia\"=>\"en:Diesel (brand)\",\"addr:housenumber\"=>\"13-15\"" }, "geometry": { "type": "Point", "coordinates": [ -1.5412255, 53.7977986 ] } },
	{ "type": "Feature", "properties": { "osm_id": "5941346402", "name": "Pretty Green", "other_tags": "\"shop\"=>\"clothes\",\"addr:city\"=>\"Leeds\",\"addr:street\"=>\"King Edward Street\",\"addr:postcode\"=>\"LS1 6AX\",\"addr:housenumber\"=>\"9\"" }, "geometry": { "type": "Point", "coordinates": [ -1.5414695, 53.7978144 ] } },
	{ "type": "Feature", "properties": { "osm_id": "5941346403", "name": "Jack Wills", "other_tags": "\"shop\"=>\"clothes\",\"brand\"=>\"Jack Wills\",\"addr:city\"=>\"Leeds\",\"addr:street\"=>\"King Edward Street\",\"addr:postcode\"=>\"LS1 6AX\",\"brand:wikidata\"=>\"Q6115814\",\"brand:wikipedia\"=>\"en:Jack Wills\",\"addr:housenumber\"=>\"7\"" }, "geometry": { "type": "Point", "coordinates": [ -1.5415889, 53.7978247 ] } },
	{ "type": "Feature", "properties": { "osm_id": "5941346404", "name": "The North Face", "other_tags": "\"shop\"=>\"clothes\",\"brand\"=>\"The North Face\",\"alt_name\"=>\"North Face\",\"addr:city\"=>\"Leeds\",\"addr:street\"=>\"King Edward Street\",\"addr:postcode\"=>\"LS1 6AX\",\"brand:wikidata\"=>\"Q152784\",\"brand:wikipedia\"=>\"en:The North Face\",\"addr:housenumber\"=>\"5\"" }, "geometry": { "type": "Point", "coordinates": [ -1.5417096, 53.7978318 ] } },
	{ "type": "Feature", "properties": { "osm_id": "5941346410", "name": "AllSaints", "other_tags": "\"shop\"=>\"clothes\",\"brand\"=>\"AllSaints\",\"addr:city\"=>\"Leeds\",\"addr:street\"=>\"Queen Victoria Street\",\"addr:postcode\"=>\"LS1 6BD\",\"brand:wikidata\"=>\"Q4728473\",\"brand:wikipedia\"=>\"en:AllSaints\",\"addr:housenumber\"=>\"33-35\"" }, "geometry": { "type": "Point", "coordinates": [ -1.5406327, 53.7980156 ] } },
	{ "type": "Feature", "properties": { "osm_id": "5941346416", "name": "AllSaints", "other_tags": "\"shop\"=>\"clothes\",\"brand\"=>\"AllSaints\",\"addr:city\"=>\"Leeds\",\"addr:street\"=>\"Queen Victoria Street\",\"addr:postcode\"=>\"LS1 6BE\",\"brand:wikidata\"=>\"Q4728473\",\"brand:wikipedia\"=>\"en:AllSaints\",\"addr:housenumber\"=>\"30-32\"" }, "geometry": { "type": "Point", "coordinates": [ -1.5407266, 53.7982065 ] } },
	{ "type": "Feature", "properties": { "osm_id": "5941346422", "name": "Whistles", "other_tags": "\"shop\"=>\"clothes\",\"addr:city\"=>\"Leeds\",\"addr:street\"=>\"Queen Victoria Street\",\"addr:postcode\"=>\"LS1 6BE\",\"addr:housenumber\"=>\"12-14\"" }, "geometry": { "type": "Point", "coordinates": [ -1.5414696, 53.7982711 ] } },
	{ "type": "Feature", "properties": { "osm_id": "5941346424", "name": "Hobbs", "other_tags": "\"shop\"=>\"clothes\",\"brand\"=>\"Hobbs\",\"addr:city\"=>\"Leeds\",\"addr:street\"=>\"Queen Victoria Street\",\"addr:postcode\"=>\"LS1 6BE\",\"brand:wikidata\"=>\"Q25108740\",\"addr:housenumber\"=>\"6-8\"" }, "geometry": { "type": "Point", "coordinates": [ -1.5416841, 53.7982881 ] } },
	{ "type": "Feature", "properties": { "osm_id": "5941346433", "name": "Hawes & Curtis", "other_tags": "\"addr:city\"=>\"Leeds\",\"addr:housenumber\"=>\"22-24\",\"addr:postcode\"=>\"LS1 6BN\",\"addr:street\"=>\"County Arcade\",\"shop\"=>\"clothes\",\"website\"=>\"https:\/\/www.hawesandcurtis.co.uk\/\",\"wheelchair\"=>\"no\"" }, "geometry": { "type": "Point", "coordinates": [ -1.5410739, 53.7984196 ] } },
	{ "type": "Feature", "properties": { "osm_id": "5941346442", "name": "Berketex Bride", "other_tags": "\"shop\"=>\"clothes\",\"website\"=>\"https:\/\/www.berketexbride.com\/\",\"addr:city\"=>\"Leeds\",\"addr:street\"=>\"Queens Arcade\",\"addr:postcode\"=>\"LS1 6LF\",\"addr:housenumber\"=>\"1\"" }, "geometry": { "type": "Point", "coordinates": [ -1.5424658, 53.7983805 ] } },
	{ "type": "Feature", "properties": { "osm_id": "5941346447", "name": "Accent", "other_tags": "\"shop\"=>\"clothes\",\"addr:city\"=>\"Leeds\",\"addr:street\"=>\"Queens Arcade\",\"addr:postcode\"=>\"LS1 6LF\",\"addr:housenumber\"=>\"11-13\"" }, "geometry": { "type": "Point", "coordinates": [ -1.5428854, 53.7984386 ] } },
	{ "type": "Feature", "properties": { "osm_id": "5941346451", "name": "Levi's", "other_tags": "\"shop\"=>\"clothes\",\"brand\"=>\"Levi's\",\"clothes\"=>\"denim;men;women\",\"addr:city\"=>\"Leeds\",\"addr:street\"=>\"Lands Lane\",\"addr:postcode\"=>\"LS1 6LB\",\"brand:wikidata\"=>\"Q127962\",\"brand:wikipedia\"=>\"en:Levi Strauss & Co.\",\"addr:housenumber\"=>\"30\"" }, "geometry": { "type": "Point", "coordinates": [ -1.5433042, 53.7984956 ] } },
	{ "type": "Feature", "properties": { "osm_id": "5941346458", "name": "Tunnel", "other_tags": "\"shop\"=>\"clothes\",\"addr:city\"=>\"Leeds\",\"addr:street\"=>\"Queens Arcade\",\"addr:postcode\"=>\"LS1 6LF\",\"addr:housenumber\"=>\"8\"" }, "geometry": { "type": "Point", "coordinates": [ -1.5426873, 53.7983 ] } },
	{ "type": "Feature", "properties": { "osm_id": "5941346462", "name": "Bolongaro Trevor", "other_tags": "\"shop\"=>\"clothes\",\"addr:city\"=>\"Leeds\",\"addr:street\"=>\"Thornton's Arcade\",\"addr:postcode\"=>\"LS1 6LQ\",\"addr:housenumber\"=>\"14\"" }, "geometry": { "type": "Point", "coordinates": [ -1.5427167, 53.7987324 ] } },
	{ "type": "Feature", "properties": { "osm_id": "5981573962", "name": "Aras of Leeds", "other_tags": "\"shop\"=>\"clothes\",\"addr:city\"=>\"Leeds\",\"addr:street\"=>\"Kirkgate\",\"addr:housename\"=>\"Kirkgate Market\"" }, "geometry": { "type": "Point", "coordinates": [ -1.5394372, 53.79726 ] } },
	{ "type": "Feature", "properties": { "osm_id": "5981573973", "name": "Pocket Friendly Fashions", "other_tags": "\"shop\"=>\"clothes\",\"addr:city\"=>\"Leeds\",\"addr:street\"=>\"Kirkgate\",\"addr:housename\"=>\"Kirkgate Market\"" }, "geometry": { "type": "Point", "coordinates": [ -1.5396858, 53.7970625 ] } },
	{ "type": "Feature", "properties": { "osm_id": "5981573978", "other_tags": "\"shop\"=>\"clothes\",\"addr:city\"=>\"Leeds\",\"addr:unit\"=>\"R\",\"addr:street\"=>\"Kirkgate\",\"addr:housename\"=>\"Kirkgate Market\"" }, "geometry": { "type": "Point", "coordinates": [ -1.5399211, 53.7970656 ] } },
	{ "type": "Feature", "properties": { "osm_id": "5981576286", "name": "Myers - The Cardigan Shop", "other_tags": "\"shop\"=>\"clothes\",\"addr:city\"=>\"Leeds\",\"addr:street\"=>\"Kirkgate\",\"addr:housename\"=>\"Kirkgate Market\"" }, "geometry": { "type": "Point", "coordinates": [ -1.5400628, 53.7968633 ] } },
	{ "type": "Feature", "properties": { "osm_id": "5981576296", "name": "Dorothy Goodall", "other_tags": "\"shop\"=>\"clothes\",\"addr:city\"=>\"Leeds\",\"addr:unit\"=>\"12\",\"addr:street\"=>\"Kirkgate\",\"addr:housename\"=>\"Kirkgate Market\"" }, "geometry": { "type": "Point", "coordinates": [ -1.5400266, 53.7972299 ] } },
	{ "type": "Feature", "properties": { "osm_id": "6001482107", "name": "Ego", "other_tags": "\"shop\"=>\"clothes\"" }, "geometry": { "type": "Point", "coordinates": [ -1.5383475, 53.797435 ] } },
	{ "type": "Feature", "properties": { "osm_id": "6001482138", "name": "Amigo Clothing", "other_tags": "\"shop\"=>\"clothes\",\"opening_hours\"=>\"Mo-We 08:00-18:30 Th-Sa 7:30-18:30 Su closed\",\"opening_hours:covid19\"=>\"same\"" }, "geometry": { "type": "Point", "coordinates": [ -1.5385392, 53.7970714 ] } },
	{ "type": "Feature", "properties": { "osm_id": "6001596328", "name": "Calvin Klein", "other_tags": "\"shop\"=>\"clothes\",\"brand\"=>\"Calvin Klein\",\"level\"=>\"0\",\"addr:city\"=>\"Leeds\",\"addr:unit\"=>\"29\",\"addr:street\"=>\"Harewood Street\",\"addr:postcode\"=>\"LS2 7AR\",\"addr:housename\"=>\"Victoria Gate\",\"brand:wikidata\"=>\"Q1068628\",\"brand:wikipedia\"=>\"en:Calvin Klein (company)\"" }, "geometry": { "type": "Point", "coordinates": [ -1.5390489, 53.7979245 ] } },
	{ "type": "Feature", "properties": { "osm_id": "6001596332", "name": "Seasalt", "other_tags": "\"shop\"=>\"clothes\",\"level\"=>\"0\",\"addr:city\"=>\"Leeds\",\"addr:unit\"=>\"30\",\"addr:street\"=>\"Harewood Street\",\"addr:postcode\"=>\"LS2 7AR\",\"addr:housename\"=>\"Victoria Gate\"" }, "geometry": { "type": "Point", "coordinates": [ -1.5389121, 53.7979245 ] } },
	{ "type": "Feature", "properties": { "osm_id": "6001596336", "name": "Joules", "other_tags": "\"shop\"=>\"clothes\",\"brand\"=>\"Joules\",\"level\"=>\"0\",\"addr:city\"=>\"Leeds\",\"addr:unit\"=>\"32\",\"addr:street\"=>\"Harewood Street\",\"addr:postcode\"=>\"LS2 7AR\",\"addr:housename\"=>\"Victoria Gate\",\"brand:wikidata\"=>\"Q25351738\",\"brand:wikipedia\"=>\"en:Joules (clothing)\"" }, "geometry": { "type": "Point", "coordinates": [ -1.5386975, 53.7979293 ] } },
	{ "type": "Feature", "properties": { "osm_id": "6001596337", "name": "Honey Birdette", "other_tags": "\"shop\"=>\"clothes\",\"level\"=>\"0\",\"addr:city\"=>\"Leeds\",\"addr:unit\"=>\"25\",\"addr:street\"=>\"Harewood Street\",\"addr:postcode\"=>\"LS2 7AR\",\"addr:housename\"=>\"Victoria Gate\"" }, "geometry": { "type": "Point", "coordinates": [ -1.5384051, 53.798132 ] } },
	{ "type": "Feature", "properties": { "osm_id": "6001596338", "name": "Hackett", "other_tags": "\"shop\"=>\"clothes\",\"level\"=>\"0\",\"addr:city\"=>\"Leeds\",\"addr:unit\"=>\"7\",\"addr:street\"=>\"Harewood Street\",\"addr:postcode\"=>\"LS2 7AR\",\"addr:housename\"=>\"Victoria Gate\"" }, "geometry": { "type": "Point", "coordinates": [ -1.5381476, 53.7983934 ] } },
	{ "type": "Feature", "properties": { "osm_id": "6001596339", "name": "Gant", "other_tags": "\"shop\"=>\"clothes\",\"brand\"=>\"Gant\",\"level\"=>\"0\",\"addr:city\"=>\"Leeds\",\"addr:unit\"=>\"33\",\"addr:street\"=>\"Harewood Street\",\"addr:postcode\"=>\"LS2 7AR\",\"addr:housename\"=>\"Victoria Gate\",\"brand:wikidata\"=>\"Q1493667\",\"brand:wikipedia\"=>\"en:Gant (retailer)\"" }, "geometry": { "type": "Point", "coordinates": [ -1.5385848, 53.7979324 ] } },
	{ "type": "Feature", "properties": { "osm_id": "6001596340", "name": "& Other Stories", "other_tags": "\"shop\"=>\"clothes\",\"brand\"=>\"& Other Stories\",\"level\"=>\"0\",\"clothes\"=>\"women\",\"addr:city\"=>\"Leeds\",\"addr:unit\"=>\"35-36\",\"addr:street\"=>\"Harewood Street\",\"addr:postcode\"=>\"LS2 7AR\",\"addr:housename\"=>\"Victoria Gate\",\"brand:wikidata\"=>\"Q85322338\"" }, "geometry": { "type": "Point", "coordinates": [ -1.5382683, 53.7979419 ] } },
	{ "type": "Feature", "properties": { "osm_id": "6001596341", "name": "COS", "other_tags": "\"shop\"=>\"clothes\",\"brand\"=>\"COS\",\"level\"=>\"0\",\"addr:city\"=>\"Leeds\",\"addr:unit\"=>\"37-38\",\"addr:street\"=>\"Harewood Street\",\"addr:postcode\"=>\"LS2 7AR\",\"addr:housename\"=>\"Victoria Gate\",\"brand:wikidata\"=>\"Q60772401\",\"brand:wikipedia\"=>\"en:COS (clothing)\"" }, "geometry": { "type": "Point", "coordinates": [ -1.5381262, 53.7979483 ] } },
	{ "type": "Feature", "properties": { "osm_id": "6001596342", "name": "Anthropologie", "other_tags": "\"shop\"=>\"clothes\",\"brand\"=>\"Anthropologie\",\"level\"=>\"0\",\"clothes\"=>\"women\",\"addr:city\"=>\"Leeds\",\"addr:unit\"=>\"12-13\",\"addr:street\"=>\"Harewood Street\",\"addr:postcode\"=>\"LS2 7AR\",\"addr:housename\"=>\"Victoria Gate\",\"brand:wikidata\"=>\"Q4773903\",\"brand:wikipedia\"=>\"en:Anthropologie\"" }, "geometry": { "type": "Point", "coordinates": [ -1.5389738, 53.7983807 ] } },
	{ "type": "Feature", "properties": { "osm_id": "6001596344", "name": "Tommy Hilfiger", "other_tags": "\"shop\"=>\"clothes\",\"brand\"=>\"Tommy Hilfiger\",\"level\"=>\"0\",\"addr:city\"=>\"Leeds\",\"addr:unit\"=>\"28\",\"addr:street\"=>\"Harewood Street\",\"addr:postcode\"=>\"LS2 7AR\",\"addr:housename\"=>\"Victoria Gate\",\"brand:wikidata\"=>\"Q634881\",\"brand:wikipedia\"=>\"en:Tommy Hilfiger (company)\"" }, "geometry": { "type": "Point", "coordinates": [ -1.5391964, 53.7979324 ] } },
	{ "type": "Feature", "properties": { "osm_id": "6022849874", "name": "Luvyababes", "other_tags": "\"shop\"=>\"clothes\",\"website\"=>\"https:\/\/www.luvyababes.co.uk\/\",\"addr:city\"=>\"Leeds\",\"addr:unit\"=>\"1\",\"addr:street\"=>\"Albion Street\",\"addr:postcode\"=>\"LS1 6AD\",\"addr:housenumber\"=>\"90-92\"" }, "geometry": { "type": "Point", "coordinates": [ -1.5449001, 53.798917 ] } },
	{ "type": "Feature", "properties": { "osm_id": "6022849883", "name": "Oliver Bonas", "other_tags": "\"shop\"=>\"clothes\",\"fhrs:id\"=>\"1101706\",\"addr:city\"=>\"Leeds\",\"addr:street\"=>\"Albion Street\",\"addr:postcode\"=>\"LS1 6AD\",\"addr:housenumber\"=>\"50\"" }, "geometry": { "type": "Point", "coordinates": [ -1.5450329, 53.7976013 ] } },
	{ "type": "Feature", "properties": { "osm_id": "6022850189", "name": "Joy", "other_tags": "\"shop\"=>\"clothes\",\"addr:city\"=>\"Leeds\",\"addr:street\"=>\"Albion Street\",\"addr:postcode\"=>\"LS1 5AA\",\"addr:housename\"=>\"Pinnacle\",\"addr:housenumber\"=>\"63-65\"" }, "geometry": { "type": "Point", "coordinates": [ -1.5453386, 53.7978904 ] } },
	{ "type": "Feature", "properties": { "osm_id": "6022850194", "name": "New Look", "other_tags": "\"shop\"=>\"clothes\",\"brand\"=>\"New Look\",\"brand:wikidata\"=>\"Q12063852\",\"brand:wikipedia\"=>\"en:New Look (company)\"" }, "geometry": { "type": "Point", "coordinates": [ -1.545521, 53.796463 ] } },
	{ "type": "Feature", "properties": { "osm_id": "6022850204", "name": "Monsoon", "other_tags": "\"shop\"=>\"clothes\",\"brand\"=>\"Monsoon\",\"addr:city\"=>\"Leeds\",\"addr:street\"=>\"Commercial Street\",\"addr:postcode\"=>\"LS1 6EX\",\"brand:wikidata\"=>\"Q65007501\",\"brand:wikipedia\"=>\"en:Monsoon Accessorize\",\"addr:housenumber\"=>\"28\"" }, "geometry": { "type": "Point", "coordinates": [ -1.5448169, 53.7972623 ] } },
	{ "type": "Feature", "properties": { "osm_id": "6022850212", "name": "Accessorize", "other_tags": "\"shop\"=>\"clothes\",\"brand\"=>\"Accessorize\",\"addr:city\"=>\"Leeds\",\"addr:street\"=>\"Commercial Street\",\"addr:postcode\"=>\"LS1 6EX\",\"brand:wikidata\"=>\"Q65007482\",\"brand:wikipedia\"=>\"en:Monsoon Accessorize\",\"addr:housenumber\"=>\"30\"" }, "geometry": { "type": "Point", "coordinates": [ -1.5444455, 53.7972825 ] } },
	{ "type": "Feature", "properties": { "osm_id": "6022850239", "name": "Pebbles Hats", "other_tags": "\"shop\"=>\"clothes\",\"addr:city\"=>\"Leeds\",\"addr:street\"=>\"Central Arcade\",\"addr:postcode\"=>\"LS1 6DX\",\"addr:housenumber\"=>\"4\"" }, "geometry": { "type": "Point", "coordinates": [ -1.5417264, 53.7964452 ] } },
	{ "type": "Feature", "properties": { "osm_id": "6022850240", "name": "World Of Dance", "other_tags": "\"shop\"=>\"clothes\",\"addr:city\"=>\"Leeds\",\"addr:street\"=>\"Central Arcade\",\"addr:postcode\"=>\"LS1 6DX\",\"addr:housenumber\"=>\"3\"" }, "geometry": { "type": "Point", "coordinates": [ -1.5419446, 53.7964577 ] } },
	{ "type": "Feature", "properties": { "osm_id": "6022850268", "name": "Intrigue Fashion", "other_tags": "\"shop\"=>\"clothes\",\"addr:city\"=>\"Leeds\",\"addr:unit\"=>\"405-409\",\"addr:street\"=>\"Kirkgate\",\"addr:postcode\"=>\"LS2 7JE\",\"addr:housename\"=>\"Kirkgate Market\"" }, "geometry": { "type": "Point", "coordinates": [ -1.5384306, 53.7971882 ] } },
	{ "type": "Feature", "properties": { "osm_id": "6022850269", "other_tags": "\"shop\"=>\"clothes\"" }, "geometry": { "type": "Point", "coordinates": [ -1.5383652, 53.7971866 ] } },
	{ "type": "Feature", "properties": { "osm_id": "6022850272", "other_tags": "\"shop\"=>\"clothes\"" }, "geometry": { "type": "Point", "coordinates": [ -1.5386693, 53.7971991 ] } },
	{ "type": "Feature", "properties": { "osm_id": "6022850282", "other_tags": "\"shop\"=>\"clothes\"" }, "geometry": { "type": "Point", "coordinates": [ -1.5381037, 53.7971803 ] } },
	{ "type": "Feature", "properties": { "osm_id": "6022850391", "other_tags": "\"shop\"=>\"clothes\"" }, "geometry": { "type": "Point", "coordinates": [ -1.5377708, 53.7971688 ] } },
	{ "type": "Feature", "properties": { "osm_id": "6033885578", "name": "Next One Leather", "other_tags": "\"shop\"=>\"clothes\",\"level\"=>\"1\",\"addr:city\"=>\"Leeds\",\"addr:street\"=>\"Call Lane\",\"addr:postcode\"=>\"LS1 7BR\",\"addr:housename\"=>\"Corn Exchange\"" }, "geometry": { "type": "Point", "coordinates": [ -1.5401167, 53.7960647 ] } },
	{ "type": "Feature", "properties": { "osm_id": "6033886285", "name": "Precious Proms & Pearls", "other_tags": "\"shop\"=>\"clothes\",\"level\"=>\"1\",\"website\"=>\"https:\/\/www.promsandpearls.co.uk\/\",\"addr:city\"=>\"Leeds\",\"addr:street\"=>\"Call Lane\",\"addr:postcode\"=>\"LS1 7BR\",\"addr:housename\"=>\"Corn Exchange\"" }, "geometry": { "type": "Point", "coordinates": [ -1.5404846, 53.795979 ] } },
	{ "type": "Feature", "properties": { "osm_id": "6033886292", "name": "Soho's Leeds", "other_tags": "\"shop\"=>\"clothes\",\"level\"=>\"0\",\"website\"=>\"https:\/\/www.sohos.co.uk\/\",\"addr:city\"=>\"Leeds\",\"addr:street\"=>\"Call Lane\",\"addr:postcode\"=>\"LS1 7BR\",\"addr:housename\"=>\"Corn Exchange\"" }, "geometry": { "type": "Point", "coordinates": [ -1.539845, 53.7959143 ] } },
	{ "type": "Feature", "properties": { "osm_id": "6033886295", "name": "Mki Miyuki Zoku", "other_tags": "\"shop\"=>\"clothes\",\"level\"=>\"0\",\"addr:street\"=>\"Call Lane\",\"addr:postcode\"=>\"LS1 7BR\",\"addr:housename\"=>\"Corn Exchange\"" }, "geometry": { "type": "Point", "coordinates": [ -1.540227, 53.7961102 ] } },
	{ "type": "Feature", "properties": { "osm_id": "6033886296", "name": "All Blues Co", "other_tags": "\"shop\"=>\"clothes\",\"level\"=>\"0\",\"addr:city\"=>\"Leeds\",\"addr:street\"=>\"Call Lane\",\"addr:postcode\"=>\"LS1 7BR\",\"addr:housename\"=>\"Corn Exchange\"" }, "geometry": { "type": "Point", "coordinates": [ -1.540338, 53.7961146 ] } },
	{ "type": "Feature", "properties": { "osm_id": "6033886297", "name": "The Little Pink Wardrobe", "other_tags": "\"shop\"=>\"clothes\",\"level\"=>\"0\",\"addr:city\"=>\"Leeds\",\"addr:street\"=>\"Call Lane\",\"addr:postcode\"=>\"LS1 7BR\",\"addr:housename\"=>\"Corn Exchange\"" }, "geometry": { "type": "Point", "coordinates": [ -1.5404195, 53.7960988 ] } },
	{ "type": "Feature", "properties": { "osm_id": "6052531526", "name": "Evans", "other_tags": "\"shop\"=>\"clothes\",\"brand\"=>\"Evans\",\"level\"=>\"0\",\"clothes\"=>\"women\",\"brand:wikidata\"=>\"Q5415877\",\"brand:wikipedia\"=>\"en:Evans (retailer)\"" }, "geometry": { "type": "Point", "coordinates": [ -1.5745304, 53.7588759 ] } },
	{ "type": "Feature", "properties": { "osm_id": "6052531539", "name": "Monsoon", "other_tags": "\"shop\"=>\"clothes\",\"brand\"=>\"Monsoon\",\"level\"=>\"0\",\"brand:wikidata\"=>\"Q65007501\"" }, "geometry": { "type": "Point", "coordinates": [ -1.5744968, 53.7593401 ] } },
	{ "type": "Feature", "properties": { "osm_id": "6052531540", "name": "Accessorize", "other_tags": "\"shop\"=>\"clothes\",\"brand\"=>\"Accessorize\",\"level\"=>\"0\",\"brand:wikidata\"=>\"Q65007482\"" }, "geometry": { "type": "Point", "coordinates": [ -1.5745029, 53.7592574 ] } },
	{ "type": "Feature", "properties": { "osm_id": "6052531541", "name": "Burton", "other_tags": "\"shop\"=>\"clothes\",\"brand\"=>\"Burton\",\"level\"=>\"0\",\"brand:wikidata\"=>\"Q5000795\",\"brand:wikipedia\"=>\"en:Burton (retailer)\"" }, "geometry": { "type": "Point", "coordinates": [ -1.5745089, 53.7591748 ] } },
	{ "type": "Feature", "properties": { "osm_id": "6052531542", "name": "Esquire", "other_tags": "\"shop\"=>\"clothes\",\"level\"=>\"0\"" }, "geometry": { "type": "Point", "coordinates": [ -1.5745149, 53.7590921 ] } },
	{ "type": "Feature", "properties": { "osm_id": "6052531543", "name": "Topshop", "other_tags": "\"shop\"=>\"clothes\",\"brand\"=>\"Topshop\",\"level\"=>\"0\",\"clothes\"=>\"women\",\"brand:wikidata\"=>\"Q1893576\",\"brand:wikipedia\"=>\"en:Topshop\"" }, "geometry": { "type": "Point", "coordinates": [ -1.5745186, 53.7590022 ] } },
	{ "type": "Feature", "properties": { "osm_id": "6052531544", "name": "Jack Jones", "other_tags": "\"shop\"=>\"clothes\",\"level\"=>\"0\"" }, "geometry": { "type": "Point", "coordinates": [ -1.5745367, 53.7587876 ] } },
	{ "type": "Feature", "properties": { "osm_id": "6052531545", "name": "Tessuti", "other_tags": "\"shop\"=>\"clothes\",\"level\"=>\"0\"" }, "geometry": { "type": "Point", "coordinates": [ -1.5745431, 53.7586993 ] } },
	{ "type": "Feature", "properties": { "osm_id": "6052531548", "name": "Warehouse", "other_tags": "\"shop\"=>\"clothes\",\"brand\"=>\"Warehouse\",\"level\"=>\"0\",\"brand:wikidata\"=>\"Q28135370\"" }, "geometry": { "type": "Point", "coordinates": [ -1.5746042, 53.7584291 ] } },
	{ "type": "Feature", "properties": { "osm_id": "6052531554", "name": "Select", "other_tags": "\"shop\"=>\"clothes\",\"level\"=>\"0\"" }, "geometry": { "type": "Point", "coordinates": [ -1.574433, 53.757513 ] } },
	{ "type": "Feature", "properties": { "osm_id": "6052531558", "name": "Superdry", "other_tags": "\"shop\"=>\"clothes\",\"brand\"=>\"Superdry\",\"level\"=>\"0\",\"brand:wikidata\"=>\"Q1684445\",\"brand:wikipedia\"=>\"en:Superdry\"" }, "geometry": { "type": "Point", "coordinates": [ -1.5744391, 53.7574299 ] } },
	{ "type": "Feature", "properties": { "osm_id": "6052531562", "name": "Zara", "other_tags": "\"shop\"=>\"clothes\",\"brand\"=>\"Zara\",\"level\"=>\"0\",\"brand:wikidata\"=>\"Q147662\",\"brand:wikipedia\"=>\"en:Zara (retailer)\"" }, "geometry": { "type": "Point", "coordinates": [ -1.5742032, 53.7566435 ] } },
	{ "type": "Feature", "properties": { "osm_id": "6052531564", "name": "River Island", "other_tags": "\"shop\"=>\"clothes\",\"brand\"=>\"River Island\",\"level\"=>\"0\",\"brand:wikidata\"=>\"Q2670328\",\"brand:wikipedia\"=>\"en:River Island\"" }, "geometry": { "type": "Point", "coordinates": [ -1.5737674, 53.756596 ] } },
	{ "type": "Feature", "properties": { "osm_id": "6052531571", "name": "Oasis", "other_tags": "\"shop\"=>\"clothes\",\"brand\"=>\"Oasis\",\"level\"=>\"0\",\"brand:wikidata\"=>\"Q64532852\"" }, "geometry": { "type": "Point", "coordinates": [ -1.5740034, 53.7584132 ] } },
	{ "type": "Feature", "properties": { "osm_id": "6052531575", "name": "Primark", "other_tags": "\"shop\"=>\"clothes\",\"brand\"=>\"Primark\",\"level\"=>\"0;1\",\"brand:wikidata\"=>\"Q137023\",\"brand:wikipedia\"=>\"en:Primark\",\"contact:website\"=>\"https:\/\/stores.primark.com\/united-kingdom\/leeds\/unit-4-white-rose-shopping-centre\"" }, "geometry": { "type": "Point", "coordinates": [ -1.5736923, 53.757836 ] } },
	{ "type": "Feature", "properties": { "osm_id": "6052531585", "name": "Quiz", "other_tags": "\"shop\"=>\"clothes\",\"brand\"=>\"Quiz\",\"level\"=>\"0\",\"clothes\"=>\"women\",\"brand:wikidata\"=>\"Q29995941\",\"brand:wikipedia\"=>\"en:Quiz (clothing)\"" }, "geometry": { "type": "Point", "coordinates": [ -1.5741858, 53.7585639 ] } },
	{ "type": "Feature", "properties": { "osm_id": "6052531588", "name": "Next", "other_tags": "\"shop\"=>\"clothes\",\"brand\"=>\"Next\",\"level\"=>\"0;1\",\"brand:wikidata\"=>\"Q246655\",\"brand:wikipedia\"=>\"en:Next plc\"" }, "geometry": { "type": "Point", "coordinates": [ -1.5737432, 53.7587415 ] } },
	{ "type": "Feature", "properties": { "osm_id": "6052531590", "name": "Miss Selfridge", "other_tags": "\"shop\"=>\"clothes\",\"brand\"=>\"Miss Selfridge\",\"level\"=>\"0\",\"clothes\"=>\"women\",\"brand:wikidata\"=>\"Q6877374\",\"brand:wikipedia\"=>\"en:Miss Selfridge\"" }, "geometry": { "type": "Point", "coordinates": [ -1.5741456, 53.759044 ] } },
	{ "type": "Feature", "properties": { "osm_id": "6052531591", "name": "Boux Avenue", "other_tags": "\"shop\"=>\"clothes\",\"brand\"=>\"Boux Avenue\",\"level\"=>\"0\",\"clothes\"=>\"underwear\",\"brand:wikidata\"=>\"Q4950489\",\"brand:wikipedia\"=>\"en:Boux Avenue\"" }, "geometry": { "type": "Point", "coordinates": [ -1.5741389, 53.7591272 ] } },
	{ "type": "Feature", "properties": { "osm_id": "6052531592", "name": "H&M", "other_tags": "\"shop\"=>\"clothes\",\"brand\"=>\"H&M\",\"level\"=>\"0\",\"brand:wikidata\"=>\"Q188326\",\"brand:wikipedia\"=>\"en:H&M\"" }, "geometry": { "type": "Point", "coordinates": [ -1.5738808, 53.7592646 ] } },
	{ "type": "Feature", "properties": { "osm_id": "6052531595", "name": "Yours", "other_tags": "\"shop\"=>\"clothes\",\"level\"=>\"0\"" }, "geometry": { "type": "Point", "coordinates": [ -1.5741097, 53.7594906 ] } },
	{ "type": "Feature", "properties": { "osm_id": "6092510503", "name": "The Bridal House", "other_tags": "\"shop\"=>\"clothes\",\"addr:city\"=>\"Leeds\",\"addr:unit\"=>\"1\",\"addr:street\"=>\"Regent Street\",\"addr:postcode\"=>\"LS2 7QN\",\"addr:housename\"=>\"Citispace\",\"addr:housenumber\"=>\"11\"" }, "geometry": { "type": "Point", "coordinates": [ -1.5333223, 53.8025644 ] } },
	{ "type": "Feature", "properties": { "osm_id": "6101234050", "name": "Fat Face", "other_tags": "\"shop\"=>\"clothes\",\"brand\"=>\"Fat Face\",\"addr:city\"=>\"Leeds\",\"addr:street\"=>\"Thorpe Park Approach\",\"addr:postcode\"=>\"LS15 8GG\",\"addr:housename\"=>\"The Springs\",\"brand:wikidata\"=>\"Q5437186\",\"brand:wikipedia\"=>\"en:Fat Face\",\"addr:housenumber\"=>\"Unit 27\"" }, "geometry": { "type": "Point", "coordinates": [ -1.4240455, 53.7999096 ] } },
	{ "type": "Feature", "properties": { "osm_id": "6101234052", "name": "River Island", "other_tags": "\"shop\"=>\"clothes\",\"brand\"=>\"River Island\",\"addr:city\"=>\"Leeds\",\"addr:street\"=>\"Thorpe Park Approach\",\"addr:postcode\"=>\"LS15 8GG\",\"addr:housename\"=>\"The Springs\",\"brand:wikidata\"=>\"Q2670328\",\"brand:wikipedia\"=>\"en:River Island\",\"addr:housenumber\"=>\"Unit 25\"" }, "geometry": { "type": "Point", "coordinates": [ -1.4240446, 53.7996306 ] } },
	{ "type": "Feature", "properties": { "osm_id": "6101234053", "name": "Outfit", "other_tags": "\"shop\"=>\"clothes\",\"brand\"=>\"Outfit\",\"addr:city\"=>\"Leeds\",\"addr:street\"=>\"Thorpe Park Approach\",\"addr:postcode\"=>\"LS15 8GG\",\"addr:housename\"=>\"The Springs\",\"brand:wikidata\"=>\"Q7112061\",\"brand:wikipedia\"=>\"en:Outfit (retailer)\",\"addr:housenumber\"=>\"Unit 24\"" }, "geometry": { "type": "Point", "coordinates": [ -1.4240441, 53.7994681 ] } },
	{ "type": "Feature", "properties": { "osm_id": "6139531118", "name": "Cath Kidston", "other_tags": "\"shop\"=>\"clothes\",\"addr:city\"=>\"Leeds\",\"addr:street\"=>\"Lands Lane\",\"addr:postcode\"=>\"LS1 6LB\",\"addr:housenumber\"=>\"26\"" }, "geometry": { "type": "Point", "coordinates": [ -1.5433528, 53.7982743 ] } },
	{ "type": "Feature", "properties": { "osm_id": "6210514962", "name": "M&Co", "other_tags": "\"brand\"=>\"M&Co\",\"brand:wikidata\"=>\"Q6711808\",\"brand:wikipedia\"=>\"en:M&Co.\",\"shop\"=>\"clothes\"" }, "geometry": { "type": "Point", "coordinates": [ -1.6925886, 53.90509 ] } },
	{ "type": "Feature", "properties": { "osm_id": "6294180913", "name": "Clearance Outlet", "other_tags": "\"shop\"=>\"clothes\",\"clothes\"=>\"women\"" }, "geometry": { "type": "Point", "coordinates": [ -1.4519934, 53.8071202 ] } },
	{ "type": "Feature", "properties": { "osm_id": "6438334052", "name": "The Clothes Horse", "other_tags": "\"addr:city\"=>\"Wakefield\",\"addr:housename\"=>\"Spring Green Nurseries\",\"addr:postcode\"=>\"WF4 1LW\",\"addr:street\"=>\"Pontefract Road\",\"addr:suburb\"=>\"Crofton\",\"clothes\"=>\"women\",\"old_name\"=>\"Daisy Handmade\",\"shop\"=>\"clothes\"" }, "geometry": { "type": "Point", "coordinates": [ -1.4224291, 53.6661068 ] } },
	{ "type": "Feature", "properties": { "osm_id": "6515446374", "name": "H&M", "other_tags": "\"shop\"=>\"clothes\",\"brand\"=>\"H&M\",\"addr:city\"=>\"Leeds\",\"addr:street\"=>\"Thorpe Park View\",\"addr:suburb\"=>\"Austhorpe\",\"addr:postcode\"=>\"LS15 8GG\",\"addr:housename\"=>\"The Springs\",\"brand:wikidata\"=>\"Q188326\",\"brand:wikipedia\"=>\"en:H&M\",\"addr:housenumber\"=>\"Unit 5\"" }, "geometry": { "type": "Point", "coordinates": [ -1.4239548, 53.80055 ] } },
	{ "type": "Feature", "properties": { "osm_id": "6600874643", "name": "Bridal Boutique", "other_tags": "\"addr:housenumber\"=>\"63\",\"addr:postcode\"=>\"WF10 1HH\",\"addr:street\"=>\"Bridge Street\",\"addr:town\"=>\"Castleford\",\"clothes\"=>\"wedding\",\"shop\"=>\"clothes\"" }, "geometry": { "type": "Point", "coordinates": [ -1.3481439, 53.7268088 ] } },
	{ "type": "Feature", "properties": { "osm_id": "6600874656", "name": "Bonmarché", "other_tags": "\"shop\"=>\"clothes\",\"brand\"=>\"Bonmarché\",\"addr:town\"=>\"Castleford\",\"addr:unit\"=>\"22\",\"addr:street\"=>\"Carlton Street\",\"addr:postcode\"=>\"WF10 1AD\",\"addr:housename\"=>\"Carlton Lanes Shopping Centre\",\"brand:wikidata\"=>\"Q4942146\",\"brand:wikipedia\"=>\"en:Bonmarché\"" }, "geometry": { "type": "Point", "coordinates": [ -1.3514345, 53.7255752 ] } },
	{ "type": "Feature", "properties": { "osm_id": "6600874659", "name": "New Look", "other_tags": "\"shop\"=>\"clothes\",\"brand\"=>\"New Look\",\"addr:town\"=>\"Castleford\",\"addr:unit\"=>\"19\",\"addr:street\"=>\"Carlton Street\",\"addr:postcode\"=>\"WF10 1AD\",\"addr:housename\"=>\"Carlton Lanes Shopping Centre\",\"brand:wikidata\"=>\"Q12063852\",\"brand:wikipedia\"=>\"en:New Look (company)\"" }, "geometry": { "type": "Point", "coordinates": [ -1.3508565, 53.725693 ] } },
	{ "type": "Feature", "properties": { "osm_id": "6600874668", "name": "Dorothy Perkins", "other_tags": "\"shop\"=>\"clothes\",\"brand\"=>\"Dorothy Perkins\",\"addr:town\"=>\"Castleford\",\"addr:unit\"=>\"26\",\"addr:street\"=>\"Carlton Street\",\"addr:postcode\"=>\"WF10 1AD\",\"addr:housename\"=>\"Carlton Lanes Shopping Centre\",\"brand:wikidata\"=>\"Q5298588\",\"brand:wikipedia\"=>\"en:Dorothy Perkins\"" }, "geometry": { "type": "Point", "coordinates": [ -1.3511119, 53.7259104 ] } },
	{ "type": "Feature", "properties": { "osm_id": "6600874676", "name": "Sisters", "other_tags": "\"addr:housename\"=>\"Carlton Lanes Shopping Centre\",\"addr:postcode\"=>\"WF10 1AD\",\"addr:street\"=>\"Carlton Street\",\"addr:town\"=>\"Castleford\",\"addr:unit\"=>\"33\",\"clothes\"=>\"women\",\"shop\"=>\"clothes\"" }, "geometry": { "type": "Point", "coordinates": [ -1.3503751, 53.7260727 ] } },
	{ "type": "Feature", "properties": { "osm_id": "6600898390", "name": "Peacocks", "other_tags": "\"addr:housename\"=>\"Carlton Lanes Shopping Centre\",\"addr:postcode\"=>\"WF10 1AD\",\"addr:street\"=>\"Carlton Street\",\"addr:town\"=>\"Castleford\",\"addr:unit\"=>\"LRU1\",\"brand\"=>\"Peacocks\",\"brand:wikidata\"=>\"Q7157762\",\"brand:wikipedia\"=>\"en:Peacocks (clothing)\",\"contact:website\"=>\"https:\/\/www.peacocks.co.uk\/store-finder\/index\/storeDetail\/id\/374\/\",\"shop\"=>\"clothes\"" }, "geometry": { "type": "Point", "coordinates": [ -1.3497152, 53.7259973 ] } },
	{ "type": "Feature", "properties": { "osm_id": "6600898401", "name": "Quirky Chic", "other_tags": "\"shop\"=>\"clothes\"" }, "geometry": { "type": "Point", "coordinates": [ -1.3521741, 53.7259592 ] } },
	{ "type": "Feature", "properties": { "osm_id": "6606798464", "other_tags": "\"shop\"=>\"clothes\",\"addr:town\"=>\"Pontefract\",\"addr:unit\"=>\"34-35\",\"addr:street\"=>\"Market Place\",\"addr:postcode\"=>\"WF8 1AU\",\"addr:housename\"=>\"Market Hall\"" }, "geometry": { "type": "Point", "coordinates": [ -1.3109297, 53.691837 ] } },
	{ "type": "Feature", "properties": { "osm_id": "6606798465", "name": "Harry's Styles", "other_tags": "\"addr:housename\"=>\"Market Hall\",\"addr:postcode\"=>\"WF8 1AU\",\"addr:street\"=>\"Market Place\",\"addr:town\"=>\"Pontefract\",\"addr:unit\"=>\"33\",\"shop\"=>\"clothes\"" }, "geometry": { "type": "Point", "coordinates": [ -1.3109712, 53.6918654 ] } },
	{ "type": "Feature", "properties": { "osm_id": "6606798480", "name": "Better & Bright", "other_tags": "\"addr:city\"=>\"Pontefract\",\"addr:housename\"=>\"Market Hall\",\"addr:postcode\"=>\"WF8 1AU\",\"addr:street\"=>\"Market Place\",\"addr:town\"=>\"Pontefract\",\"addr:unit\"=>\"12-13\",\"shop\"=>\"clothes\"" }, "geometry": { "type": "Point", "coordinates": [ -1.3109156, 53.6919047 ] } },
	{ "type": "Feature", "properties": { "osm_id": "6611619544", "name": "Jamnian 1", "other_tags": "\"shop\"=>\"clothes\",\"clothes\"=>\"children;school\"" }, "geometry": { "type": "Point", "coordinates": [ -1.4415048, 53.8180795 ] } },
	{ "type": "Feature", "properties": { "osm_id": "6691869418", "name": "Redd Boutique", "other_tags": "\"shop\"=>\"clothes\",\"addr:city\"=>\"Huddersfield\",\"addr:street\"=>\"Pack Horse Walk\",\"addr:postcode\"=>\"HD1 2RT\",\"addr:housenumber\"=>\"10\"" }, "geometry": { "type": "Point", "coordinates": [ -1.781144, 53.6462273 ] } },
	{ "type": "Feature", "properties": { "osm_id": "6691869428", "name": "Greenwoods", "other_tags": "\"shop\"=>\"clothes\",\"addr:city\"=>\"Huddersfield\",\"addr:street\"=>\"King Street\"" }, "geometry": { "type": "Point", "coordinates": [ -1.7812822, 53.6458797 ] } },
	{ "type": "Feature", "properties": { "osm_id": "6711989286", "name": "Pink", "other_tags": "\"addr:city\"=>\"Huddersfield\",\"addr:street\"=>\"Kingsgate Centre\",\"brand\"=>\"Pink\",\"brand:wikidata\"=>\"Q20716793\",\"brand:wikipedia\"=>\"en:Pink (Victoria's Secret)\",\"clothes\"=>\"underwear;women\",\"shop\"=>\"clothes\"" }, "geometry": { "type": "Point", "coordinates": [ -1.7786948, 53.6460179 ] } },
	{ "type": "Feature", "properties": { "osm_id": "6799475467", "name": "Timberland", "other_tags": "\"shop\"=>\"clothes\",\"brand\"=>\"Timberland\",\"brand:wikidata\"=>\"Q1539185\",\"brand:wikipedia\"=>\"en:The Timberland Company\"" }, "geometry": { "type": "Point", "coordinates": [ -1.5450239, 53.7968602 ] } },
	{ "type": "Feature", "properties": { "osm_id": "6814594447", "name": "No 6", "other_tags": "\"shop\"=>\"clothes\"" }, "geometry": { "type": "Point", "coordinates": [ -1.3862672, 53.9278995 ] } },
	{ "type": "Feature", "properties": { "osm_id": "6814612367", "name": "Espada Boutique", "other_tags": "\"shop\"=>\"clothes\"" }, "geometry": { "type": "Point", "coordinates": [ -1.3858149, 53.9282198 ] } },
	{ "type": "Feature", "properties": { "osm_id": "6814632424", "name": "Kool Kidz", "other_tags": "\"shop\"=>\"clothes\"" }, "geometry": { "type": "Point", "coordinates": [ -1.3852858, 53.9299971 ] } },
	{ "type": "Feature", "properties": { "osm_id": "6814640926", "name": "Practically Perfect", "other_tags": "\"shop\"=>\"clothes\"" }, "geometry": { "type": "Point", "coordinates": [ -1.3862745, 53.9280382 ] } },
	{ "type": "Feature", "properties": { "osm_id": "6836914764", "name": "Joules", "other_tags": "\"shop\"=>\"clothes\"" }, "geometry": { "type": "Point", "coordinates": [ -1.8245612, 53.9249997 ] } },
	{ "type": "Feature", "properties": { "osm_id": "6836919225", "name": "The Fitting Room", "other_tags": "\"shop\"=>\"clothes\",\"clothes:underwear\"=>\"yes\"" }, "geometry": { "type": "Point", "coordinates": [ -1.8246549, 53.925002 ] } },
	{ "type": "Feature", "properties": { "osm_id": "6836944201", "name": "Herbert & Stella", "other_tags": "\"shop\"=>\"clothes\"" }, "geometry": { "type": "Point", "coordinates": [ -1.8239153, 53.9253285 ] } },
	{ "type": "Feature", "properties": { "osm_id": "7141868815", "name": "Nousa", "other_tags": "\"shop\"=>\"clothes\",\"clothes\"=>\"women;wedding\"" }, "geometry": { "type": "Point", "coordinates": [ -1.4653255, 53.7990113 ] } },
	{ "type": "Feature", "properties": { "osm_id": "7625005113", "name": "Edinburgh Woollen Mill", "other_tags": "\"shop\"=>\"clothes\",\"brand\"=>\"Edinburgh Woollen Mill\",\"brand:wikidata\"=>\"Q16834657\",\"brand:wikipedia\"=>\"en:Edinburgh Woollen Mill\"" }, "geometry": { "type": "Point", "coordinates": [ -1.3843162, 53.675004 ] } },
	{ "type": "Feature", "properties": { "osm_id": "7746707299", "name": "Fat Face", "other_tags": "\"addr:housename\"=>\"Junction 32 Outlet Shopping Village\",\"addr:postcode\"=>\"WF10 4FR\",\"addr:street\"=>\"Tomahawk Trail\",\"addr:town\"=>\"Castleford\",\"addr:unit\"=>\"91\",\"brand\"=>\"Fat Face\",\"brand:wikidata\"=>\"Q5437186\",\"brand:wikipedia\"=>\"en:Fat Face\",\"shop\"=>\"clothes\"" }, "geometry": { "type": "Point", "coordinates": [ -1.3385728, 53.7117638 ] } },
	{ "type": "Feature", "properties": { "osm_id": "7746707308", "name": "Nike Factory Store", "other_tags": "\"addr:housename\"=>\"Junction 32 Outlet Shopping Village\",\"addr:postcode\"=>\"WF10 4FR\",\"addr:street\"=>\"Tomahawk Trail\",\"addr:town\"=>\"Castleford\",\"addr:unit\"=>\"57\",\"brand\"=>\"Nike\",\"brand:wikidata\"=>\"Q483915\",\"brand:wikipedia\"=>\"en:Nike, Inc.\",\"shop\"=>\"clothes\"" }, "geometry": { "type": "Point", "coordinates": [ -1.3393472, 53.7114127 ] } },
	{ "type": "Feature", "properties": { "osm_id": "7746707310", "name": "Levi's", "other_tags": "\"addr:housename\"=>\"Junction 32 Outlet Shopping Village\",\"addr:postcode\"=>\"WF10 4FR\",\"addr:street\"=>\"Tomahawk Trail\",\"addr:town\"=>\"Castleford\",\"addr:unit\"=>\"3\",\"brand\"=>\"Levi's\",\"brand:wikidata\"=>\"Q127962\",\"brand:wikipedia\"=>\"en:Levi Strauss & Co.\",\"clothes\"=>\"denim;men;women\",\"shop\"=>\"clothes\"" }, "geometry": { "type": "Point", "coordinates": [ -1.3395043, 53.7114677 ] } },
	{ "type": "Feature", "properties": { "osm_id": "7746707311", "name": "Barbour.", "other_tags": "\"addr:housename\"=>\"Junction 32 Outlet Shopping Village\",\"addr:postcode\"=>\"WF10 4FR\",\"addr:street\"=>\"Tomahawk Trail\",\"addr:town\"=>\"Castleford\",\"addr:unit\"=>\"4\",\"clothes\"=>\"outdoor\",\"shop\"=>\"clothes\"" }, "geometry": { "type": "Point", "coordinates": [ -1.3395519, 53.711579 ] } },
	{ "type": "Feature", "properties": { "osm_id": "7746707315", "name": "Ben Sherman", "other_tags": "\"addr:housename\"=>\"Junction 32 Outlet Shopping Village\",\"addr:postcode\"=>\"WF10 4FR\",\"addr:street\"=>\"Tomahawk Trail\",\"addr:town\"=>\"Castleford\",\"addr:unit\"=>\"8\",\"clothes\"=>\"men\",\"shop\"=>\"clothes\"" }, "geometry": { "type": "Point", "coordinates": [ -1.3402282, 53.7119285 ] } },
	{ "type": "Feature", "properties": { "osm_id": "7746707317", "name": "Cotton Traders", "other_tags": "\"addr:housename\"=>\"Junction 32 Outlet Shopping Village\",\"addr:postcode\"=>\"WF10 4FR\",\"addr:street\"=>\"Tomahawk Trail\",\"addr:town\"=>\"Castleford\",\"addr:unit\"=>\"11\",\"clothes\"=>\"men;women\",\"shop\"=>\"clothes\"" }, "geometry": { "type": "Point", "coordinates": [ -1.3405786, 53.7120787 ] } },
	{ "type": "Feature", "properties": { "osm_id": "7746707318", "name": "Kurt Muller", "other_tags": "\"addr:housename\"=>\"Junction 32 Outlet Shopping Village\",\"addr:postcode\"=>\"WF10 4FR\",\"addr:street\"=>\"Tomahawk Trail\",\"addr:town\"=>\"Castleford\",\"addr:unit\"=>\"12\",\"shop\"=>\"clothes\"" }, "geometry": { "type": "Point", "coordinates": [ -1.3406629, 53.7121173 ] } },
	{ "type": "Feature", "properties": { "osm_id": "7750414720", "name": "Blue Inc", "other_tags": "\"addr:housename\"=>\"Junction 32 Outlet Shopping Village\",\"addr:postcode\"=>\"WF10 4FR\",\"addr:street\"=>\"Tomahawk Trail\",\"addr:town\"=>\"Castleford\",\"addr:unit\"=>\"88\",\"shop\"=>\"clothes\"" }, "geometry": { "type": "Point", "coordinates": [ -1.3383994, 53.7120088 ] } },
	{ "type": "Feature", "properties": { "osm_id": "7750414723", "name": "Select", "other_tags": "\"addr:housename\"=>\"Junction 32 Outlet Shopping Village\",\"addr:postcode\"=>\"WF10 4FR\",\"addr:street\"=>\"Tomahawk Trail\",\"addr:town\"=>\"Castleford\",\"addr:unit\"=>\"74\",\"shop\"=>\"clothes\"" }, "geometry": { "type": "Point", "coordinates": [ -1.3396003, 53.712821 ] } },
	{ "type": "Feature", "properties": { "osm_id": "7750414729", "name": "Jack Wills", "other_tags": "\"addr:housename\"=>\"Junction 32 Outlet Shopping Village\",\"addr:postcode\"=>\"WF10 4FR\",\"addr:street\"=>\"Tomahawk Trail\",\"addr:town\"=>\"Castleford\",\"addr:unit\"=>\"53\",\"brand\"=>\"Jack Wills\",\"brand:wikidata\"=>\"Q6115814\",\"brand:wikipedia\"=>\"en:Jack Wills\",\"clothes\"=>\"women;men\",\"shop\"=>\"clothes\"" }, "geometry": { "type": "Point", "coordinates": [ -1.3383447, 53.7115803 ] } },
	{ "type": "Feature", "properties": { "osm_id": "7750414744", "name": "Jack & Jones", "other_tags": "\"addr:housename\"=>\"Junction 32 Outlet Shopping Village\",\"addr:postcode\"=>\"WF10 4FR\",\"addr:street\"=>\"Tomahawk Trail\",\"addr:town\"=>\"Castleford\",\"addr:unit\"=>\"63\",\"brand\"=>\"Jack & Jones\",\"brand:wikidata\"=>\"Q6077665\",\"brand:wikipedia\"=>\"en:Jack & Jones\",\"shop\"=>\"clothes\"" }, "geometry": { "type": "Point", "coordinates": [ -1.3395379, 53.7119354 ] } },
	{ "type": "Feature", "properties": { "osm_id": "7750414747", "name": "Klass", "other_tags": "\"addr:housename\"=>\"Junction 32 Outlet Shopping Village\",\"addr:postcode\"=>\"WF10 4FR\",\"addr:street\"=>\"Tomahawk Trail\",\"addr:town\"=>\"Castleford\",\"addr:unit\"=>\"65\",\"shop\"=>\"clothes\"" }, "geometry": { "type": "Point", "coordinates": [ -1.3397274, 53.7120143 ] } },
	{ "type": "Feature", "properties": { "osm_id": "7750414748", "name": "Mango Outlet", "other_tags": "\"addr:housename\"=>\"Junction 32 Outlet Shopping Village\",\"addr:postcode\"=>\"WF10 4FR\",\"addr:street\"=>\"Tomahawk Trail\",\"addr:town\"=>\"Castleford\",\"addr:unit\"=>\"66\",\"brand\"=>\"Mango\",\"brand:wikidata\"=>\"Q136503\",\"brand:wikipedia\"=>\"en:Mango (retailer)\",\"clothes\"=>\"women\",\"shop\"=>\"clothes\"" }, "geometry": { "type": "Point", "coordinates": [ -1.3398214, 53.7120579 ] } },
	{ "type": "Feature", "properties": { "osm_id": "7750414749", "name": "Eden", "other_tags": "\"addr:housename\"=>\"Junction 32 Outlet Shopping Village\",\"addr:postcode\"=>\"WF10 4FR\",\"addr:street\"=>\"Tomahawk Trail\",\"addr:town\"=>\"Castleford\",\"addr:unit\"=>\"67\",\"clothes\"=>\"men\",\"shop\"=>\"clothes\"" }, "geometry": { "type": "Point", "coordinates": [ -1.3399345, 53.7121005 ] } },
	{ "type": "Feature", "properties": { "osm_id": "7750414751", "name": "Wonderbra", "other_tags": "\"addr:city\"=>\"Castleford\",\"addr:housename\"=>\"Junction 32 Outlet Shopping Village\",\"addr:housenumber\"=>\"Unit 70\",\"addr:postcode\"=>\"WF10 4FR\",\"addr:street\"=>\"Tomahawk Trail\",\"addr:town\"=>\"Castleford\",\"addr:unit\"=>\"68\",\"clothes\"=>\"lingerie\",\"opening_hours:covid19\"=>\"closed\",\"shop\"=>\"clothes\"" }, "geometry": { "type": "Point", "coordinates": [ -1.3401525, 53.7121913 ] } },
	{ "type": "Feature", "properties": { "osm_id": "7837875675", "name": "M&Co", "other_tags": "\"brand\"=>\"M&Co\",\"brand:wikidata\"=>\"Q6711808\",\"brand:wikipedia\"=>\"en:M&Co.\",\"shop\"=>\"clothes\"" }, "geometry": { "type": "Point", "coordinates": [ -1.8227816, 53.9246527 ] } },
	{ "type": "Feature", "properties": { "osm_id": "7847703582", "name": "Eric Spencer", "other_tags": "\"addr:city\"=>\"Ilkley\",\"addr:housenumber\"=>\"15-17\",\"addr:street\"=>\"Church Street\",\"clothes\"=>\"men\",\"shop\"=>\"clothes\"" }, "geometry": { "type": "Point", "coordinates": [ -1.8246498, 53.9261746 ] } },
	{ "type": "Feature", "properties": { "osm_id": "7981609211", "name": "Peacocks", "other_tags": "\"addr:housename\"=>\"Co-op\",\"addr:postcode\"=>\"WF7 7BS\",\"addr:street\"=>\"Barnsley Road\",\"brand\"=>\"Peacocks\",\"brand:wikidata\"=>\"Q7157762\",\"brand:wikipedia\"=>\"en:Peacocks (clothing)\",\"contact:website\"=>\"https:\/\/www.peacocks.co.uk\/store-finder\/index\/storeDetail\/id\/508\/\",\"shop\"=>\"clothes\"" }, "geometry": { "type": "Point", "coordinates": [ -1.3375376, 53.6417603 ] } },
	{ "type": "Feature", "properties": { "osm_id": "8047164094", "name": "Outfit", "other_tags": "\"brand\"=>\"Outfit\",\"brand:wikidata\"=>\"Q7112061\",\"brand:wikipedia\"=>\"en:Outfit (retailer)\",\"shop\"=>\"clothes\"" }, "geometry": { "type": "Point", "coordinates": [ -1.7547474, 53.8016877 ] } },
	{ "type": "Feature", "properties": { "osm_id": "8047164095", "name": "Next", "other_tags": "\"brand\"=>\"Next\",\"brand:wikidata\"=>\"Q246655\",\"brand:wikipedia\"=>\"en:Next plc\",\"shop\"=>\"clothes\"" }, "geometry": { "type": "Point", "coordinates": [ -1.7543906, 53.801772 ] } },
	{ "type": "Feature", "properties": { "osm_id": "8049572264", "name": "Miss Sana", "other_tags": "\"shop\"=>\"clothes\"" }, "geometry": { "type": "Point", "coordinates": [ -1.6609242, 53.7319219 ] } },
	{ "type": "Feature", "properties": { "osm_id": "8049572271", "other_tags": "\"clothes\"=>\"prom;pagent\",\"shop\"=>\"clothes\"" }, "geometry": { "type": "Point", "coordinates": [ -1.6611767, 53.7322691 ] } },
	{ "type": "Feature", "properties": { "osm_id": "8050474751", "name": "Amira London Fashion", "other_tags": "\"shop\"=>\"clothes\"" }, "geometry": { "type": "Point", "coordinates": [ -1.632802, 53.7142872 ] } },
	{ "type": "Feature", "properties": { "osm_id": "8315815406", "name": "Numteg", "other_tags": "\"addr:city\"=>\"Pontefract\",\"addr:housename\"=>\"Morrisons\",\"addr:postcode\"=>\"WF8 1BT\",\"addr:street\"=>\"Stuart Road\",\"clothes\"=>\"children;women;men\",\"shop\"=>\"clothes\"" }, "geometry": { "type": "Point", "coordinates": [ -1.3112097, 53.6936487 ] } },
	{ "type": "Feature", "properties": { "osm_id": "8316250699", "name": "Stephanie's Boutique", "other_tags": "\"addr:city\"=>\"Rawdon\",\"addr:housenumber\"=>\"1\",\"addr:postcode\"=>\"LS19 6HW\",\"addr:street\"=>\"Harrogate Road\",\"shop\"=>\"clothes\"" }, "geometry": { "type": "Point", "coordinates": [ -1.6849097, 53.8533663 ] } },
	{ "type": "Feature", "properties": { "osm_id": "8392777510", "name": "Peacocks", "other_tags": "\"addr:city\"=>\"Leeds\",\"addr:housenumber\"=>\"60\",\"addr:postcode\"=>\"LS25 7AJ\",\"addr:street\"=>\"High Street\",\"brand\"=>\"Peacocks\",\"brand:wikidata\"=>\"Q7157762\",\"brand:wikipedia\"=>\"en:Peacocks (clothing)\",\"contact:website\"=>\"https:\/\/www.peacocks.co.uk\/store-finder\/index\/storeDetail\/id\/449\/\",\"shop\"=>\"clothes\"" }, "geometry": { "type": "Point", "coordinates": [ -1.3673563, 53.7663806 ] } },
	{ "type": "Feature", "properties": { "osm_id": "8619056200", "name": "Wed2B", "other_tags": "\"clothes\"=>\"wedding\",\"shop\"=>\"clothes\"" }, "geometry": { "type": "Point", "coordinates": [ -1.5907082, 53.8087686 ] } },
	{ "type": "Feature", "properties": { "osm_id": "8633753018", "name": "Aminah's Bridal Shop", "other_tags": "\"clothes\"=>\"wedding\",\"shop\"=>\"clothes\"" }, "geometry": { "type": "Point", "coordinates": [ -1.9083756, 53.8689104 ] } },
	{ "type": "Feature", "properties": { "osm_id": "8714198707", "name": "Roman Originals", "other_tags": "\"addr:housename\"=>\"Junction 32 Outlet Shopping Village\",\"addr:postcode\"=>\"WF10 4FR\",\"addr:street\"=>\"Tomahawk Trail\",\"addr:town\"=>\"Castleford\",\"addr:unit\"=>\"18\",\"clothes\"=>\"women\",\"shop\"=>\"clothes\"" }, "geometry": { "type": "Point", "coordinates": [ -1.34058, 53.7125401 ] } },
	{ "type": "Feature", "properties": { "osm_id": "8714198709", "name": "Double Two", "other_tags": "\"addr:housename\"=>\"Junction 32 Outlet Shopping Village\",\"addr:postcode\"=>\"WF10 4FR\",\"addr:street\"=>\"Tomahawk Trail\",\"addr:town\"=>\"Castleford\",\"addr:unit\"=>\"38\",\"shop\"=>\"clothes\"" }, "geometry": { "type": "Point", "coordinates": [ -1.3378459, 53.712861 ] } },
	{ "type": "Feature", "properties": { "osm_id": "8714198710", "name": "Suits Direct", "other_tags": "\"addr:housename\"=>\"Junction 32 Outlet Shopping Village\",\"addr:postcode\"=>\"WF10 4FR\",\"addr:street\"=>\"Tomahawk Trail\",\"addr:town\"=>\"Castleford\",\"addr:unit\"=>\"40\",\"clothes\"=>\"suits\",\"shop\"=>\"clothes\"" }, "geometry": { "type": "Point", "coordinates": [ -1.3377082, 53.7127849 ] } },
	{ "type": "Feature", "properties": { "osm_id": "8714198712", "name": "Moss Bros", "other_tags": "\"addr:housename\"=>\"Junction 32 Outlet Shopping Village\",\"addr:postcode\"=>\"WF10 4FR\",\"addr:street\"=>\"Tomahawk Trail\",\"addr:town\"=>\"Castleford\",\"addr:unit\"=>\"44\",\"brand\"=>\"Moss Bros\",\"brand:wikidata\"=>\"Q6916538\",\"brand:wikipedia\"=>\"en:Moss Bros Group\",\"clothes\"=>\"men\",\"shop\"=>\"clothes\"" }, "geometry": { "type": "Point", "coordinates": [ -1.3373217, 53.7125145 ] } },
	{ "type": "Feature", "properties": { "osm_id": "8714198716", "name": "Quiz", "other_tags": "\"addr:housename\"=>\"Junction 32 Outlet Shopping Village\",\"addr:postcode\"=>\"WF10 4FR\",\"addr:street\"=>\"Tomahawk Trail\",\"addr:town\"=>\"Castleford\",\"addr:unit\"=>\"51\",\"brand\"=>\"Quiz\",\"brand:wikidata\"=>\"Q29995941\",\"brand:wikipedia\"=>\"en:Quiz (clothing)\",\"clothes\"=>\"women\",\"shop\"=>\"clothes\"" }, "geometry": { "type": "Point", "coordinates": [ -1.338045, 53.7118977 ] } },
	{ "type": "Feature", "properties": { "osm_id": "8714242618", "name": "Gap Outlet", "other_tags": "\"addr:housename\"=>\"Junction 32 Outlet Shopping Village\",\"addr:postcode\"=>\"WF10 4FR\",\"addr:street\"=>\"Tomahawk Trail\",\"addr:town\"=>\"Castleford\",\"addr:unit\"=>\"85\",\"brand\"=>\"Gap\",\"brand:wikidata\"=>\"Q420822\",\"brand:wikipedia\"=>\"en:Gap Inc.\",\"clothes\"=>\"men;women;children\",\"shop\"=>\"clothes\"" }, "geometry": { "type": "Point", "coordinates": [ -1.3380544, 53.7122974 ] } },
	{ "type": "Feature", "properties": { "osm_id": "8714242625", "name": "Urban", "other_tags": "\"addr:housename\"=>\"Junction 32 Outlet Shopping Village\",\"addr:postcode\"=>\"WF10 4FR\",\"addr:street\"=>\"Tomahawk Trail\",\"addr:town\"=>\"Castleford\",\"addr:unit\"=>\"70\",\"shop\"=>\"clothes\"" }, "geometry": { "type": "Point", "coordinates": [ -1.3400376, 53.7126294 ] } },
	{ "type": "Feature", "properties": { "osm_id": "8714242628", "name": "Weird Fish", "other_tags": "\"addr:housename\"=>\"Junction 32 Outlet Shopping Village\",\"addr:postcode\"=>\"WF10 4FR\",\"addr:street\"=>\"Tomahawk Trail\",\"addr:town\"=>\"Castleford\",\"addr:unit\"=>\"76\",\"shop\"=>\"clothes\"" }, "geometry": { "type": "Point", "coordinates": [ -1.3387433, 53.7128881 ] } },
	{ "type": "Feature", "properties": { "osm_id": "8793992366", "name": "Ritesport", "other_tags": "\"addr:housename\"=>\"Market Hall\",\"addr:postcode\"=>\"WF8 1AU\",\"addr:street\"=>\"Market Place\",\"addr:town\"=>\"Pontefract\",\"shop\"=>\"clothes\"" }, "geometry": { "type": "Point", "coordinates": [ -1.3109449, 53.6917544 ] } },
	{ "type": "Feature", "properties": { "osm_id": null, "centroid": { "latitude": 53.681569, "longitude": -1.503515 }, "osm_way_id": "87266764", "name": "Unique Bridal", "building": "yes", "shop": "clothes", "other_tags": "\"takeaway\"=>\"yes\",\"addr:city\"=>\"Wakefield\",\"addr:street\"=>\"Westgate\",\"addr:postcode\"=>\"WF1 1EL\",\"addr:housenumber\"=>\"105\"" }, "geometry": { "type": "MultiPolygon", "coordinates": [ [ [ [ -1.5035226, 53.6815013 ], [ -1.5036021, 53.6816025 ], [ -1.5035225, 53.6816245 ], [ -1.5034759, 53.6816373 ], [ -1.5034279, 53.681576 ], [ -1.5034552, 53.6815685 ], [ -1.5034732, 53.6815636 ], [ -1.503497, 53.681557 ], [ -1.5034656, 53.681517 ], [ -1.5035226, 53.6815013 ] ] ] ] } },
	{ "type": "Feature", "properties": { "osm_id": null, "centroid": { "latitude": 53.702406, "longitude": -1.778698 }, "osm_way_id": "88397390", "name": "M&Co", "building": "yes", "shop": "clothes", "other_tags": "\"brand\"=>\"M&Co\",\"brand:wikidata\"=>\"Q6711808\",\"brand:wikipedia\"=>\"en:M&Co.\"" }, "geometry": { "type": "MultiPolygon", "coordinates": [ [ [ [ -1.7788828, 53.7023348 ], [ -1.7790493, 53.7023333 ], [ -1.7790479, 53.7024047 ], [ -1.779052, 53.7024593 ], [ -1.778898, 53.7024573 ], [ -1.7788895, 53.7024693 ], [ -1.77841, 53.7025276 ], [ -1.7783447, 53.7023472 ], [ -1.7787661, 53.7022909 ], [ -1.7788183, 53.7022836 ], [ -1.7788573, 53.7023388 ], [ -1.7788828, 53.7023348 ] ] ] ] } },
	{ "type": "Feature", "properties": { "osm_id": null, "centroid": { "latitude": 53.828593, "longitude": -1.712287 }, "osm_way_id": "89624038", "name": "Matalan", "building": "retail", "landuse": "retail", "shop": "clothes", "other_tags": "\"brand\"=>\"Matalan\",\"brand:wikidata\"=>\"Q12061509\",\"brand:wikipedia\"=>\"en:Matalan\",\"website\"=>\"https:\/\/www.matalan.co.uk\/stores\/bradford-greengates\"" }, "geometry": { "type": "MultiPolygon", "coordinates": [ [ [ [ -1.7129021, 53.8284212 ], [ -1.7125265, 53.8289635 ], [ -1.7116713, 53.8287759 ], [ -1.7120296, 53.8282234 ], [ -1.7129021, 53.8284212 ] ] ] ] } },
	{ "type": "Feature", "properties": { "osm_id": null, "centroid": { "latitude": 53.677426, "longitude": -1.495441 }, "osm_way_id": "97086040", "name": "Matalan", "building": "yes", "shop": "clothes", "other_tags": "\"addr:city\"=>\"Wakefield\",\"addr:housenumber\"=>\"Unit 8\",\"addr:postcode\"=>\"WF1 1RN\",\"addr:street\"=>\"Ings Road\",\"brand\"=>\"Matalan\",\"brand:wikidata\"=>\"Q12061509\",\"brand:wikipedia\"=>\"en:Matalan\"" }, "geometry": { "type": "MultiPolygon", "coordinates": [ [ [ [ -1.4958654, 53.67731 ], [ -1.4957911, 53.6774429 ], [ -1.4956646, 53.677669 ], [ -1.495016, 53.6775417 ], [ -1.4951893, 53.677232 ], [ -1.4952169, 53.6771827 ], [ -1.4958654, 53.67731 ] ] ] ] } },
	{ "type": "Feature", "properties": { "osm_id": null, "centroid": { "latitude": 53.801040, "longitude": -1.534001 }, "osm_way_id": "113160848", "name": "Sports Bike Shop", "building": "yes", "shop": "clothes", "other_tags": "\"addr:city\"=>\"Leeds\",\"addr:housenumber\"=>\"3\",\"addr:postcode\"=>\"LS2 7QN\",\"addr:street\"=>\"Regent Street\",\"clothes\"=>\"motorcycle\",\"old_name\"=>\"Maplin\",\"wheelchair\"=>\"yes\"" }, "geometry": { "type": "MultiPolygon", "coordinates": [ [ [ [ -1.5336748, 53.8010998 ], [ -1.5337477, 53.8009145 ], [ -1.5338263, 53.8009253 ], [ -1.5338358, 53.8009011 ], [ -1.5343276, 53.8009685 ], [ -1.5342453, 53.801178 ], [ -1.5336748, 53.8010998 ] ] ] ] } },
	{ "type": "Feature", "properties": { "osm_id": null, "centroid": { "latitude": 53.801192, "longitude": -1.533939 }, "osm_way_id": "113160885", "name": "J&S Motorcycle Clothing and Accessories", "building": "yes", "shop": "clothes", "other_tags": "\"addr:city\"=>\"Leeds\",\"addr:street\"=>\"Regent Street\",\"addr:postcode\"=>\"LS2 7QA\",\"addr:housenumber\"=>\"3\"" }, "geometry": { "type": "MultiPolygon", "coordinates": [ [ [ [ -1.5342035, 53.8012842 ], [ -1.533633, 53.801206 ], [ -1.5336748, 53.8010998 ], [ -1.5342453, 53.801178 ], [ -1.5342035, 53.8012842 ] ] ] ] } },
	{ "type": "Feature", "properties": { "osm_id": null, "centroid": { "latitude": 53.702001, "longitude": -1.780997 }, "osm_way_id": "115559379", "name": "Store Twenty One", "building": "yes", "shop": "clothes" }, "geometry": { "type": "MultiPolygon", "coordinates": [ [ [ [ -1.7811103, 53.7018473 ], [ -1.7811341, 53.701911 ], [ -1.7810208, 53.7019258 ], [ -1.7810605, 53.7020324 ], [ -1.7811006, 53.7021389 ], [ -1.7809657, 53.7021551 ], [ -1.7809129, 53.7020229 ], [ -1.7808599, 53.70188 ], [ -1.7811103, 53.7018473 ] ] ] ] } },
	{ "type": "Feature", "properties": { "osm_id": null, "centroid": { "latitude": 53.726017, "longitude": -1.852133 }, "osm_way_id": "118710058", "name": "Next", "building": "yes", "shop": "clothes", "other_tags": "\"addr:city\"=>\"Halifax\",\"addr:country\"=>\"GB\",\"addr:postcode\"=>\"HX3 6AB\",\"addr:street\"=>\"Charlestown Road\",\"brand\"=>\"Next\",\"brand:wikidata\"=>\"Q246655\",\"brand:wikipedia\"=>\"en:Next plc\"" }, "geometry": { "type": "MultiPolygon", "coordinates": [ [ [ [ -1.8524344, 53.7262413 ], [ -1.8516492, 53.7259994 ], [ -1.8518313, 53.7257925 ], [ -1.8526165, 53.7260345 ], [ -1.8524344, 53.7262413 ] ] ] ] } },
	{ "type": "Feature", "properties": { "osm_id": null, "centroid": { "latitude": 53.771037, "longitude": -1.760862 }, "osm_way_id": "120860453", "name": "Matalan", "building": "retail", "shop": "clothes", "other_tags": "\"brand\"=>\"Matalan\",\"brand:wikidata\"=>\"Q12061509\",\"brand:wikipedia\"=>\"en:Matalan\",\"building:levels\"=>\"2\"" },