{
"type": "FeatureCollection",
"crs": { "type": "name", "properties": { "name": "urn:ogc:def:crs:OGC:1.3:CRS84" } },
"features": [
	{ "type": "Feature", "properties": { "osm_id": "302049488", "name": "DFS", "other_tags": "\"shop\"=>\"furniture\"" }, "geometry": { "type": "Point", "coordinates": [ -1.6427846, 53.7456442 ] } },
	{ "type": "Feature", "properties": { "osm_id": "302049534", "name": "Harvey's", "other_tags": "\"shop\"=>\"furniture\"" }, "geometry": { "type": "Point", "coordinates": [ -1.6462938, 53.7436222 ] } },
	{ "type": "Feature", "properties": { "osm_id": "313194481", "name": "John Peters", "other_tags": "\"shop\"=>\"furniture\",\"disused\"=>\"yes\"" }, "geometry": { "type": "Point", "coordinates": [ -1.5713428, 53.7971468 ] } },
	{ "type": "Feature", "properties": { "osm_id": "313246919", "name": "Daves Bazaar Home Furniture", "other_tags": "\"shop\"=>\"furniture\"" }, "geometry": { "type": "Point", "coordinates": [ -1.5873188, 53.7975157 ] } },
	{ "type": "Feature", "properties": { "osm_id": "330089290", "name": "RSPCA Furniture Store", "other_tags": "\"shop\"=>\"furniture\"" }, "geometry": { "type": "Point", "coordinates": [ -1.591404, 53.7967418 ] } },
	{ "type": "Feature", "properties": { "osm_id": "331654380", "name": "Malcolm's Used Appliances and Furniture", "other_tags": "\"shop\"=>\"furniture\"" }, "geometry": { "type": "Point", "coordinates": [ -1.5970018, 53.7969354 ] } },
	{ "type": "Feature", "properties": { "osm_id": "333427383", "name": "Shimu", "other_tags": "\"addr:city\"=>\"Shipley\",\"addr:village\"=>\"Saltaire\",\"shop\"=>\"furniture\"" }, "geometry": { "type": "Point", "coordinates": [ -1.7898393, 53.8380492 ] } },
	{ "type": "Feature", "properties": { "osm_id": "333790918", "name": "MHF Bed Warehouse", "other_tags": "\"shop\"=>\"furniture\"" }, "geometry": { "type": "Point", "coordinates": [ -1.5388522, 53.7853677 ] } },
	{ "type": "Feature", "properties": { "osm_id": "334884403", "name": "Office Furniture Solutions", "other_tags": "\"shop\"=>\"furniture\"" }, "geometry": { "type": "Point", "coordinates": [ -1.5851041, 53.8069825 ] } },
	{ "type": "Feature", "properties": { "osm_id": "684328962", "name": "Woodkirk Furniture", "other_tags": "\"shop\"=>\"furniture\"" }, "geometry": { "type": "Point", "coordinates": [ -1.5928112, 53.7161287 ] } },
	{ "type": "Feature", "properties": { "osm_id": "685938559", "name": "Furniture 4U", "other_tags": "\"addr:city\"=>\"Bradford\",\"addr:housenumber\"=>\"13\/14\",\"addr:postcode\"=>\"BD4 9HN\",\"addr:street\"=>\"The Parade\",\"opening_hours\"=>\"Mo,Th 14:00-15:00; Tu,We,Fr 10:00-15:30\",\"operator\"=>\"Good Neighbour Project\",\"phone\"=>\"+44 1274 680997\",\"shop\"=>\"furniture\"" }, "geometry": { "type": "Point", "coordinates": [ -1.7109564, 53.7787964 ] } },
	{ "type": "Feature", "properties": { "osm_id": "687081049", "name": "Carpet Design", "other_tags": "\"shop\"=>\"furniture\"" }, "geometry": { "type": "Point", "coordinates": [ -1.7127976, 53.7684481 ] } },
	{ "type": "Feature", "properties": { "osm_id": "798553615", "name": "Scar Top Furniture", "other_tags": "\"shop\"=>\"furniture\"" }, "geometry": { "type": "Point", "coordinates": [ -2.0340802, 53.8374933 ] } },
	{ "type": "Feature", "properties": { "osm_id": "998439565", "name": "Newway", "other_tags": "\"phone\"=>\"+44 1924 475208\",\"shop\"=>\"furniture\"" }, "geometry": { "type": "Point", "coordinates": [ -1.6565377, 53.7343979 ] } },
	{ "type": "Feature", "properties": { "osm_id": "998439579", "name": "Bed Factory", "other_tags": "\"shop\"=>\"furniture\"" }, "geometry": { "type": "Point", "coordinates": [ -1.6566642, 53.7350141 ] } },
	{ "type": "Feature", "properties": { "osm_id": "1414463646", "name": "Picture House Antiques", "other_tags": "\"shop\"=>\"furniture\"" }, "geometry": { "type": "Point", "coordinates": [ -2.0981311, 53.71272 ] } },
	{ "type": "Feature", "properties": { "osm_id": "1593619587", "name": "Office Furniture", "other_tags": "\"shop\"=>\"furniture\"" }, "geometry": { "type": "Point", "coordinates": [ -1.6512302, 53.6813772 ] } },
	{ "type": "Feature", "properties": { "osm_id": "1655189882", "name": "Bensons Beds", "other_tags": "\"addr:city\"=>\"Keighley\",\"addr:district\"=>\"Keighley Retail Park\",\"addr:postcode\"=>\"BD21 3NJ\",\"addr:street\"=>\"Hard Ings Road\",\"shop\"=>\"furniture\"" }, "geometry": { "type": "Point", "coordinates": [ -1.9050277, 53.8739805 ] } },
	{ "type": "Feature", "properties": { "osm_id": "1655189887", "name": "The Bed Shop Superstore", "other_tags": "\"addr:city\"=>\"Keighley\",\"addr:district\"=>\"Keighley Retail Park\",\"addr:postcode\"=>\"BD21 3NJ\",\"addr:street\"=>\"Hard Ings Road\",\"old_name\"=>\"Brantano\",\"shop\"=>\"furniture\"" }, "geometry": { "type": "Point", "coordinates": [ -1.9052855, 53.8740201 ] } },
	{ "type": "Feature", "properties": { "osm_id": "1906669749", "name": "W & T Nettleton", "other_tags": "\"shop\"=>\"furniture\"" }, "geometry": { "type": "Point", "coordinates": [ -1.558444, 53.6601228 ] } },
	{ "type": "Feature", "properties": { "osm_id": "1938632022", "name": "Cave", "other_tags": "\"addr:city\"=>\"Horsforth\",\"addr:housename\"=>\"Unit 1\",\"addr:postcode\"=>\"LS18 5AT\",\"addr:street\"=>\"Long Row\",\"old_name\"=>\"Triangle\",\"shop\"=>\"furniture\"" }, "geometry": { "type": "Point", "coordinates": [ -1.6335553, 53.8458528 ] } },
	{ "type": "Feature", "properties": { "osm_id": "1957575016", "name": "Lowbridge Upholstery", "other_tags": "\"shop\"=>\"furniture\",\"craft\"=>\"upholsterer\"" }, "geometry": { "type": "Point", "coordinates": [ -1.9100445, 53.8692539 ] } },
	{ "type": "Feature", "properties": { "osm_id": "2661215476", "name": "Waltons Fine Furnishings", "other_tags": "\"shop\"=>\"furniture\"" }, "geometry": { "type": "Point", "coordinates": [ -1.8199183, 53.9266106 ] } },
	{ "type": "Feature", "properties": { "osm_id": "3170861008", "name": "A White", "other_tags": "\"shop\"=>\"furniture\"" }, "geometry": { "type": "Point", "coordinates": [ -1.5408673, 53.8106341 ] } },
	{ "type": "Feature", "properties": { "osm_id": "3174782105", "name": "Pass it on", "other_tags": "\"charity\"=>\"Yorkshire Childrens Centre\",\"contact:email\"=>\"passiton@yccuk.org.uk\",\"contact:phone\"=>\"+44 1924 404089\",\"second_hand\"=>\"yes\",\"shop\"=>\"furniture\",\"website\"=>\"yorkshirechildrenscentre.org.uk\/shop\/\"" }, "geometry": { "type": "Point", "coordinates": [ -1.667835, 53.7087247 ] } },
	{ "type": "Feature", "properties": { "osm_id": "3187625157", "other_tags": "\"shop\"=>\"furniture\"" }, "geometry": { "type": "Point", "coordinates": [ -1.5532745, 53.8139492 ] } },
	{ "type": "Feature", "properties": { "osm_id": "3191896318", "name": "Oak Furniture Land", "other_tags": "\"addr:city\"=>\"Guiseley\",\"addr:housename\"=>\"Unit 3\",\"addr:postcode\"=>\"LS20 8QH\",\"addr:street\"=>\"Park Road\",\"addr:subdistrict\"=>\"Guiseley Retail Park\",\"shop\"=>\"furniture\",\"website\"=>\"https:\/\/www.oakfurnitureland.co.uk\/showrooms\/guiseley.html\"" }, "geometry": { "type": "Point", "coordinates": [ -1.7098606, 53.871137 ] } },
	{ "type": "Feature", "properties": { "osm_id": "3715344950", "name": "Harval Furniture", "other_tags": "\"addr:city\"=>\"Rawdon\",\"addr:housenumber\"=>\"2\",\"addr:postcode\"=>\"LS19 6AX\",\"addr:street\"=>\"Leeds Road\",\"phone\"=>\"+44 113 202 9696\",\"shop\"=>\"furniture\",\"website\"=>\"https:\/\/www.harval.co.uk\/\"" }, "geometry": { "type": "Point", "coordinates": [ -1.6847084, 53.852535 ] } },
	{ "type": "Feature", "properties": { "osm_id": "3718484576", "name": "Kettley's Furniture Store", "other_tags": "\"addr:city\"=>\"Yeadon\",\"addr:housenumber\"=>\"35\",\"addr:postcode\"=>\"LS19 7RE\",\"addr:street\"=>\"Ivegate\",\"phone\"=>\"+44 113 250 3716\",\"shop\"=>\"furniture\",\"website\"=>\"https:\/\/www.kettleysfurniture.co.uk\/\"" }, "geometry": { "type": "Point", "coordinates": [ -1.6865628, 53.865402 ] } },
	{ "type": "Feature", "properties": { "osm_id": "3718505643", "name": "Forevermoore Vintage Chic", "other_tags": "\"addr:city\"=>\"Yeadon\",\"addr:housenumber\"=>\"17\",\"addr:postcode\"=>\"LS19 7EQ\",\"addr:street\"=>\"Town Street\",\"phone\"=>\"+44 113 239 1481\",\"shop\"=>\"furniture\"" }, "geometry": { "type": "Point", "coordinates": [ -1.6865004, 53.8658503 ] } },
	{ "type": "Feature", "properties": { "osm_id": "3906862939", "name": "Wharfedale Furniture", "other_tags": "\"addr:city\"=>\"Horsforth\",\"addr:housenumber\"=>\"194\",\"addr:postcode\"=>\"LS18 4DP\",\"addr:street\"=>\"New Road Side\",\"opening_hours\"=>\"Mo-Su 10:00-17:00\",\"phone\"=>\"+44 113 281 8128\",\"shop\"=>\"furniture\",\"website\"=>\"http:\/\/www.wharfedalefurniture.com\/\"" }, "geometry": { "type": "Point", "coordinates": [ -1.6476011, 53.8334472 ] } },
	{ "type": "Feature", "properties": { "osm_id": "4181348750", "name": "Floor To Ceiling", "other_tags": "\"addr:city\"=>\"Huddersfield\",\"addr:postcode\"=>\"HD1 4SE\",\"addr:street\"=>\"Shires Hill\",\"description\"=>\"We offer a friendly one to one service to all of our customers and pay close attention to the individual requirements so that we can create furniture that fits your specifications and meets your every need.\",\"opening_hours\"=>\"Mo-Th 09:30-17:30; Fr,Sa 09:30-13:30; Su off\",\"phone\"=>\"+44 1484 513030\",\"shop\"=>\"furniture\",\"website\"=>\"https:\/\/floortoceilingfittedfurniture.com\/\",\"wheelchair\"=>\"yes\"" }, "geometry": { "type": "Point", "coordinates": [ -1.801033, 53.6417854 ] } },
	{ "type": "Feature", "properties": { "osm_id": "4353989170", "name": "Comfy Homes", "other_tags": "\"addr:city\"=>\"Wakefield\",\"addr:housenumber\"=>\"39-41\",\"addr:street\"=>\"Westgate\",\"shop\"=>\"furniture\"" }, "geometry": { "type": "Point", "coordinates": [ -1.4997813, 53.682299 ] } },
	{ "type": "Feature", "properties": { "osm_id": "4622772472", "name": "ScS", "other_tags": "\"shop\"=>\"furniture\",\"entrance\"=>\"main\"" }, "geometry": { "type": "Point", "coordinates": [ -1.768034, 53.6576262 ] } },
	{ "type": "Feature", "properties": { "osm_id": "4622772475", "name": "Oak Furnitureland", "other_tags": "\"shop\"=>\"furniture\",\"entrance\"=>\"yes\"" }, "geometry": { "type": "Point", "coordinates": [ -1.7673207, 53.6579244 ] } }
]
}
