{
"type": "FeatureCollection",
"crs": { "type": "name", "properties": { "name": "urn:ogc:def:crs:OGC:1.3:CRS84" } },
"features": [
	{ "type": "Feature", "properties": { "osm_id": "662441231", "name": "Tattoo Studio", "other_tags": "\"shop\"=>\"tattoo\"" }, "geometry": { "type": "Point", "coordinates": [ -1.7215926, 53.7712258 ] } },
	{ "type": "Feature", "properties": { "osm_id": "1686475070", "name": "The Ink Station", "other_tags": "\"shop\"=>\"tattoo\"" }, "geometry": { "type": "Point", "coordinates": [ -1.6716293, 53.7076419 ] } },
	{ "type": "Feature", "properties": { "osm_id": "1924347573", "name": "Skinz", "other_tags": "\"shop\"=>\"tattoo\",\"website\"=>\"http:\/\/www.skinzstudio.com\"" }, "geometry": { "type": "Point", "coordinates": [ -1.6368149, 53.806548 ] } },
	{ "type": "Feature", "properties": { "osm_id": "2110352265", "name": "Jimmy Scribble", "other_tags": "\"addr:city\"=>\"Leeds\",\"addr:housenumber\"=>\"317\",\"addr:postcode\"=>\"LS10 1NJ\",\"addr:street\"=>\"Hunslet Road\",\"shop\"=>\"tattoo\"" }, "geometry": { "type": "Point", "coordinates": [ -1.529335, 53.7831153 ] } },
	{ "type": "Feature", "properties": { "osm_id": "2128107670", "name": "Rude Studios", "other_tags": "\"shop\"=>\"tattoo\"" }, "geometry": { "type": "Point", "coordinates": [ -1.5401253, 53.7969966 ] } },
	{ "type": "Feature", "properties": { "osm_id": "2134260286", "name": "Sacred Electric Tattoo", "other_tags": "\"shop\"=>\"tattoo\"" }, "geometry": { "type": "Point", "coordinates": [ -1.545806, 53.795462 ] } },
	{ "type": "Feature", "properties": { "osm_id": "3718505666", "name": "Adam's Tattoos", "other_tags": "\"addr:city\"=>\"Yeadon\",\"addr:housenumber\"=>\"32\",\"addr:postcode\"=>\"LS19 7EQ\",\"addr:street\"=>\"Town Street\",\"phone\"=>\"+44 113 391 0505\",\"shop\"=>\"tattoo\"" }, "geometry": { "type": "Point", "coordinates": [ -1.6871774, 53.8659793 ] } },
	{ "type": "Feature", "properties": { "osm_id": "3898601891", "name": "Station Tattoo", "other_tags": "\"addr:city\"=>\"Horsforth\",\"addr:housenumber\"=>\"27\",\"addr:postcode\"=>\"LS18 5PA\",\"addr:street\"=>\"Station Road\",\"opening_hours\"=>\"Mo-Th 10:30-18:00; Fr-Sa 10:30-21:00; Su Closed\",\"phone\"=>\"+44 113 225 4908\",\"shop\"=>\"tattoo\"" }, "geometry": { "type": "Point", "coordinates": [ -1.6318988, 53.8469621 ] } },
	{ "type": "Feature", "properties": { "osm_id": "4353989164", "name": "Black Craft", "other_tags": "\"addr:city\"=>\"Wakefield\",\"addr:housenumber\"=>\"14\",\"addr:postcode\"=>\"WF1 1PH\",\"addr:street\"=>\"Cross Square\",\"shop\"=>\"tattoo\"" }, "geometry": { "type": "Point", "coordinates": [ -1.4985171, 53.6830821 ] } },
	{ "type": "Feature", "properties": { "osm_id": "4353989297", "name": "Brook Street Tattoo and Piercing Room", "other_tags": "\"addr:city\"=>\"Wakefield\",\"addr:housenumber\"=>\"17\",\"addr:postcode\"=>\"WF1 1QW\",\"addr:street\"=>\"Brook Street\",\"shop\"=>\"tattoo\"" }, "geometry": { "type": "Point", "coordinates": [ -1.4967824, 53.683843 ] } },
	{ "type": "Feature", "properties": { "osm_id": "4453228161", "name": "Jawbones Tattoo", "other_tags": "\"phone\"=>\"+44 7784 236701\",\"shop\"=>\"tattoo\",\"website\"=>\"https:\/\/www.facebook.com\/jawbonestattoo\/\"" }, "geometry": { "type": "Point", "coordinates": [ -1.5046951, 53.7585013 ] } },
	{ "type": "Feature", "properties": { "osm_id": "4457898919", "name": "Wilde Ink", "other_tags": "\"shop\"=>\"tattoo\",\"addr:city\"=>\"Wakefield\",\"addr:street\"=>\"Silver Street\",\"addr:postcode\"=>\"WF1 1UY\",\"addr:housenumber\"=>\"8\"" }, "geometry": { "type": "Point", "coordinates": [ -1.4997334, 53.682787 ] } }
]
}
