{
"type": "FeatureCollection",
"crs": { "type": "name", "properties": { "name": "urn:ogc:def:crs:OGC:1.3:CRS84" } },
"features": [
	{ "type": "Feature", "properties": { "osm_id": "31418130", "amenity": "place_of_worship" }, "geometry": { "type": "Point", "coordinates": [ -1.4003184, 53.6076082 ] } },
	{ "type": "Feature", "properties": { "osm_id": "31418651", "amenity": "place_of_worship" }, "geometry": { "type": "Point", "coordinates": [ -1.3700416, 53.6260376 ] } },
	{ "type": "Feature", "properties": { "osm_id": "52761018", "name": "Blenheim Baptist Church", "amenity": "place_of_worship", "other_tags": "\"religion\"=>\"christian\",\"wikidata\"=>\"Q26547219\",\"denomination\"=>\"baptist\"" }, "geometry": { "type": "Point", "coordinates": [ -1.5488334, 53.8063609 ] } },
	{ "type": "Feature", "properties": { "osm_id": "224427399", "name": "Steep Lane Baptist Chapel", "amenity": "place_of_worship", "other_tags": "\"religion\"=>\"christian\",\"denomination\"=>\"baptist\"" }, "geometry": { "type": "Point", "coordinates": [ -1.9573869, 53.7094075 ] } },
	{ "type": "Feature", "properties": { "osm_id": "245978097", "name": "Elim Church", "amenity": "place_of_worship", "other_tags": "\"fhrs:id\"=>\"346849\",\"building\"=>\"church\",\"religion\"=>\"christian\",\"addr:city\"=>\"Sowerby Bridge\",\"addr:street\"=>\"Ryburn Street\",\"source:addr\"=>\"FHRS Open Data\",\"addr:country\"=>\"GB\",\"denomination\"=>\"pentecostal\",\"addr:postcode\"=>\"HX6 3AZ\",\"addr:housename\"=>\"Oasis Family Centre\"" }, "geometry": { "type": "Point", "coordinates": [ -1.9161072, 53.7056637 ] } },
	{ "type": "Feature", "properties": { "osm_id": "251390251", "name": "St Paulinus", "amenity": "place_of_worship", "other_tags": "\"denomination\"=>\"catholic\",\"religion\"=>\"christian\",\"wikidata\"=>\"Q26428096\"" }, "geometry": { "type": "Point", "coordinates": [ -1.6415959, 53.6873278 ] } },
	{ "type": "Feature", "properties": { "osm_id": "252944665", "name": "Providence Independent Methodist Church", "amenity": "place_of_worship", "other_tags": "\"religion\"=>\"christian\",\"denomination\"=>\"methodist\"" }, "geometry": { "type": "Point", "coordinates": [ -1.6411236, 53.6903366 ] } },
	{ "type": "Feature", "properties": { "osm_id": "269032234", "name": "Church on the Way", "amenity": "place_of_worship", "other_tags": "\"addr:city\"=>\"Bradford\",\"addr:housenumber\"=>\"158\",\"addr:postcode\"=>\"BD10 8SA\",\"addr:street\"=>\"Bradford Road\",\"addr:village\"=>\"Idle\",\"fhrs:id\"=>\"740387\",\"religion\"=>\"christian\"" }, "geometry": { "type": "Point", "coordinates": [ -1.7349434, 53.8256638 ] } },
	{ "type": "Feature", "properties": { "osm_id": "270542648", "name": "Horbury Methodist Church", "amenity": "place_of_worship", "other_tags": "\"religion\"=>\"christian\",\"denomination\"=>\"methodist\"" }, "geometry": { "type": "Point", "coordinates": [ -1.5561936, 53.6604241 ] } },
	{ "type": "Feature", "properties": { "osm_id": "279035007", "name": "South Ossett Baptist Church", "amenity": "place_of_worship", "other_tags": "\"religion\"=>\"christian\",\"denomination\"=>\"baptist\"" }, "geometry": { "type": "Point", "coordinates": [ -1.5604164, 53.6749581 ] } },
	{ "type": "Feature", "properties": { "osm_id": "279787271", "name": "St Ignatius Church", "amenity": "place_of_worship", "other_tags": "\"religion\"=>\"christian\",\"denomination\"=>\"catholic\"" }, "geometry": { "type": "Point", "coordinates": [ -1.5745727, 53.6688079 ] } },
	{ "type": "Feature", "properties": { "osm_id": "286836599", "name": "National Spiritualist Church", "amenity": "place_of_worship", "other_tags": "\"denomination\"=>\"spiritualist\",\"religion\"=>\"spiritualist\"" }, "geometry": { "type": "Point", "coordinates": [ -1.5808266, 53.679189 ] } },
	{ "type": "Feature", "properties": { "osm_id": "286836660", "name": "Dale Street Evangelical Church", "amenity": "place_of_worship", "other_tags": "\"religion\"=>\"christian\",\"denomination\"=>\"evangelical\"" }, "geometry": { "type": "Point", "coordinates": [ -1.5766636, 53.6850188 ] } },
	{ "type": "Feature", "properties": { "osm_id": "288958109", "name": "Carlton Hill Friends Meeting House", "amenity": "place_of_worship", "other_tags": "\"religion\"=>\"christian\",\"denomination\"=>\"quaker\"" }, "geometry": { "type": "Point", "coordinates": [ -1.5545671, 53.8100502 ] } },
	{ "type": "Feature", "properties": { "osm_id": "290433502", "name": "St Thomas More Catholic Church", "amenity": "place_of_worship", "other_tags": "\"religion\"=>\"christian\",\"denomination\"=>\"catholic\"" }, "geometry": { "type": "Point", "coordinates": [ -1.5997995, 53.6874502 ] } },
	{ "type": "Feature", "properties": { "osm_id": "292238631", "name": "Victory Christian Centre", "amenity": "place_of_worship", "other_tags": "\"religion\"=>\"christian\"" }, "geometry": { "type": "Point", "coordinates": [ -1.5437996, 53.7740807 ] } },
	{ "type": "Feature", "properties": { "osm_id": "292321123", "name": "Salvation Army", "amenity": "place_of_worship", "other_tags": "\"fhrs:id\"=>\"283989\",\"religion\"=>\"christian\",\"addr:street\"=>\"Leeds Road\",\"addr:postcode\"=>\"WF5 9QW\"" }, "geometry": { "type": "Point", "coordinates": [ -1.5921322, 53.6938388 ] } },
	{ "type": "Feature", "properties": { "osm_id": "294182599", "name": "Our Lady Of The Nativity", "amenity": "place_of_worship", "other_tags": "\"religion\"=>\"christian\",\"denomination\"=>\"catholic\"" }, "geometry": { "type": "Point", "coordinates": [ -1.5653526, 53.7240116 ] } },
	{ "type": "Feature", "properties": { "osm_id": "295416224", "name": "Calvary Chapel Otley", "amenity": "place_of_worship", "other_tags": "\"url\"=>\"www.calvarychapel.com\/church-details.cfm?ChurchID=100670\",\"religion\"=>\"christian\",\"addr:city\"=>\"Otley\",\"is_in:town\"=>\"Otley\",\"addr:street\"=>\"Westgate\",\"denomination\"=>\"calvary_chapel\",\"addr:postcode\"=>\"LS21 3AS\",\"addr:housenumber\"=>\"48-52\"" }, "geometry": { "type": "Point", "coordinates": [ -1.697149, 53.9044568 ] } },
	{ "type": "Feature", "properties": { "osm_id": "299171016", "name": "Al Madina Jamia Mosque", "amenity": "place_of_worship", "other_tags": "\"religion\"=>\"muslim\"" }, "geometry": { "type": "Point", "coordinates": [ -1.5679579, 53.8113009 ] } },
	{ "type": "Feature", "properties": { "osm_id": "300299410", "amenity": "place_of_worship", "other_tags": "\"religion\"=>\"muslim\"" }, "geometry": { "type": "Point", "coordinates": [ -1.7283471, 53.7934212 ] } },
	{ "type": "Feature", "properties": { "osm_id": "300304071", "name": "Al-Amin Jame Masjid & Madrasha", "amenity": "place_of_worship", "other_tags": "\"religion\"=>\"muslim\",\"addr:city\"=>\"Bradford\",\"addr:street\"=>\"Al Amin Square\",\"addr:suburb\"=>\"Barkerend\",\"addr:postcode\"=>\"BD3 8AG\"" }, "geometry": { "type": "Point", "coordinates": [ -1.7240215, 53.7974726 ] } },
	{ "type": "Feature", "properties": { "osm_id": "300364641", "amenity": "place_of_worship", "other_tags": "\"religion\"=>\"sikh\"" }, "geometry": { "type": "Point", "coordinates": [ -1.7405185, 53.793416 ] } },
	{ "type": "Feature", "properties": { "osm_id": "300754028", "amenity": "place_of_worship", "other_tags": "\"religion\"=>\"christian\",\"denomination\"=>\"jehovahs_witness\"" }, "geometry": { "type": "Point", "coordinates": [ -1.7599629, 53.7799891 ] } },
	{ "type": "Feature", "properties": { "osm_id": "301010768", "name": "Jamia Mosque Tabbligh-Ul-Islam", "amenity": "place_of_worship", "other_tags": "\"religion\"=>\"muslim\"" }, "geometry": { "type": "Point", "coordinates": [ -1.7587549, 53.7762355 ] } },
	{ "type": "Feature", "properties": { "osm_id": "301010770", "name": "Bankfoot Spiritualist Church", "amenity": "place_of_worship", "other_tags": "\"religion\"=>\"spiritualist\"" }, "geometry": { "type": "Point", "coordinates": [ -1.7598081, 53.7734587 ] } },
	{ "type": "Feature", "properties": { "osm_id": "301118130", "name": "Tawakkulia Jamia Masjid & Islamia Madrasa", "amenity": "place_of_worship", "other_tags": "\"religion\"=>\"muslim\"" }, "geometry": { "type": "Point", "coordinates": [ -1.758044, 53.8026662 ] } },
	{ "type": "Feature", "properties": { "osm_id": "301136455", "amenity": "place_of_worship", "other_tags": "\"religion\"=>\"muslim\"" }, "geometry": { "type": "Point", "coordinates": [ -1.7646214, 53.8033254 ] } },
	{ "type": "Feature", "properties": { "osm_id": "301153357", "name": "Abundant Life Centre", "amenity": "place_of_worship", "other_tags": "\"tourism\"=>\"attraction\",\"religion\"=>\"christian\"" }, "geometry": { "type": "Point", "coordinates": [ -1.7457186, 53.7997855 ] } },
	{ "type": "Feature", "properties": { "osm_id": "301153367", "name": "Ebenezer methodist Church Centre", "amenity": "place_of_worship", "other_tags": "\"religion\"=>\"christian\"" }, "geometry": { "type": "Point", "coordinates": [ -1.7282868, 53.7757968 ] } },
	{ "type": "Feature", "properties": { "osm_id": "301153375", "name": "New Hey Road Methodist Church", "amenity": "place_of_worship", "other_tags": "\"religion\"=>\"christian\",\"denomination\"=>\"methodist\"" }, "geometry": { "type": "Point", "coordinates": [ -1.7338985, 53.7822334 ] } },
	{ "type": "Feature", "properties": { "osm_id": "301222066", "name": "Tabligh-ul-Islam Mosque", "amenity": "place_of_worship", "other_tags": "\"religion\"=>\"muslim\"" }, "geometry": { "type": "Point", "coordinates": [ -1.7896146, 53.7880267 ] } },
	{ "type": "Feature", "properties": { "osm_id": "301223347", "name": "Church of Jesus Christ Apostolic Inc.", "amenity": "place_of_worship", "other_tags": "\"religion\"=>\"christian\",\"denomination\"=>\"apostolic\"" }, "geometry": { "type": "Point", "coordinates": [ -1.7810515, 53.7908194 ] } },
	{ "type": "Feature", "properties": { "osm_id": "301261553", "name": "Unitarian Cenre", "amenity": "place_of_worship", "other_tags": "\"religion\"=>\"christian\"" }, "geometry": { "type": "Point", "coordinates": [ -1.7605762, 53.7878324 ] } },
	{ "type": "Feature", "properties": { "osm_id": "301261557", "name": "Seventh Day Adventist Church", "amenity": "place_of_worship", "other_tags": "\"religion\"=>\"christian\",\"denomination\"=>\"seventh_day_adventist\"" }, "geometry": { "type": "Point", "coordinates": [ -1.7606816, 53.7883752 ] } },
	{ "type": "Feature", "properties": { "osm_id": "301263328", "name": "Hussainia Islamic Mission", "amenity": "place_of_worship", "other_tags": "\"religion\"=>\"muslim\"" }, "geometry": { "type": "Point", "coordinates": [ -1.7719186, 53.7853939 ] } },
	{ "type": "Feature", "properties": { "osm_id": "301609106", "name": "Jamia Mosque Tabligh-ul-Islam", "amenity": "place_of_worship", "other_tags": "\"religion\"=>\"muslim\"" }, "geometry": { "type": "Point", "coordinates": [ -1.7712511, 53.7909358 ] } },
	{ "type": "Feature", "properties": { "osm_id": "301727907", "name": "Church of God Fellowship", "amenity": "place_of_worship", "other_tags": "\"religion\"=>\"christian\"" }, "geometry": { "type": "Point", "coordinates": [ -1.7567451, 53.7887763 ] } },
	{ "type": "Feature", "properties": { "osm_id": "302739484", "name": "The Light Of The World Gospel Hall Community Church", "amenity": "place_of_worship", "other_tags": "\"religion\"=>\"christian\"" }, "geometry": { "type": "Point", "coordinates": [ -1.7544477, 53.780571 ] } },
	{ "type": "Feature", "properties": { "osm_id": "303151074", "name": "Salvation Army worship and community hall", "amenity": "place_of_worship", "other_tags": "\"religion\"=>\"christian\",\"denomination\"=>\"salvation_army\"" }, "geometry": { "type": "Point", "coordinates": [ -1.7338476, 53.7924121 ] } },
	{ "type": "Feature", "properties": { "osm_id": "304859383", "name": "Wrose Methodist Church", "amenity": "place_of_worship", "other_tags": "\"fhrs:id\"=>\"327855\",\"religion\"=>\"christian\",\"addr:city\"=>\"Shipley\",\"addr:street\"=>\"Thornacre Road\",\"addr:village\"=>\"Wrose\",\"denomination\"=>\"methodist\",\"addr:postcode\"=>\"BD18 1NJ\"" }, "geometry": { "type": "Point", "coordinates": [ -1.7545007, 53.8285632 ] } },
	{ "type": "Feature", "properties": { "osm_id": "305074293", "name": "Kingdom Hall of Jehovah's Witnesses", "amenity": "place_of_worship", "other_tags": "\"addr:postcode\"=>\"LS27 0LJ\",\"addr:street\"=>\"Bruntcliffe Road\",\"denomination\"=>\"jehovahs_witness\",\"name:pl\"=>\"Sala Królestwa Świadków Jehowy\",\"religion\"=>\"christian\",\"website\"=>\"https:\/\/www.jw.org\/\"" }, "geometry": { "type": "Point", "coordinates": [ -1.6226341, 53.7441531 ] } },
	{ "type": "Feature", "properties": { "osm_id": "305197999", "name": "Idle National Spiritualist Church", "amenity": "place_of_worship", "other_tags": "\"religion\"=>\"spiritualist\"" }, "geometry": { "type": "Point", "coordinates": [ -1.7337691, 53.8367241 ] } },
	{ "type": "Feature", "properties": { "osm_id": "305989752", "name": "Bolton Villas United Reformed Church", "amenity": "place_of_worship", "other_tags": "\"religion\"=>\"christian\"" }, "geometry": { "type": "Point", "coordinates": [ -1.7443143, 53.8254746 ] } },
	{ "type": "Feature", "properties": { "osm_id": "306288632", "amenity": "place_of_worship", "other_tags": "\"religion\"=>\"christian\"" }, "geometry": { "type": "Point", "coordinates": [ -1.6137549, 53.8019585 ] } },
	{ "type": "Feature", "properties": { "osm_id": "308032716", "name": "Desmond Tutu House", "amenity": "place_of_worship", "other_tags": "\"religion\"=>\"christian\",\"addr:city\"=>\"Bradford\",\"addr:street\"=>\"Ashgrove\",\"denomination\"=>\"anglican\",\"addr:postcode\"=>\"BD7 1BN\",\"addr:housename\"=>\"Desmond Tutu House\",\"addr:housenumber\"=>\"2\"" }, "geometry": { "type": "Point", "coordinates": [ -1.7647125, 53.7901709 ] } },
	{ "type": "Feature", "properties": { "osm_id": "308920130", "name": "Friends Meeting House", "amenity": "place_of_worship", "other_tags": "\"religion\"=>\"christian\",\"denomination\"=>\"quaker\"" }, "geometry": { "type": "Point", "coordinates": [ -1.7605811, 53.7877053 ] } },
	{ "type": "Feature", "properties": { "osm_id": "313540472", "name": "Ukrainian Autocephalic Orthodox Church", "amenity": "place_of_worship", "other_tags": "\"religion\"=>\"christian\",\"wikidata\"=>\"Q26600575\",\"addr:city\"=>\"Bradford\",\"addr:street\"=>\"Stony Lane\",\"denomination\"=>\"orthodox\",\"addr:postcode\"=>\"BD2 2DE\"" }, "geometry": { "type": "Point", "coordinates": [ -1.7239198, 53.8211075 ] } },
	{ "type": "Feature", "properties": { "osm_id": "316086438", "name": "Polish Church", "amenity": "place_of_worship", "other_tags": "\"religion\"=>\"christian\",\"denomination\"=>\"catholic\"" }, "geometry": { "type": "Point", "coordinates": [ -1.7600223, 53.7899289 ] } },
	{ "type": "Feature", "properties": { "osm_id": "329041421", "name": "Hope Baptist Chapel", "amenity": "place_of_worship", "other_tags": "\"religion\"=>\"christian\",\"denomination\"=>\"baptist\"" }, "geometry": { "type": "Point", "coordinates": [ -2.0124379, 53.7409462 ] } },
	{ "type": "Feature", "properties": { "osm_id": "336230887", "name": "Catholic Chaplaincy", "amenity": "place_of_worship", "other_tags": "\"religion\"=>\"christian\",\"addr:city\"=>\"Bradford\",\"addr:street\"=>\"Ashgrove\",\"denomination\"=>\"catholic\",\"addr:postcode\"=>\"BD7 1BN\",\"addr:housenumber\"=>\"1\"" }, "geometry": { "type": "Point", "coordinates": [ -1.7645717, 53.7902461 ] } },
	{ "type": "Feature", "properties": { "osm_id": "362524387", "amenity": "place_of_worship", "other_tags": "\"religion\"=>\"muslim\"" }, "geometry": { "type": "Point", "coordinates": [ -1.7763211, 53.8102001 ] } },
	{ "type": "Feature", "properties": { "osm_id": "370347057", "name": "Sunbridge Road Mission", "amenity": "place_of_worship", "other_tags": "\"religion\"=>\"christian\",\"denomination\"=>\"independent_evangelical\"" }, "geometry": { "type": "Point", "coordinates": [ -1.7662001, 53.7976372 ] } },
	{ "type": "Feature", "properties": { "osm_id": "381013874", "name": "St Francis of Assisi", "amenity": "place_of_worship", "other_tags": "\"religion\"=>\"christian\",\"denomination\"=>\"catholic\"" }, "geometry": { "type": "Point", "coordinates": [ -1.6039029, 53.743269 ] } },
	{ "type": "Feature", "properties": { "osm_id": "381913590", "name": "National Spiritualist Church", "amenity": "place_of_worship", "other_tags": "\"religion\"=>\"christian\",\"denomination\"=>\"spiritualist\"" }, "geometry": { "type": "Point", "coordinates": [ -1.600958, 53.7473777 ] } },
	{ "type": "Feature", "properties": { "osm_id": "384951492", "amenity": "place_of_worship", "other_tags": "\"religion\"=>\"muslim\"" }, "geometry": { "type": "Point", "coordinates": [ -1.6565269, 53.6799191 ] } },
	{ "type": "Feature", "properties": { "osm_id": "388505898", "name": "Gospel Hall", "amenity": "place_of_worship", "other_tags": "\"religion\"=>\"christian\",\"start_date\"=>\"1932\"" }, "geometry": { "type": "Point", "coordinates": [ -1.5350655, 53.7791632 ] } },
	{ "type": "Feature", "properties": { "osm_id": "410494873", "name": "Middleton Methodist Church", "amenity": "place_of_worship", "other_tags": "\"religion\"=>\"christian\",\"denomination\"=>\"methodist\"" }, "geometry": { "type": "Point", "coordinates": [ -1.5384698, 53.7504292 ] } },
	{ "type": "Feature", "properties": { "osm_id": "410968348", "name": "Moorside Church", "amenity": "place_of_worship", "other_tags": "\"religion\"=>\"christian\"" }, "geometry": { "type": "Point", "coordinates": [ -1.6590461, 53.7519254 ] } },
	{ "type": "Feature", "properties": { "osm_id": "413587911", "name": "Birkenshaw Bottoms Methodist Church", "amenity": "place_of_worship", "other_tags": "\"religion\"=>\"christian\",\"denomination\"=>\"methodist\"" }, "geometry": { "type": "Point", "coordinates": [ -1.6813059, 53.7455472 ] } },
	{ "type": "Feature", "properties": { "osm_id": "413588234", "name": "Birkenshaw Methodist Church", "amenity": "place_of_worship", "other_tags": "\"religion\"=>\"christian\",\"denomination\"=>\"methodist\"" }, "geometry": { "type": "Point", "coordinates": [ -1.6946932, 53.7539832 ] } },
	{ "type": "Feature", "properties": { "osm_id": "413662163", "name": "Friends Meeting House", "amenity": "place_of_worship", "other_tags": "\"religion\"=>\"christian\",\"denomination\"=>\"quaker\"" }, "geometry": { "type": "Point", "coordinates": [ -1.9092039, 53.871781 ] } },
	{ "type": "Feature", "properties": { "osm_id": "413662239", "name": "Kingdom Hall of Jehovah's Witnesses", "amenity": "place_of_worship", "other_tags": "\"religion\"=>\"christian\",\"denomination\"=>\"jehovahs_witness\"" }, "geometry": { "type": "Point", "coordinates": [ -1.9089441, 53.8756331 ] } },
	{ "type": "Feature", "properties": { "osm_id": "413662315", "amenity": "place_of_worship", "other_tags": "\"building\"=>\"mosque\",\"religion\"=>\"muslim\"" }, "geometry": { "type": "Point", "coordinates": [ -1.908748, 53.8732165 ] } },
	{ "type": "Feature", "properties": { "osm_id": "417730971", "name": "Christ Church Bradford", "amenity": "place_of_worship", "other_tags": "\"religion\"=>\"christian\"" }, "geometry": { "type": "Point", "coordinates": [ -1.7335889, 53.832076 ] } },
	{ "type": "Feature", "properties": { "osm_id": "423342211", "name": "Normanton National Spiritualist Church", "amenity": "place_of_worship", "other_tags": "\"religion\"=>\"spiritualist\"" }, "geometry": { "type": "Point", "coordinates": [ -1.4069117, 53.7030813 ] } },
	{ "type": "Feature", "properties": { "osm_id": "423818293", "name": "Idle Baptist Church", "amenity": "place_of_worship", "other_tags": "\"religion\"=>\"christian\",\"denomination\"=>\"baptist\"" }, "geometry": { "type": "Point", "coordinates": [ -1.7307752, 53.8337901 ] } },
	{ "type": "Feature", "properties": { "osm_id": "441335526", "name": "Fartown Christian Fellowship", "amenity": "place_of_worship" }, "geometry": { "type": "Point", "coordinates": [ -1.6687642, 53.7888 ] } },
	{ "type": "Feature", "properties": { "osm_id": "443114856", "name": "Methodist Chapel", "amenity": "place_of_worship", "other_tags": "\"religion\"=>\"christian\",\"denomination\"=>\"methodist\"" }, "geometry": { "type": "Point", "coordinates": [ -1.3691528, 53.7458151 ] } },
	{ "type": "Feature", "properties": { "osm_id": "443775651", "name": "Streethouse Methodist Church", "amenity": "place_of_worship", "other_tags": "\"religion\"=>\"christian\",\"denomination\"=>\"methodist\"" }, "geometry": { "type": "Point", "coordinates": [ -1.3983045, 53.6757044 ] } },
	{ "type": "Feature", "properties": { "osm_id": "471553497", "name": "Thornton Methodist Church", "amenity": "place_of_worship", "other_tags": "\"religion\"=>\"christian\",\"denomination\"=>\"methodist\"" }, "geometry": { "type": "Point", "coordinates": [ -1.8533063, 53.7903675 ] } },
	{ "type": "Feature", "properties": { "osm_id": "471594260", "name": "Brockholes Methodist Church", "amenity": "place_of_worship", "other_tags": "\"religion\"=>\"christian\",\"denomination\"=>\"methodist\"" }, "geometry": { "type": "Point", "coordinates": [ -1.7710875, 53.5942489 ] } },
	{ "type": "Feature", "properties": { "osm_id": "475027402", "name": "Keighley New Church", "amenity": "place_of_worship", "other_tags": "\"religion\"=>\"christian\",\"addr:city\"=>\"Keighley\",\"addr:place\"=>\"Braithwaite Village\",\"denomination\"=>\"swedenborgian\",\"addr:postcode\"=>\"BD22 6PX\"" }, "geometry": { "type": "Point", "coordinates": [ -1.9433188, 53.8698187 ] } },
	{ "type": "Feature", "properties": { "osm_id": "493685037", "name": "Bradford Reform Synagogue", "amenity": "place_of_worship", "other_tags": "\"religion\"=>\"jewish\",\"wikidata\"=>\"Q15204118\",\"denomination\"=>\"reform\"" }, "geometry": { "type": "Point", "coordinates": [ -1.7623417, 53.8009641 ] } },
	{ "type": "Feature", "properties": { "osm_id": "494474518", "amenity": "place_of_worship", "other_tags": "\"religion\"=>\"christian\",\"denomination\"=>\"scientist\"" }, "geometry": { "type": "Point", "coordinates": [ -1.7578138, 53.7991836 ] } },
	{ "type": "Feature", "properties": { "osm_id": "497544444", "name": "St Marks", "amenity": "place_of_worship", "other_tags": "\"religion\"=>\"christian\",\"wikidata\"=>\"Q26428088\"" }, "geometry": { "type": "Point", "coordinates": [ -1.6392188, 53.6971013 ] } },
	{ "type": "Feature", "properties": { "osm_id": "529091019", "name": "The Church of Jesus Christ of Latter-day Saints", "amenity": "place_of_worship", "other_tags": "\"religion\"=>\"christian\",\"denomination\"=>\"mormon\"" }, "geometry": { "type": "Point", "coordinates": [ -1.7065296, 53.7652329 ] } },
	{ "type": "Feature", "properties": { "osm_id": "530965957", "name": "Westcliffe Road Chapel", "amenity": "place_of_worship", "other_tags": "\"fhrs:id\"=>\"327883\",\"religion\"=>\"christian\",\"addr:city\"=>\"Shipley\",\"addr:street\"=>\"Westcliffe Road\",\"source:addr\"=>\"FHRS Open Data\",\"addr:postcode\"=>\"BD18 3EE\"" }, "geometry": { "type": "Point", "coordinates": [ -1.7805126, 53.8310005 ] } },
	{ "type": "Feature", "properties": { "osm_id": "540189992", "name": "Otley Spiritualist Church", "amenity": "place_of_worship", "other_tags": "\"website\"=>\"https:\/\/www.snu.org.uk\/churches\/otley.htm\",\"religion\"=>\"christian\",\"addr:city\"=>\"Otley\",\"is_in:town\"=>\"Otley\",\"addr:street\"=>\"Newmarket\",\"denomination\"=>\"Spiritualist\",\"addr:postcode\"=>\"LS21 3AE\",\"addr:housenumber\"=>\"36\"" }, "geometry": { "type": "Point", "coordinates": [ -1.6929592, 53.9047488 ] } },
	{ "type": "Feature", "properties": { "osm_id": "542674473", "name": "Christian Science Reading Room", "amenity": "place_of_worship", "other_tags": "\"religion\"=>\"christian\",\"denomination\"=>\"scientist\",\"opening_hours\"=>\"Tu 14:00-16:00; We 18:45-19:15; Sa 10:00-12:00\"" }, "geometry": { "type": "Point", "coordinates": [ -1.9090391, 53.8739725 ] } },
	{ "type": "Feature", "properties": { "osm_id": "600499765", "name": "St Joseph", "amenity": "place_of_worship", "other_tags": "\"addr:city\"=>\"Keighley\",\"addr:postcode\"=>\"BD21 1AT\",\"addr:village\"=>\"Ingrow\",\"denomination\"=>\"roman_catholic\",\"not:addr:street\"=>\"South Street\",\"religion\"=>\"christian\"" }, "geometry": { "type": "Point", "coordinates": [ -1.9166287, 53.8572778 ] } },
	{ "type": "Feature", "properties": { "osm_id": "603899611", "name": "Ukrainian Catholic Church", "amenity": "place_of_worship", "other_tags": "\"religion\"=>\"christian\"" }, "geometry": { "type": "Point", "coordinates": [ -1.7789428, 53.8115116 ] } },
	{ "type": "Feature", "properties": { "osm_id": "621508948", "name": "Frizinghall URC", "amenity": "place_of_worship", "other_tags": "\"religion\"=>\"christian\",\"denomination\"=>\"united_reformed\"" }, "geometry": { "type": "Point", "coordinates": [ -1.774691, 53.8208242 ] } },
	{ "type": "Feature", "properties": { "osm_id": "639282398", "name": "The Salvation Army", "amenity": "place_of_worship", "other_tags": "\"religion\"=>\"christian\",\"denomination\"=>\"salvation_army\"" }, "geometry": { "type": "Point", "coordinates": [ -1.6355646, 53.7168389 ] } },
	{ "type": "Feature", "properties": { "osm_id": "676622241", "name": "Holme Church", "amenity": "place_of_worship", "other_tags": "\"religion\"=>\"christian\"" }, "geometry": { "type": "Point", "coordinates": [ -1.7097396, 53.7696997 ] } },
	{ "type": "Feature", "properties": { "osm_id": "676931379", "name": "St Andrews", "amenity": "place_of_worship", "other_tags": "\"fhrs:id\"=>\"666903\",\"religion\"=>\"christian\",\"addr:city\"=>\"Mirfield\",\"addr:street\"=>\"Old Bank Road\",\"source:addr\"=>\"FHRS Open Data\",\"addr:country\"=>\"GB\",\"denomination\"=>\"methodist\",\"addr:postcode\"=>\"WF14 0HX\"" }, "geometry": { "type": "Point", "coordinates": [ -1.6955922, 53.6872341 ] } },
	{ "type": "Feature", "properties": { "osm_id": "685937252", "name": "The Salvation Army", "amenity": "place_of_worship" }, "geometry": { "type": "Point", "coordinates": [ -1.7159581, 53.7716141 ] } },
	{ "type": "Feature", "properties": { "osm_id": "685938870", "amenity": "place_of_worship" }, "geometry": { "type": "Point", "coordinates": [ -1.7064365, 53.7799898 ] } },
	{ "type": "Feature", "properties": { "osm_id": "687080949", "name": "Gateway Christian Centre", "amenity": "place_of_worship", "other_tags": "\"religion\"=>\"christian\"" }, "geometry": { "type": "Point", "coordinates": [ -1.7140621, 53.7690059 ] } },
	{ "type": "Feature", "properties": { "osm_id": "687080959", "name": "The Upper Room Church, St Johns, Tong Street (CofE)", "amenity": "place_of_worship", "other_tags": "\"religion\"=>\"christian\"" }, "geometry": { "type": "Point", "coordinates": [ -1.7144326, 53.7692281 ] } },
	{ "type": "Feature", "properties": { "osm_id": "687081063", "name": "Elim Pentecostal Church", "amenity": "place_of_worship", "other_tags": "\"religion\"=>\"christian\"" }, "geometry": { "type": "Point", "coordinates": [ -1.7137549, 53.7688788 ] } },
	{ "type": "Feature", "properties": { "osm_id": "734193034", "name": "St Joseph's RC Church", "amenity": "place_of_worship", "other_tags": "\"religion\"=>\"christian\",\"denomination\"=>\"roman_catholic\"" }, "geometry": { "type": "Point", "coordinates": [ -2.0976202, 53.7171117 ] } },
	{ "type": "Feature", "properties": { "osm_id": "815950205", "amenity": "place_of_worship" }, "geometry": { "type": "Point", "coordinates": [ -1.9147202, 53.8810601 ] } },
	{ "type": "Feature", "properties": { "osm_id": "823786628", "name": "Holmfirth Methodist Church", "amenity": "place_of_worship", "other_tags": "\"fhrs:id\"=>\"306749\",\"religion\"=>\"christian\",\"addr:city\"=>\"Holmfirth\",\"addr:street\"=>\"School Street\",\"source:addr\"=>\"FHRS Open Data\",\"addr:country\"=>\"GB\",\"denomination\"=>\"methodist\",\"addr:postcode\"=>\"HD9 7EQ\"" }, "geometry": { "type": "Point", "coordinates": [ -1.7857513, 53.5716372 ] } },
	{ "type": "Feature", "properties": { "osm_id": "831582032", "name": "Salvation Army", "amenity": "place_of_worship", "other_tags": "\"fhrs:id\"=>\"456820\",\"religion\"=>\"christian\",\"addr:city\"=>\"Keighley\",\"addr:street\"=>\"High Street\",\"source:addr\"=>\"FHRS Open Data\",\"addr:country\"=>\"GB\",\"denomination\"=>\"salvation_army\",\"addr:postcode\"=>\"BD21 2LJ\"" }, "geometry": { "type": "Point", "coordinates": [ -1.9114854, 53.8652834 ] } },
	{ "type": "Feature", "properties": { "osm_id": "871583863", "amenity": "place_of_worship" }, "geometry": { "type": "Point", "coordinates": [ -1.6222729, 53.7135371 ] } },
	{ "type": "Feature", "properties": { "osm_id": "874292251", "name": "Clayton Heights Methodist", "amenity": "place_of_worship", "other_tags": "\"religion\"=>\"christian\",\"denomination\"=>\"methodist\"" }, "geometry": { "type": "Point", "coordinates": [ -1.823714, 53.7704164 ] } },
	{ "type": "Feature", "properties": { "osm_id": "891682647", "name": "Great Horton Methodist Church", "amenity": "place_of_worship", "other_tags": "\"religion\"=>\"christian\",\"wikidata\"=>\"Q26426075\",\"denomination\"=>\"methodist\"" }, "geometry": { "type": "Point", "coordinates": [ -1.7851079, 53.7814878 ] } },
	{ "type": "Feature", "properties": { "osm_id": "921219258", "amenity": "place_of_worship" }, "geometry": { "type": "Point", "coordinates": [ -1.5466018, 53.7808082 ] } },
	{ "type": "Feature", "properties": { "osm_id": "936565735", "name": "Thorner Methodist Church", "amenity": "place_of_worship", "other_tags": "\"religion\"=>\"christian\",\"denomination\"=>\"methodist\"" }, "geometry": { "type": "Point", "coordinates": [ -1.4286, 53.8570259 ] } },
	{ "type": "Feature", "properties": { "osm_id": "968123597", "name": "The Salvation Army", "amenity": "place_of_worship", "other_tags": "\"religion\"=>\"christian\",\"denomination\"=>\"salvation_army\"" }, "geometry": { "type": "Point", "coordinates": [ -1.6913305, 53.6743053 ] } },
	{ "type": "Feature", "properties": { "osm_id": "1213018586", "name": "Crosland Hill", "amenity": "place_of_worship", "other_tags": "\"religion\"=>\"christian\",\"denomination\"=>\"methodist\"" }, "geometry": { "type": "Point", "coordinates": [ -1.8234236, 53.6306311 ] } },
	{ "type": "Feature", "properties": { "osm_id": "1222870069", "name": "Milnsbridge Baptist Church", "amenity": "place_of_worship", "other_tags": "\"religion\"=>\"christian\",\"denomination\"=>\"baptist\"" }, "geometry": { "type": "Point", "coordinates": [ -1.8248379, 53.6398664 ] } },
	{ "type": "Feature", "properties": { "osm_id": "1222870072", "name": "Linthwaite Methodist Church", "amenity": "place_of_worship", "other_tags": "\"denomination\"=>\"methodist\",\"religion\"=>\"christian\",\"wikidata\"=>\"Q26511708\"" }, "geometry": { "type": "Point", "coordinates": [ -1.8576037, 53.6218364 ] } },
	{ "type": "Feature", "properties": { "osm_id": "1222870104", "name": "Netherton Methodist Church", "amenity": "place_of_worship", "other_tags": "\"denomination\"=>\"methodist\",\"religion\"=>\"christian\",\"wikidata\"=>\"Q26427675\"" }, "geometry": { "type": "Point", "coordinates": [ -1.8157827, 53.6146324 ] } },
	{ "type": "Feature", "properties": { "osm_id": "1246597828", "name": "Lindley Methodist Church", "amenity": "place_of_worship", "other_tags": "\"denomination\"=>\"methodist\",\"religion\"=>\"christian\",\"wikidata\"=>\"Q26427645\"" }, "geometry": { "type": "Point", "coordinates": [ -1.8217892, 53.6629385 ] } },
	{ "type": "Feature", "properties": { "osm_id": "1246597883", "name": "Mount Methodist Church", "amenity": "place_of_worship", "other_tags": "\"religion\"=>\"christian\",\"denomination\"=>\"methodist\"" }, "geometry": { "type": "Point", "coordinates": [ -1.8538362, 53.6587165 ] } },
	{ "type": "Feature", "properties": { "osm_id": "1246600452", "name": "Jubilee Centre", "amenity": "place_of_worship", "other_tags": "\"fhrs:id\"=>\"228736\",\"religion\"=>\"christian\",\"addr:city\"=>\"Huddersfield\",\"addr:street\"=>\"Market Street\",\"addr:suburb\"=>\"Paddock\",\"source:addr\"=>\"FHRS Open Data\",\"addr:country\"=>\"GB\",\"addr:postcode\"=>\"HD1 4SH\"" }, "geometry": { "type": "Point", "coordinates": [ -1.8013186, 53.6417764 ] } },
	{ "type": "Feature", "properties": { "osm_id": "1251309973", "name": "Huddersfield Methodist Mission", "amenity": "place_of_worship", "other_tags": "\"religion\"=>\"christian\",\"denomination\"=>\"methodist\"" }, "geometry": { "type": "Point", "coordinates": [ -1.7801525, 53.647581 ] } },
	{ "type": "Feature", "properties": { "osm_id": "1301896013", "name": "Christ Church Centre", "amenity": "place_of_worship", "other_tags": "\"religion\"=>\"christian\"" }, "geometry": { "type": "Point", "coordinates": [ -1.8018776, 53.7281548 ] } },
	{ "type": "Feature", "properties": { "osm_id": "1305755918", "name": "Smawthorne Community Church", "amenity": "place_of_worship", "other_tags": "\"fhrs:id\"=>\"734180\",\"religion\"=>\"christian\",\"addr:town\"=>\"Castleford\",\"addr:street\"=>\"Beancroft Road\",\"denomination\"=>\"pentecostal\",\"addr:postcode\"=>\"WF10 5BP\"" }, "geometry": { "type": "Point", "coordinates": [ -1.3552912, 53.721837 ] } },
	{ "type": "Feature", "properties": { "osm_id": "1308161049", "name": "Hall Bower Sunday School", "amenity": "place_of_worship", "other_tags": "\"religion\"=>\"christian\",\"denomination\"=>\"anglican\"" }, "geometry": { "type": "Point", "coordinates": [ -1.7734721, 53.6260143 ] } },
	{ "type": "Feature", "properties": { "osm_id": "1357042563", "name": "St Mary of the Angels", "amenity": "place_of_worship", "other_tags": "\"phone\"=>\"+44 1924 474650\",\"religion\"=>\"christian\",\"denomination\"=>\"catholic\"" }, "geometry": { "type": "Point", "coordinates": [ -1.6417206, 53.7170561 ] } },
	{ "type": "Feature", "properties": { "osm_id": "1447474031", "amenity": "place_of_worship", "other_tags": "\"religion\"=>\"christian\"" }, "geometry": { "type": "Point", "coordinates": [ -1.6281229, 53.7213256 ] } },
	{ "type": "Feature", "properties": { "osm_id": "1487515537", "name": "St Columba's Catholic church", "amenity": "place_of_worship", "other_tags": "\"religion\"=>\"christian\",\"denomination\"=>\"roman_catholic\"" }, "geometry": { "type": "Point", "coordinates": [ -1.7193075, 53.7709604 ] } },
	{ "type": "Feature", "properties": { "osm_id": "1501411956", "name": "Golcar Baptist Church", "amenity": "place_of_worship", "other_tags": "\"religion\"=>\"christian\",\"denomination\"=>\"baptist\"" }, "geometry": { "type": "Point", "coordinates": [ -1.8526877, 53.6356969 ] } },
	{ "type": "Feature", "properties": { "osm_id": "1535922116", "name": "Jamia Masjid Abu-Bakr & Islamic Centre", "amenity": "place_of_worship", "other_tags": "\"phone\"=>\"+44 1484 450183\",\"religion\"=>\"muslim\",\"addr:street\"=>\"Church Street\"" }, "geometry": { "type": "Point", "coordinates": [ -1.8071282, 53.6430078 ] } },
	{ "type": "Feature", "properties": { "osm_id": "1535922348", "amenity": "place_of_worship", "other_tags": "\"phone\"=>\"+44 1484 845330\",\"religion\"=>\"christian\",\"denomination\"=>\"quaker\"" }, "geometry": { "type": "Point", "coordinates": [ -1.8038798, 53.6428806 ] } },
	{ "type": "Feature", "properties": { "osm_id": "1542303004", "name": "Ben Rhydding Methodist Church", "amenity": "place_of_worship", "other_tags": "\"fhrs:id\"=>\"327307\",\"religion\"=>\"christian\",\"addr:city\"=>\"Ilkley\",\"addr:street\"=>\"Ben Rhydding Drive\",\"source:addr\"=>\"FHRS Open Data\",\"denomination\"=>\"methodist\",\"addr:postcode\"=>\"LS29 8AY\"" }, "geometry": { "type": "Point", "coordinates": [ -1.7972415, 53.9242819 ] } },
	{ "type": "Feature", "properties": { "osm_id": "1542532832", "name": "Pool Methodist Church", "amenity": "place_of_worship", "other_tags": "\"religion\"=>\"christian\",\"denomination\"=>\"methodist\"" }, "geometry": { "type": "Point", "coordinates": [ -1.6303555, 53.9032725 ] } },
	{ "type": "Feature", "properties": { "osm_id": "1543964169", "name": "The Methodist Church", "amenity": "place_of_worship", "other_tags": "\"religion\"=>\"christian\",\"addr:street\"=>\"Main Street\",\"denomination\"=>\"methodist\"" }, "geometry": { "type": "Point", "coordinates": [ -1.7448719, 53.9125663 ] } },
	{ "type": "Feature", "properties": { "osm_id": "1544027699", "name": "The Church of the Sacred Heart", "amenity": "place_of_worship", "other_tags": "\"addr:city\"=>\"Ilkley\",\"addr:postcode\"=>\"LS29 9HD\",\"addr:street\"=>\"Stockeld Road\",\"building\"=>\"church\",\"denomination\"=>\"roman_catholic\",\"religion\"=>\"christian\",\"website\"=>\"https:\/\/www.sacredheartilkley.org.uk\/\"" }, "geometry": { "type": "Point", "coordinates": [ -1.8304496, 53.927692 ] } },
	{ "type": "Feature", "properties": { "osm_id": "1574851102", "name": "Longley and Lowerhouses Community Church", "amenity": "place_of_worship", "other_tags": "\"religion\"=>\"christian\",\"denomination\"=>\"baptist\"" }, "geometry": { "type": "Point", "coordinates": [ -1.7665046, 53.6326246 ] } },
	{ "type": "Feature", "properties": { "osm_id": "1575546606", "name": "Addingham Methodist Church", "amenity": "place_of_worship", "other_tags": "\"addr:city\"=>\"Addingham\",\"addr:postcode\"=>\"LS29 0JE\",\"addr:street\"=>\"Chapel Street\",\"denomination\"=>\"methodist\",\"religion\"=>\"christian\",\"website\"=>\"www.addinghammethodistchurch.org.uk\"" }, "geometry": { "type": "Point", "coordinates": [ -1.8864144, 53.9455912 ] } },
	{ "type": "Feature", "properties": { "osm_id": "1581251163", "name": "The Methodist Church Wetherby", "amenity": "place_of_worship", "other_tags": "\"religion\"=>\"christian\",\"addr:town\"=>\"Wetherby\",\"wheelchair\"=>\"yes\",\"addr:street\"=>\"Bank Street\",\"denomination\"=>\"methodist\",\"addr:postcode\"=>\"LS22 6NQ\",\"addr:housenumber\"=>\"6\"" }, "geometry": { "type": "Point", "coordinates": [ -1.3870276, 53.9291499 ] } },
	{ "type": "Feature", "properties": { "osm_id": "1623552793", "name": "Kippax Methodist Church", "amenity": "place_of_worship", "other_tags": "\"religion\"=>\"christian\",\"denomination\"=>\"methodist\"" }, "geometry": { "type": "Point", "coordinates": [ -1.3682404, 53.767549 ] } },
	{ "type": "Feature", "properties": { "osm_id": "1623940767", "name": "Wesleyan Methodist Chapel", "amenity": "place_of_worship", "other_tags": "\"religion\"=>\"christian\",\"addr:street\"=>\"Chapel Hill\",\"denomination\"=>\"methodist\",\"addr:postcode\"=>\"LS19 7RG\"" }, "geometry": { "type": "Point", "coordinates": [ -1.685073, 53.8653781 ] } },
	{ "type": "Feature", "properties": { "osm_id": "1627024079", "name": "Leeds Islamic Centre", "amenity": "place_of_worship", "other_tags": "\"fhrs:id\"=>\"320958\",\"religion\"=>\"muslim\",\"addr:city\"=>\"Leeds\",\"addr:street\"=>\"Spencer Place\",\"addr:suburb\"=>\"Chapeltown\",\"addr:postcode\"=>\"LS7 4BR\",\"addr:housenumber\"=>\"46-48\"" }, "geometry": { "type": "Point", "coordinates": [ -1.5254897, 53.8132335 ] } },
	{ "type": "Feature", "properties": { "osm_id": "1627024211", "name": "Mount Zion Pentecostal Apostolic Church", "amenity": "place_of_worship", "other_tags": "\"religion\"=>\"christian\",\"denomination\"=>\"pentecostal\"" }, "geometry": { "type": "Point", "coordinates": [ -1.5232688, 53.816958 ] } },
	{ "type": "Feature", "properties": { "osm_id": "1627024219", "name": "Harehills Lane Baptist Church", "amenity": "place_of_worship", "other_tags": "\"addr:city\"=>\"Leeds\",\"addr:country\"=>\"GB\",\"addr:postcode\"=>\"LS8 4HE\",\"addr:street\"=>\"Hilton Place\",\"denomination\"=>\"baptist\",\"fhrs:id\"=>\"321239\",\"religion\"=>\"christian\",\"source:addr\"=>\"FHRS Open Data\",\"wikidata\"=>\"Q66818867\"" }, "geometry": { "type": "Point", "coordinates": [ -1.5199118, 53.8196616 ] } },
	{ "type": "Feature", "properties": { "osm_id": "1627024232", "name": "Trinity United Reform Church", "amenity": "place_of_worship", "other_tags": "\"religion\"=>\"christian\",\"denomination\"=>\"united_reformed\"" }, "geometry": { "type": "Point", "coordinates": [ -1.5231186, 53.8180031 ] } },
	{ "type": "Feature", "properties": { "osm_id": "1627024237", "name": "Church of Jesus Christ Apostolic", "amenity": "place_of_worship", "other_tags": "\"religion\"=>\"christian\",\"denomination\"=>\"pentecostal\"" }, "geometry": { "type": "Point", "coordinates": [ -1.5241593, 53.8095023 ] } },
	{ "type": "Feature", "properties": { "osm_id": "1628054314", "amenity": "place_of_worship" }, "geometry": { "type": "Point", "coordinates": [ -1.9276183, 53.6019979 ] } },
	{ "type": "Feature", "properties": { "osm_id": "1628093529", "name": "Meltham Baptist Chapel", "amenity": "place_of_worship", "other_tags": "\"religion\"=>\"christian\"" }, "geometry": { "type": "Point", "coordinates": [ -1.8505616, 53.5944365 ] } },
	{ "type": "Feature", "properties": { "osm_id": "1628108112", "amenity": "place_of_worship" }, "geometry": { "type": "Point", "coordinates": [ -1.6513368, 53.832729 ] } },
	{ "type": "Feature", "properties": { "osm_id": "1628108125", "amenity": "place_of_worship" }, "geometry": { "type": "Point", "coordinates": [ -1.6373271, 53.8396678 ] } },
	{ "type": "Feature", "properties": { "osm_id": "1628338766", "amenity": "place_of_worship" }, "geometry": { "type": "Point", "coordinates": [ -1.8784251, 53.6207363 ] } },
	{ "type": "Feature", "properties": { "osm_id": "1633040723", "amenity": "place_of_worship" }, "geometry": { "type": "Point", "coordinates": [ -1.7325793, 53.8101737 ] } },
	{ "type": "Feature", "properties": { "osm_id": "1633040725", "amenity": "place_of_worship" }, "geometry": { "type": "Point", "coordinates": [ -1.7296932, 53.8081845 ] } },
	{ "type": "Feature", "properties": { "osm_id": "1633040737", "name": "Holmewood Kingdom Hall of Jehovahs Witnesses", "amenity": "place_of_worship", "other_tags": "\"wheelchair\"=>\"yes\",\"toilets:wheelchair\"=>\"yes\"" }, "geometry": { "type": "Point", "coordinates": [ -1.7184494, 53.7866387 ] } },
	{ "type": "Feature", "properties": { "osm_id": "1633801300", "amenity": "place_of_worship" }, "geometry": { "type": "Point", "coordinates": [ -1.7736535, 53.7758856 ] } },
	{ "type": "Feature", "properties": { "osm_id": "1633801332", "amenity": "place_of_worship" }, "geometry": { "type": "Point", "coordinates": [ -1.7737474, 53.7757556 ] } },
	{ "type": "Feature", "properties": { "osm_id": "1634144868", "amenity": "place_of_worship" }, "geometry": { "type": "Point", "coordinates": [ -1.8499601, 53.7128433 ] } },
	{ "type": "Feature", "properties": { "osm_id": "1634144918", "amenity": "place_of_worship" }, "geometry": { "type": "Point", "coordinates": [ -1.8497992, 53.7133386 ] } },
	{ "type": "Feature", "properties": { "osm_id": "1639297549", "amenity": "place_of_worship" }, "geometry": { "type": "Point", "coordinates": [ -1.7937369, 53.6068885 ] } },
	{ "type": "Feature", "properties": { "osm_id": "1639297597", "amenity": "place_of_worship" }, "geometry": { "type": "Point", "coordinates": [ -1.7954315, 53.6015919 ] } },
	{ "type": "Feature", "properties": { "osm_id": "1651479638", "amenity": "place_of_worship" }, "geometry": { "type": "Point", "coordinates": [ -1.8626003, 53.8250132 ] } },
	{ "type": "Feature", "properties": { "osm_id": "1651495260", "amenity": "place_of_worship" }, "geometry": { "type": "Point", "coordinates": [ -1.7669449, 53.8039992 ] } },
	{ "type": "Feature", "properties": { "osm_id": "1652846882", "amenity": "place_of_worship" }, "geometry": { "type": "Point", "coordinates": [ -1.7443408, 53.7882675 ] } },
	{ "type": "Feature", "properties": { "osm_id": "1654165560", "amenity": "place_of_worship" }, "geometry": { "type": "Point", "coordinates": [ -1.7499903, 53.8073041 ] } },
	{ "type": "Feature", "properties": { "osm_id": "1654187748", "amenity": "place_of_worship" }, "geometry": { "type": "Point", "coordinates": [ -1.7656407, 53.7740953 ] } },
	{ "type": "Feature", "properties": { "osm_id": "1660258031", "name": "Seventh-day Adventist Church", "amenity": "place_of_worship", "other_tags": "\"religion\"=>\"christian\",\"source:name\"=>\"survey\"" }, "geometry": { "type": "Point", "coordinates": [ -1.8078331, 53.6373993 ] } },
	{ "type": "Feature", "properties": { "osm_id": "1660258132", "name": "Jam-E-Masjid-Bilal", "amenity": "place_of_worship", "other_tags": "\"religion\"=>\"muslim\"" }, "geometry": { "type": "Point", "coordinates": [ -1.8025952, 53.6358478 ] } },
	{ "type": "Feature", "properties": { "osm_id": "1660623766", "amenity": "place_of_worship" }, "geometry": { "type": "Point", "coordinates": [ -1.7906701, 53.685609 ] } },
	{ "type": "Feature", "properties": { "osm_id": "1661994570", "amenity": "place_of_worship" }, "geometry": { "type": "Point", "coordinates": [ -1.8410592, 53.6571953 ] } },
	{ "type": "Feature", "properties": { "osm_id": "1685139707", "name": "The Green Room", "amenity": "place_of_worship", "other_tags": "\"religion\"=>\"muslim\"" }, "geometry": { "type": "Point", "coordinates": [ -1.55311, 53.8040001 ] } },
	{ "type": "Feature", "properties": { "osm_id": "1717745698", "name": "The Parish Church of St Andrew Thongsbridge", "amenity": "place_of_worship", "other_tags": "\"religion\"=>\"christian\"" }, "geometry": { "type": "Point", "coordinates": [ -1.7773362, 53.5831704 ] } },
	{ "type": "Feature", "properties": { "osm_id": "1783933787", "amenity": "place_of_worship" }, "geometry": { "type": "Point", "coordinates": [ -1.7542298, 53.6512203 ] } },
	{ "type": "Feature", "properties": { "osm_id": "1783933907", "amenity": "place_of_worship" }, "geometry": { "type": "Point", "coordinates": [ -1.7546053, 53.649166 ] } },
	{ "type": "Feature", "properties": { "osm_id": "2050786894", "name": "Shahjalal Jamia Masjid", "amenity": "place_of_worship", "other_tags": "\"religion\"=>\"muslim\"" }, "geometry": { "type": "Point", "coordinates": [ -1.5200402, 53.8170858 ] } },
	{ "type": "Feature", "properties": { "osm_id": "2102972617", "name": "Holy Family Catholic Church", "amenity": "place_of_worship", "other_tags": "\"religion\"=>\"christian\"" }, "geometry": { "type": "Point", "coordinates": [ -1.878803, 53.6190245 ] } },
	{ "type": "Feature", "properties": { "osm_id": "2104911034", "name": "Jamyang", "amenity": "place_of_worship", "other_tags": "\"level\"=>\"1\",\"website\"=>\"http:\/\/www.jamyangleeds.co.uk\/\",\"religion\"=>\"buddhist\",\"addr:street\"=>\"St Paul's Street\",\"denomination\"=>\"tibetan\",\"addr:postcode\"=>\"LS1 2JG\",\"addr:housenumber\"=>\"31\"" }, "geometry": { "type": "Point", "coordinates": [ -1.551275, 53.7979479 ] } },
	{ "type": "Feature", "properties": { "osm_id": "2106890101", "amenity": "place_of_worship" }, "geometry": { "type": "Point", "coordinates": [ -1.7694529, 53.7514829 ] } },
	{ "type": "Feature", "properties": { "osm_id": "2106890139", "name": "Westfield United Reform Church", "amenity": "place_of_worship", "other_tags": "\"religion\"=>\"christian\",\"wikidata\"=>\"Q26426570\"" }, "geometry": { "type": "Point", "coordinates": [ -1.7629297, 53.7356837 ] } },
	{ "type": "Feature", "properties": { "osm_id": "2387207795", "name": "Bolton Methodist Church", "amenity": "place_of_worship", "other_tags": "\"fhrs:id\"=>\"326534\",\"religion\"=>\"christian\",\"addr:city\"=>\"Bradford\",\"addr:street\"=>\"Bolton Road\",\"source:addr\"=>\"FHRS Open Data\",\"denomination\"=>\"methodist\",\"addr:postcode\"=>\"BD2 4HT\"" }, "geometry": { "type": "Point", "coordinates": [ -1.7346337, 53.8161274 ] } },
	{ "type": "Feature", "properties": { "osm_id": "2389313528", "amenity": "place_of_worship" }, "geometry": { "type": "Point", "coordinates": [ -1.8079642, 53.7564148 ] } },
	{ "type": "Feature", "properties": { "osm_id": "2667298221", "name": "Morley Community Church", "amenity": "place_of_worship", "other_tags": "\"email\"=>\"info@morleycommunitychurch.org.uk\",\"website\"=>\"https:\/\/morleycommunitychurch.org.uk\/\",\"religion\"=>\"christian\",\"addr:city\"=>\"Morley, Leeds, UK\",\"addr:street\"=>\"Fountain Street\",\"denomination\"=>\"EFCC\",\"addr:postcode\"=>\"LS27 0AW\",\"service_times\"=>\"Su 10:00\",\"addr:housename\"=>\"Fountain Primary School\",\"phone:Rev. Steve Wright\"=>\"+44 113 253 5477\"" }, "geometry": { "type": "Point", "coordinates": [ -1.6103779, 53.7380427 ] } },
	{ "type": "Feature", "properties": { "osm_id": "2875090130", "name": "St Joseph's Catholic Church", "amenity": "place_of_worship", "other_tags": "\"religion\"=>\"christian\",\"denomination\"=>\"roman_catholic\"" }, "geometry": { "type": "Point", "coordinates": [ -1.6400102, 53.7009033 ] } },
	{ "type": "Feature", "properties": { "osm_id": "2878952548", "name": "Upton Methodist Church", "amenity": "place_of_worship", "other_tags": "\"religion\"=>\"christian\",\"denomination\"=>\"methodist\"" }, "geometry": { "type": "Point", "coordinates": [ -1.282294, 53.6133528 ] } },
	{ "type": "Feature", "properties": { "osm_id": "2922772996", "name": "Lincoln Green Mosque", "amenity": "place_of_worship", "other_tags": "\"religion\"=>\"muslim\"" }, "geometry": { "type": "Point", "coordinates": [ -1.5282502, 53.804466 ] } },
	{ "type": "Feature", "properties": { "osm_id": "2974877074", "amenity": "place_of_worship" }, "geometry": { "type": "Point", "coordinates": [ -1.7327593, 53.8361881 ] } },
	{ "type": "Feature", "properties": { "osm_id": "3134854348", "amenity": "place_of_worship" }, "geometry": { "type": "Point", "coordinates": [ -1.7109333, 53.6338506 ] } },
	{ "type": "Feature", "properties": { "osm_id": "3649681932", "name": "Methodist Church", "amenity": "place_of_worship", "other_tags": "\"religion\"=>\"christian\",\"denomination\"=>\"methodist\"" }, "geometry": { "type": "Point", "coordinates": [ -1.5398439, 53.721399 ] } },
	{ "type": "Feature", "properties": { "osm_id": "3772610950", "name": "Fulneck Moravian Church", "amenity": "place_of_worship", "other_tags": "\"religion\"=>\"christian\",\"wikidata\"=>\"Q5508370\",\"denomination\"=>\"moravian\"" }, "geometry": { "type": "Point", "coordinates": [ -1.6644821, 53.7838567 ] } },
	{ "type": "Feature", "properties": { "osm_id": "3955682145", "name": "Shri Guru Singh Saba Sikh Temple", "amenity": "place_of_worship", "other_tags": "\"religion\"=>\"sikh\",\"source:name\"=>\"survey\"" }, "geometry": { "type": "Point", "coordinates": [ -1.7807565, 53.6561797 ] } },
	{ "type": "Feature", "properties": { "osm_id": "3955736958", "name": "Vajrapani Kadampa Buddhist Centre", "amenity": "place_of_worship", "other_tags": "\"religion\"=>\"buddhist\",\"source:name\"=>\"survey\"" }, "geometry": { "type": "Point", "coordinates": [ -1.792184, 53.659284 ] } },
	{ "type": "Feature", "properties": { "osm_id": "3955736959", "name": "Markazi Jamia Masjid Riza Islamic Centre", "amenity": "place_of_worship", "other_tags": "\"religion\"=>\"muslim\",\"source:name\"=>\"survey\"" }, "geometry": { "type": "Point", "coordinates": [ -1.7862765, 53.6591761 ] } },
	{ "type": "Feature", "properties": { "osm_id": "4375298138", "name": "Yorkshire Sculpture Park Chapel", "amenity": "place_of_worship" }, "geometry": { "type": "Point", "coordinates": [ -1.5638912, 53.6117954 ] } },
	{ "type": "Feature", "properties": { "osm_id": "4475496891", "name": "Methodist Trinity Church", "amenity": "place_of_worship", "other_tags": "\"fhrs:id\"=>\"731079\",\"building\"=>\"church\",\"religion\"=>\"christian\",\"addr:city\"=>\"Wakefield\",\"addr:street\"=>\"Netherton Lane\",\"denomination\"=>\"methodist\",\"addr:postcode\"=>\"WF4 4HL\"" }, "geometry": { "type": "Point", "coordinates": [ -1.5785383, 53.6454007 ] } },
	{ "type": "Feature", "properties": { "osm_id": "4480933457", "amenity": "place_of_worship", "other_tags": "\"denomination\"=>\"catholic\",\"place_of_worship\"=>\"chapel\",\"religion\"=>\"christian\"" }, "geometry": { "type": "Point", "coordinates": [ -1.4850487, 53.7971273 ] } },
	{ "type": "Feature", "properties": { "osm_id": "4562147934", "name": "Kingdom Hall of Jehovah's Witnesses", "amenity": "place_of_worship", "other_tags": "\"religion\"=>\"christian\",\"denomination\"=>\"jehovahs_witness\"" }, "geometry": { "type": "Point", "coordinates": [ -1.6709781, 53.7051728 ] } },
	{ "type": "Feature", "properties": { "osm_id": "4598617049", "name": "High Flatts Quaker Meeting House", "amenity": "place_of_worship", "other_tags": "\"website\"=>\"http:\/\/www.highflattsquakers.org.uk\/\",\"religion\"=>\"christian\",\"addr:city\"=>\"High Flatts\",\"addr:street\"=>\"Quaker Bottom\",\"denomination\"=>\"quaker\",\"addr:postcode\"=>\"HD8 8XU\",\"service_times\"=>\"Su 10:45\"" }, "geometry": { "type": "Point", "coordinates": [ -1.6804096, 53.5631672 ] } },
	{ "type": "Feature", "properties": { "osm_id": "4681753175", "name": "Rothwell Methodist Church, Leeds", "amenity": "place_of_worship", "other_tags": "\"fhrs:id\"=>\"553154\",\"website\"=>\"http:\/\/www.aireandcaldercircuit.org.uk\/churches\/rothwell\",\"religion\"=>\"christian\",\"addr:city\"=>\"Rothwell\",\"addr:street\"=>\"Butcher Lane\",\"denomination\"=>\"methodist\",\"addr:postcode\"=>\"LS26 0DB\",\"addr:housename\"=>\"Rothwell Methodist Church\"" }, "geometry": { "type": "Point", "coordinates": [ -1.4808283, 53.7479701 ] } },
	{ "type": "Feature", "properties": { "osm_id": "4846499691", "amenity": "place_of_worship" }, "geometry": { "type": "Point", "coordinates": [ -1.782006, 53.7890482 ] } },
	{ "type": "Feature", "properties": { "osm_id": "5412006849", "amenity": "place_of_worship", "other_tags": "\"religion\"=>\"christian\"" }, "geometry": { "type": "Point", "coordinates": [ -1.8704128, 53.8410926 ] } },
	{ "type": "Feature", "properties": { "osm_id": "5471282788", "name": "South Featherstone Gospel Hall", "amenity": "place_of_worship", "other_tags": "\"fhrs:id\"=>\"922352\",\"religion\"=>\"christian\",\"addr:town\"=>\"Pontefract\",\"addr:street\"=>\"Station Lane\",\"addr:suburb\"=>\"Featherstone\",\"denomination\"=>\"evangelical\",\"addr:postcode\"=>\"WF7 5BJ\"" }, "geometry": { "type": "Point", "coordinates": [ -1.3588232, 53.6775259 ] } },
	{ "type": "Feature", "properties": { "osm_id": "5471282798", "name": "Featherstone Methodist Church", "amenity": "place_of_worship", "other_tags": "\"fhrs:id\"=>\"283751\",\"building\"=>\"church\",\"religion\"=>\"christian\",\"addr:town\"=>\"Pontefract\",\"addr:street\"=>\"Wilson Street\",\"addr:suburb\"=>\"Featherstone\",\"denomination\"=>\"methodist\",\"addr:postcode\"=>\"WF7 5BH\"" }, "geometry": { "type": "Point", "coordinates": [ -1.3595313, 53.6763565 ] } },
	{ "type": "Feature", "properties": { "osm_id": "5508872774", "name": "Cutsyke Christian Church", "amenity": "place_of_worship", "other_tags": "\"fhrs:id\"=>\"639618\",\"religion\"=>\"christian\",\"addr:town\"=>\"Castleford\",\"addr:street\"=>\"Leeds Road\",\"addr:suburb\"=>\"Cutsyke\",\"addr:postcode\"=>\"WF10 5HA\"" }, "geometry": { "type": "Point", "coordinates": [ -1.3635184, 53.714487 ] } },
	{ "type": "Feature", "properties": { "osm_id": "5533907884", "name": "The Living Hope Church", "amenity": "place_of_worship", "other_tags": "\"fhrs:id\"=>\"314411\",\"religion\"=>\"christian\",\"addr:city\"=>\"Wakefield\",\"addr:street\"=>\"Bethan Court\",\"addr:suburb\"=>\"Havercroft\",\"addr:postcode\"=>\"WF4 2HG\"" }, "geometry": { "type": "Point", "coordinates": [ -1.4023715, 53.625525 ] } },
	{ "type": "Feature", "properties": { "osm_id": "5626994517", "name": "The United Reformed Church In South Leeds", "amenity": "place_of_worship", "other_tags": "\"religion\"=>\"christian\"" }, "geometry": { "type": "Point", "coordinates": [ -1.5242645, 53.7531848 ] } },
	{ "type": "Feature", "properties": { "osm_id": "5713882434", "name": "St Barnabas", "amenity": "place_of_worship", "other_tags": "\"religion\"=>\"christian\",\"wikidata\"=>\"Q26427972\"" }, "geometry": { "type": "Point", "coordinates": [ -1.723156, 53.7141518 ] } },
	{ "type": "Feature", "properties": { "osm_id": "6031540212", "amenity": "place_of_worship", "other_tags": "\"religion\"=>\"christian\",\"addr:city\"=>\"Leeds\",\"addr:place\"=>\"Polski Ośrodek Katolicki\",\"addr:street\"=>\"Newton Hill Road\",\"addr:suburb\"=>\"Potternewton\",\"addr:country\"=>\"GB\",\"denomination\"=>\"roman_catholic\",\"addr:postcode\"=>\"LS7 4JE\"" }, "geometry": { "type": "Point", "coordinates": [ -1.5315965, 53.8232226 ] } },
	{ "type": "Feature", "properties": { "osm_id": "6133180104", "name": "UKIM Iqra Centre Leeds", "amenity": "place_of_worship", "other_tags": "\"religion\"=>\"muslim\"" }, "geometry": { "type": "Point", "coordinates": [ -1.549838, 53.8357937 ] } },
	{ "type": "Feature", "properties": { "osm_id": "6294355460", "name": "Bradford New Church", "amenity": "place_of_worship", "other_tags": "\"religion\"=>\"christian\",\"addr:city\"=>\"Shipley\",\"addr:street\"=>\"Ashfield Avenue\",\"addr:postcode\"=>\"BD18 3AL\",\"contact:phone\"=>\"01274 611082\"" }, "geometry": { "type": "Point", "coordinates": [ -1.776912, 53.8215107 ] } },
	{ "type": "Feature", "properties": { "osm_id": "6324474939", "name": "Windhill Parish Hall", "amenity": "place_of_worship" }, "geometry": { "type": "Point", "coordinates": [ -1.7692527, 53.8330569 ] } },
	{ "type": "Feature", "properties": { "osm_id": "6746554109", "name": "Jamyang Buddhist Centre", "amenity": "place_of_worship", "other_tags": "\"fhrs:id\"=>\"1127352\",\"religion\"=>\"buddhist\",\"addr:city\"=>\"Leeds\",\"addr:street\"=>\"Ingram Road\",\"addr:suburb\"=>\"Holbeck\",\"addr:postcode\"=>\"LS11 9RQ\",\"addr:housename\"=>\"Clyde Works\"" }, "geometry": { "type": "Point", "coordinates": [ -1.5640417, 53.7848005 ] } },
	{ "type": "Feature", "properties": { "osm_id": "6951482172", "name": "Tranquility Spritual Centre", "amenity": "place_of_worship", "other_tags": "\"addr:housenumber\"=>\"38-40\",\"addr:postcode\"=>\"LS28 6DD\",\"addr:street\"=>\"Bradford Road\",\"addr:town\"=>\"Pudsey\",\"fhrs:id\"=>\"1018395\",\"religion\"=>\"spiritualist\"" }, "geometry": { "type": "Point", "coordinates": [ -1.6684628, 53.8050623 ] } },
	{ "type": "Feature", "properties": { "osm_id": "7917473049", "name": "St Gabriel", "amenity": "place_of_worship", "other_tags": "\"denomination\"=>\"anglican\",\"religion\"=>\"christian\",\"wikidata\"=>\"Q105104301\"" }, "geometry": { "type": "Point", "coordinates": [ -1.5328685, 53.7275733 ] } },
	{ "type": "Feature", "properties": { "osm_id": "7929591577", "name": "Oakworth Methodist Church", "amenity": "place_of_worship", "other_tags": "\"addr:city\"=>\"Keighley\",\"addr:housenumber\"=>\"107\",\"addr:postcode\"=>\"BD22 7HN\",\"addr:street\"=>\"Keighley Road\",\"addr:village\"=>\"Oakworth\",\"denomination\"=>\"methodist\",\"fhrs:id\"=>\"327098\",\"religion\"=>\"christian\"" }, "geometry": { "type": "Point", "coordinates": [ -1.9481949, 53.8460247 ] } },
	{ "type": "Feature", "properties": { "osm_id": "8533210227", "name": "Hour Of Grace Prayer Ministry", "amenity": "place_of_worship" }, "geometry": { "type": "Point", "coordinates": [ -1.5030743, 53.8008861 ] } },
	{ "type": "Feature", "properties": { "osm_id": "8648718876", "name": "Beech Hill Church", "amenity": "place_of_worship", "other_tags": "\"addr:city\"=>\"Otley\",\"addr:housenumber\"=>\"20-24\",\"addr:postcode\"=>\"LS21 3AS\",\"addr:street\"=>\"Westgate\",\"denomination\"=>\"FIEC\",\"email\"=>\"hello@beechhillchurch.org.uk\",\"religion\"=>\"christian\",\"service_times\"=>\"10:30am\",\"website\"=>\"https:\/\/www.beechhillchurch.org.uk\/\"" }, "geometry": { "type": "Point", "coordinates": [ -1.695758, 53.9052152 ] } },
	{ "type": "Feature", "properties": { "osm_id": "8714242682", "name": "Christchurch", "amenity": "place_of_worship", "other_tags": "\"addr:housename\"=>\"Xscape\",\"addr:postcode\"=>\"WF10 4TA\",\"addr:street\"=>\"Colorado Way\",\"addr:unit\"=>\"45\",\"religion\"=>\"christian\"" }, "geometry": { "type": "Point", "coordinates": [ -1.3429342, 53.7103112 ] } },
	{ "type": "Feature", "properties": { "osm_id": 6203201, "centroid": { "latitude": 53.678343, "longitude": -1.513434 }, "name": "Markazi Jamia Masjid", "type": "multipolygon", "amenity": "place_of_worship", "building": "yes", "other_tags": "\"religion\"=>\"muslim\",\"addr:city\"=>\"Wakefield\",\"addr:street\"=>\"Grange Street\",\"addr:postcode\"=>\"WF2 8TF\",\"addr:housenumber\"=>\"12\"" }, "geometry": { "type": "MultiPolygon", "coordinates": [ [ [ [ -1.5132843, 53.6783184 ], [ -1.5134025, 53.6782906 ], [ -1.5134093, 53.6783081 ], [ -1.5135303, 53.6782896 ], [ -1.5135837, 53.6783132 ], [ -1.51346, 53.6783889 ], [ -1.5133415, 53.6783964 ], [ -1.5132843, 53.6783184 ] ] ], [ [ [ -1.5130301, 53.6781876 ], [ -1.5132063, 53.678137 ], [ -1.5132755, 53.6781341 ], [ -1.5134025, 53.6782906 ], [ -1.5132843, 53.6783184 ], [ -1.5132365, 53.6783297 ], [ -1.5131798, 53.6782605 ], [ -1.5131239, 53.6782831 ], [ -1.5130301, 53.6781876 ] ] ] ] } },
	{ "type": "Feature", "properties": { "osm_id": 6743167, "centroid": { "latitude": 53.891102, "longitude": -1.744752 }, "name": "Menston Methodist Church", "type": "multipolygon", "amenity": "place_of_worship", "building": "church", "other_tags": "\"religion\"=>\"christian\",\"denomination\"=>\"methodist\"" }, "geometry": { "type": "MultiPolygon", "coordinates": [ [ [ [ -1.7450839, 53.8910158 ], [ -1.7450236, 53.8909746 ], [ -1.7449394, 53.8909169 ], [ -1.7448895, 53.8909423 ], [ -1.7448822, 53.890946 ], [ -1.7448986, 53.8909572 ], [ -1.7446287, 53.8910943 ], [ -1.7445733, 53.8910565 ], [ -1.7444195, 53.8911346 ], [ -1.7444879, 53.8911814 ], [ -1.7445733, 53.8911381 ], [ -1.7446421, 53.8911851 ], [ -1.7445688, 53.8912223 ], [ -1.7446633, 53.8912869 ], [ -1.7448344, 53.8912 ], [ -1.7448621, 53.891219 ], [ -1.7449953, 53.8911513 ], [ -1.7449462, 53.8911178 ], [ -1.7449114, 53.891094 ], [ -1.7450184, 53.8910397 ], [ -1.7450263, 53.8910451 ], [ -1.7450839, 53.8910158 ] ], [ [ -1.7447895, 53.8911234 ], [ -1.7447549, 53.891141 ], [ -1.744707, 53.8911083 ], [ -1.7447417, 53.8910907 ], [ -1.7447895, 53.8911234 ] ] ] ] } },
	{ "type": "Feature", "properties": { "osm_id": 9413108, "centroid": { "latitude": 53.811975, "longitude": -1.489453 }, "name": "Catholic Church of Saint Nicholas", "type": "multipolygon", "amenity": "place_of_worship", "building": "church", "other_tags": "\"religion\"=>\"christian\",\"denomination\"=>\"catholic\"" }, "geometry": { "type": "MultiPolygon", "coordinates": [ [ [ [ -1.4890364, 53.8117932 ], [ -1.489312, 53.8117521 ], [ -1.4893168, 53.8117632 ], [ -1.489491, 53.8117373 ], [ -1.489614, 53.8120246 ], [ -1.4898243, 53.8119932 ], [ -1.4898701, 53.8121003 ], [ -1.489651, 53.812133 ], [ -1.4896649, 53.8121657 ], [ -1.4893469, 53.8122131 ], [ -1.4893296, 53.8121727 ], [ -1.4892561, 53.8121837 ], [ -1.4892242, 53.8121092 ], [ -1.4891588, 53.812119 ], [ -1.4891243, 53.8120383 ], [ -1.48919, 53.8120285 ], [ -1.4891685, 53.8119784 ], [ -1.4891446, 53.8119819 ], [ -1.4890901, 53.8118546 ], [ -1.4890643, 53.8118584 ], [ -1.4890364, 53.8117932 ] ], [ [ -1.4893151, 53.8119505 ], [ -1.4894594, 53.8119291 ], [ -1.4894061, 53.8118043 ], [ -1.4892618, 53.8118258 ], [ -1.4893151, 53.8119505 ] ] ] ] } },
	{ "type": "Feature", "properties": { "osm_id": null, "centroid": { "latitude": 53.689605, "longitude": -1.629194 }, "osm_way_id": "24522859", "name": "Dewsbury Minster Church of All Saints", "amenity": "place_of_worship", "building": "yes", "other_tags": "\"addr:city\"=>\"Dewsbury\",\"addr:country\"=>\"GB\",\"addr:postcode\"=>\"WF12 8DD\",\"addr:street\"=>\"Vicarage Road\",\"denomination\"=>\"anglican\",\"fhrs:id\"=>\"227858\",\"religion\"=>\"christian\",\"source:addr\"=>\"FHRS Open Data\",\"wikidata\"=>\"Q17547909\"" }, "geometry": { "type": "MultiPolygon", "coordinates": [ [ [ [ -1.6287991, 53.6895867 ], [ -1.6288945, 53.6897591 ], [ -1.6295892, 53.6896243 ], [ -1.6294938, 53.6894519 ], [ -1.6287991, 53.6895867 ] ] ] ] } },
	{ "type": "Feature", "properties": { "osm_id": null, "centroid": { "latitude": 53.831506, "longitude": -1.566466 }, "osm_way_id": "24834429", "name": "Holy Trinity Meanwood", "amenity": "place_of_worship", "building": "church", "other_tags": "\"denomination\"=>\"anglican\",\"religion\"=>\"christian\",\"wikidata\"=>\"Q26547164\"" }, "geometry": { "type": "MultiPolygon", "coordinates": [ [ [ [ -1.566205, 53.8316138 ], [ -1.5661694, 53.8315353 ], [ -1.5662024, 53.8315301 ], [ -1.5661886, 53.8314998 ], [ -1.5662887, 53.831484 ], [ -1.5662722, 53.8314477 ], [ -1.5663804, 53.8314306 ], [ -1.5663957, 53.8314643 ], [ -1.5665747, 53.831436 ], [ -1.5665622, 53.8314084 ], [ -1.5666274, 53.8313981 ], [ -1.5666377, 53.8314209 ], [ -1.5667105, 53.8314093 ], [ -1.5667632, 53.8315255 ], [ -1.566205, 53.8316138 ] ] ] ] } },
	{ "type": "Feature", "properties": { "osm_id": null, "centroid": { "latitude": 53.709405, "longitude": -1.632104 }, "osm_way_id": "26554233", "name": "Anjuman-e-Zinatul Islam", "amenity": "place_of_worship", "building": "yes", "other_tags": "\"religion\"=>\"muslim\",\"denomination\"=>\"sunni\"" }, "geometry": { "type": "MultiPolygon", "coordinates": [ [ [ [ -1.6321352, 53.7095622 ], [ -1.6323883, 53.7093071 ], [ -1.6320205, 53.7092486 ], [ -1.6318188, 53.7094592 ], [ -1.6321352, 53.7095622 ] ] ] ] } },
	{ "type": "Feature", "properties": { "osm_id": null, "centroid": { "latitude": 53.778311, "longitude": -1.758017 }, "osm_way_id": "27419027", "name": "St. Stephen's", "amenity": "place_of_worship", "building": "church", "other_tags": "\"religion\"=>\"christian\",\"wikidata\"=>\"Q26426110\",\"denomination\"=>\"anglican\"" }, "geometry": { "type": "MultiPolygon", "coordinates": [ [ [ [ -1.7582972, 53.7783502 ], [ -1.7582262, 53.7781936 ], [ -1.7577366, 53.7782712 ], [ -1.7578076, 53.7784277 ], [ -1.7582972, 53.7783502 ] ] ] ] } },
	{ "type": "Feature", "properties": { "osm_id": null, "centroid": { "latitude": 53.634995, "longitude": -1.868308 }, "osm_way_id": "28305652", "name": "Bolster Moor Baptist Church", "amenity": "place_of_worship", "other_tags": "\"religion\"=>\"christian\",\"denomination\"=>\"baptist\"" }, "geometry": { "type": "MultiPolygon", "coordinates": [ [ [ [ -1.8686913, 53.634836 ], [ -1.8679239, 53.6348305 ], [ -1.8680825, 53.6350835 ], [ -1.8683304, 53.6351601 ], [ -1.868515, 53.635006 ], [ -1.8686913, 53.634836 ] ] ] ] } },
	{ "type": "Feature", "properties": { "osm_id": null, "centroid": { "latitude": 53.760919, "longitude": -1.586829 }, "osm_way_id": "33689286", "name": "Churwell Methodist Church", "amenity": "place_of_worship", "other_tags": "\"religion\"=>\"christian\",\"denomination\"=>\"methodist\"" }, "geometry": { "type": "MultiPolygon", "coordinates": [ [ [ [ -1.5866982, 53.7605933 ], [ -1.5866693, 53.7605715 ], [ -1.5863259, 53.7607654 ], [ -1.5865422, 53.7609556 ], [ -1.5869921, 53.7612672 ], [ -1.5873313, 53.7610819 ], [ -1.5866982, 53.7605933 ] ] ] ] } },
	{ "type": "Feature", "properties": { "osm_id": null, "centroid": { "latitude": 53.742247, "longitude": -1.547119 }, "osm_way_id": "34027227", "name": "Middleton Baptist Church", "amenity": "place_of_worship", "other_tags": "\"religion\"=>\"christian\",\"denomination\"=>\"baptist\"" }, "geometry": { "type": "MultiPolygon", "coordinates": [ [ [ [ -1.5474759, 53.7423609 ], [ -1.5468685, 53.742368 ], [ -1.5467703, 53.7423691 ], [ -1.5467624, 53.7421324 ], [ -1.5474681, 53.7421242 ], [ -1.5474759, 53.7423609 ] ] ] ] } },
	{ "type": "Feature", "properties": { "osm_id": null, "centroid": { "latitude": 53.698052, "longitude": -1.649404 }, "osm_way_id": "35472013", "name": "Westborough Methodist Church", "amenity": "place_of_worship", "other_tags": "\"denomination\"=>\"methodist\",\"religion\"=>\"christian\",\"wikidata\"=>\"Q26600098\"" }, "geometry": { "type": "MultiPolygon", "coordinates": [ [ [ [ -1.6492017, 53.6979808 ], [ -1.649566, 53.6979489 ], [ -1.6495708, 53.6979696 ], [ -1.6496028, 53.6981108 ], [ -1.6496067, 53.6981279 ], [ -1.6493164, 53.6981494 ], [ -1.6492425, 53.6981549 ], [ -1.6492017, 53.6979808 ] ] ] ] } },
	{ "type": "Feature", "properties": { "osm_id": null, "centroid": { "latitude": 53.904058, "longitude": -1.694681 }, "osm_way_id": "37825084", "name": "Otley All Saints Parish Church", "amenity": "place_of_worship", "building": "church", "historic": "church", "other_tags": "\"addr:city\"=>\"Otley\",\"addr:postcode\"=>\"LS21 3HW\",\"addr:street\"=>\"Kirkgate\",\"denomination\"=>\"anglican\",\"religion\"=>\"christian\",\"website\"=>\"https:\/\/otleyparishchurch.org\/\",\"wikidata\"=>\"Q17530507\",\"wikipedia\"=>\"en:All Saints' Church, Otley\"" }, "geometry": { "type": "MultiPolygon", "coordinates": [ [ [ [ -1.6943239, 53.9041007 ], [ -1.6943294, 53.9040164 ], [ -1.6943778, 53.9040175 ], [ -1.6943806, 53.9039741 ], [ -1.6944935, 53.9039767 ], [ -1.6944908, 53.904018 ], [ -1.6945428, 53.9040207 ], [ -1.6945431, 53.9040141 ], [ -1.6945459, 53.9039477 ], [ -1.6946756, 53.9039512 ], [ -1.6946708, 53.9039895 ], [ -1.694818, 53.9039923 ], [ -1.694819, 53.9039562 ], [ -1.694856, 53.9039566 ], [ -1.6948864, 53.9039569 ], [ -1.6948853, 53.9039935 ], [ -1.6949484, 53.9039947 ], [ -1.6949474, 53.9040219 ], [ -1.6949462, 53.9040423 ], [ -1.6950371, 53.9040443 ], [ -1.6950343, 53.9040887 ], [ -1.6949437, 53.9040867 ], [ -1.6949422, 53.9041194 ], [ -1.694939, 53.9041534 ], [ -1.6948401, 53.904152 ], [ -1.694646, 53.9041493 ], [ -1.6946469, 53.9041684 ], [ -1.6945347, 53.904165 ], [ -1.694536, 53.90415 ], [ -1.6944546, 53.9041479 ], [ -1.694458, 53.9041017 ], [ -1.6943239, 53.9041007 ] ] ] ] } },
	{ "type": "Feature", "properties": { "osm_id": null, "centroid": { "latitude": 53.793438, "longitude": -1.666931 }, "osm_way_id": "38719650", "name": "Pudsey Parish Church", "amenity": "place_of_worship", "building": "church", "other_tags": "\"denomination\"=>\"anglican\",\"religion\"=>\"christian\",\"wikidata\"=>\"Q26508833\"" }, "geometry": { "type": "MultiPolygon", "coordinates": [ [ [ [ -1.6671656, 53.7935037 ], [ -1.6671357, 53.7934479 ], [ -1.6672621, 53.7934243 ], [ -1.6672166, 53.7933394 ], [ -1.6671565, 53.7933514 ], [ -1.6670947, 53.7933621 ], [ -1.6670547, 53.7932874 ], [ -1.666599, 53.7933724 ], [ -1.6667144, 53.793588 ], [ -1.6671656, 53.7935037 ] ] ] ] } },
	{ "type": "Feature", "properties": { "osm_id": null, "centroid": { "latitude": 53.907018, "longitude": -1.694398 }, "osm_way_id": "42793324", "name": "Our Lady & All Saints Catholic Church", "amenity": "place_of_worship", "building": "church", "other_tags": "\"addr:city\"=>\"Otley\",\"addr:housenumber\"=>\"4\",\"addr:postcode\"=>\"LS21 3AZ\",\"addr:street\"=>\"Bridge Street\",\"denomination\"=>\"roman_catholic\",\"religion\"=>\"christian\",\"roof:shape\"=>\"gabled\",\"website\"=>\"http:\/\/olasotley.org\/\"" }, "geometry": { "type": "MultiPolygon", "coordinates": [ [ [ [ -1.6946553, 53.9070103 ], [ -1.6943552, 53.9070516 ], [ -1.694273, 53.9070625 ], [ -1.6942931, 53.9071108 ], [ -1.6942005, 53.9071227 ], [ -1.6941791, 53.9070631 ], [ -1.6941582, 53.9070659 ], [ -1.6941405, 53.9070193 ], [ -1.6942308, 53.9070074 ], [ -1.6942258, 53.9069942 ], [ -1.6945005, 53.9069579 ], [ -1.6944867, 53.9069215 ], [ -1.6945166, 53.9069176 ], [ -1.6945497, 53.906913 ], [ -1.6945647, 53.9069508 ], [ -1.6946281, 53.906942 ], [ -1.6946553, 53.9070103 ] ] ] ] } },
	{ "type": "Feature", "properties": { "osm_id": null, "centroid": { "latitude": 53.905627, "longitude": -1.690388 }, "osm_way_id": "42793646", "name": "Otley Methodist Church", "amenity": "place_of_worship", "building": "church", "other_tags": "\"addr:city\"=>\"Otley\",\"addr:postcode\"=>\"LS21 1HB\",\"addr:street\"=>\"Walkergate\",\"denomination\"=>\"methodist\",\"is_in:town\"=>\"Otley\",\"religion\"=>\"christian\",\"roof:shape\"=>\"gabled\",\"website\"=>\"https:\/\/www.wandamethodists.org.uk\/churches\/partnership-4\/otley.html\",\"wikidata\"=>\"Q26542599\"" }, "geometry": { "type": "MultiPolygon", "coordinates": [ [ [ [ -1.6905418, 53.9057392 ], [ -1.6904252, 53.905745 ], [ -1.6902678, 53.9057528 ], [ -1.6902337, 53.905515 ], [ -1.690347, 53.9055093 ], [ -1.6905077, 53.9055013 ], [ -1.6905082, 53.905505 ], [ -1.6905342, 53.9056864 ], [ -1.6905418, 53.9057392 ] ] ] ] } },
	{ "type": "Feature", "properties": { "osm_id": null, "centroid": { "latitude": 53.816929, "longitude": -1.784218 }, "osm_way_id": "49169621", "name": "St Barnabas", "amenity": "place_of_worship", "building": "yes", "other_tags": "\"religion\"=>\"christian\",\"wikidata\"=>\"Q26600735\",\"addr:city\"=>\"Bradford\",\"addr:hamlet\"=>\"Heaton\",\"addr:street\"=>\"Parsons Road\",\"denomination\"=>\"anglican\",\"addr:postcode\"=>\"BD9 4AY\",\"addr:housenumber\"=>\"29\"" }, "geometry": { "type": "MultiPolygon", "coordinates": [ [ [ [ -1.7844379, 53.817003 ], [ -1.7839978, 53.8170036 ], [ -1.7839972, 53.8168546 ], [ -1.7844373, 53.816854 ], [ -1.7844379, 53.817003 ] ] ] ] } },
	{ "type": "Feature", "properties": { "osm_id": null, "centroid": { "latitude": 53.769164, "longitude": -1.714123 }, "osm_way_id": "54571073", "amenity": "place_of_worship" }, "geometry": { "type": "MultiPolygon", "coordinates": [ [ [ [ -1.713304, 53.7693258 ], [ -1.713392, 53.769243 ], [ -1.7136481, 53.7690024 ], [ -1.7132334, 53.7688225 ], [ -1.7134724, 53.7685812 ], [ -1.7139276, 53.768739 ], [ -1.7147323, 53.769075 ], [ -1.7150134, 53.7691873 ], [ -1.7148953, 53.7692954 ], [ -1.7147569, 53.7694323 ], [ -1.7144209, 53.769746 ], [ -1.7134976, 53.7693922 ], [ -1.713304, 53.7693258 ] ] ] ] } },
	{ "type": "Feature", "properties": { "osm_id": null, "centroid": { "latitude": 53.682265, "longitude": -1.696907 }, "osm_way_id": "54609380", "name": "Zion Baptist Church", "amenity": "place_of_worship", "other_tags": "\"religion\"=>\"christian\",\"denomination\"=>\"baptist\"" }, "geometry": { "type": "MultiPolygon", "coordinates": [ [ [ [ -1.6971225, 53.6822595 ], [ -1.6967558, 53.6823582 ], [ -1.6966914, 53.6822743 ], [ -1.6968054, 53.6822436 ], [ -1.6967849, 53.682217 ], [ -1.6969507, 53.6821723 ], [ -1.6969717, 53.6821996 ], [ -1.6970586, 53.6821762 ], [ -1.6971225, 53.6822595 ] ] ] ] } },
	{ "type": "Feature", "properties": { "osm_id": null, "centroid": { "latitude": 53.748423, "longitude": -2.022041 }, "osm_way_id": "56180361", "name": "Saint Thomas's Church", "amenity": "place_of_worship", "building": "church", "other_tags": "\"denomination\"=>\"anglican\",\"religion\"=>\"christian\",\"wikidata\"=>\"Q17542352\"" }, "geometry": { "type": "MultiPolygon", "coordinates": [ [ [ [ -2.0221972, 53.7485372 ], [ -2.0217482, 53.7484466 ], [ -2.0217681, 53.7484121 ], [ -2.0217038, 53.7483991 ], [ -2.0217489, 53.748321 ], [ -2.021812, 53.7483338 ], [ -2.0218265, 53.7483086 ], [ -2.0222754, 53.7483992 ], [ -2.0222475, 53.7484475 ], [ -2.0223776, 53.7484737 ], [ -2.0223471, 53.7485265 ], [ -2.0222184, 53.7485005 ], [ -2.0221972, 53.7485372 ] ] ] ] } },
	{ "type": "Feature", "properties": { "osm_id": null, "centroid": { "latitude": 53.833908, "longitude": -1.782683 }, "osm_way_id": "56694772", "name": "St Paul's", "amenity": "place_of_worship", "building": "yes", "other_tags": "\"religion\"=>\"christian\",\"wikidata\"=>\"Q26426481\",\"denomination\"=>\"anglican\"" }, "geometry": { "type": "MultiPolygon", "coordinates": [ [ [ [ -1.7829645, 53.8339907 ], [ -1.7824012, 53.8339812 ], [ -1.7824066, 53.8338261 ], [ -1.7829645, 53.8338356 ], [ -1.7829645, 53.8339907 ] ] ] ] } },
	{ "type": "Feature", "properties": { "osm_id": null, "centroid": { "latitude": 53.700332, "longitude": -1.501243 }, "osm_way_id": "58241531", "name": "Kingdom Hall", "amenity": "place_of_worship", "building": "yes", "other_tags": "\"addr:postcode\"=>\"WF1 2HT\",\"addr:street\"=>\"Fourth Avenue\",\"denomination\"=>\"jehovahs_witness\",\"religion\"=>\"christian\"" }, "geometry": { "type": "MultiPolygon", "coordinates": [ [ [ [ -1.5011389, 53.7002448 ], [ -1.5014228, 53.7003252 ], [ -1.5013469, 53.7004192 ], [ -1.501063, 53.7003387 ], [ -1.5011389, 53.7002448 ] ] ] ] } },
	{ "type": "Feature", "properties": { "osm_id": null, "centroid": { "latitude": 53.905489, "longitude": -1.743755 }, "osm_way_id": "60172596", "name": "SS John Fisher & Thomas Moore", "amenity": "place_of_worship", "building": "church", "other_tags": "\"addr:city\"=>\"Burley-in-Wharfedale\",\"addr:postcode\"=>\"LS29 7PX\",\"addr:street\"=>\"Bradford Road\",\"denomination\"=>\"roman_catholic\",\"religion\"=>\"christian\",\"website\"=>\"www.ssfishermore.co.uk\/\"" }, "geometry": { "type": "MultiPolygon", "coordinates": [ [ [ [ -1.7435933, 53.9055034 ], [ -1.7437351, 53.9055021 ], [ -1.7437313, 53.9053536 ], [ -1.7439087, 53.9053521 ], [ -1.7439157, 53.9056229 ], [ -1.7435964, 53.9056258 ], [ -1.7435933, 53.9055034 ] ] ] ] } },
	{ "type": "Feature", "properties": { "osm_id": null, "centroid": { "latitude": 53.892142, "longitude": -1.745345 }, "osm_way_id": "60659863", "name": "Menston Parish Church", "amenity": "place_of_worship", "building": "church", "other_tags": "\"denomination\"=>\"anglican\",\"religion\"=>\"christian\",\"wikidata\"=>\"Q105081202\"" }, "geometry": { "type": "MultiPolygon", "coordinates": [ [ [ [ -1.7454585, 53.8920291 ], [ -1.7455262, 53.8921492 ], [ -1.7453128, 53.892191 ], [ -1.7453324, 53.8922259 ], [ -1.7451888, 53.892254 ], [ -1.745163, 53.8922082 ], [ -1.7452503, 53.8921911 ], [ -1.7451963, 53.8920953 ], [ -1.7452266, 53.8920894 ], [ -1.74521, 53.89206 ], [ -1.7452685, 53.8920485 ], [ -1.7452775, 53.8920645 ], [ -1.7454585, 53.8920291 ] ] ] ] } },
	{ "type": "Feature", "properties": { "osm_id": null, "centroid": { "latitude": 53.907563, "longitude": -1.693475 }, "osm_way_id": "60666850", "name": "Bridge Church", "amenity": "place_of_worship", "building": "church", "other_tags": "\"addr:city\"=>\"Otley\",\"addr:country\"=>\"GB\",\"addr:postcode\"=>\"LS21 1RW\",\"addr:street\"=>\"Bridge Street\",\"denomination\"=>\"united_reformed\",\"description\"=>\"Previously called Salem Chapel then Congregational Church\",\"fhrs:id\"=>\"953879\",\"religion\"=>\"christian\",\"website\"=>\"http:\/\/www.otleybridgechurch.org.uk\/\"" }, "geometry": { "type": "MultiPolygon", "coordinates": [ [ [ [ -1.6937745, 53.9073373 ], [ -1.6938077, 53.9074021 ], [ -1.6938373, 53.9074594 ], [ -1.6936562, 53.9074919 ], [ -1.6936993, 53.9075858 ], [ -1.6935133, 53.907613 ], [ -1.6934873, 53.9075533 ], [ -1.6934393, 53.9075589 ], [ -1.6934341, 53.9076304 ], [ -1.6933942, 53.907637 ], [ -1.6934457, 53.9077503 ], [ -1.6932356, 53.907788 ], [ -1.6931134, 53.9075511 ], [ -1.6931808, 53.907539 ], [ -1.6931711, 53.9075202 ], [ -1.6932436, 53.9075073 ], [ -1.6932519, 53.9075234 ], [ -1.6933776, 53.907501 ], [ -1.6933487, 53.9074445 ], [ -1.6933854, 53.907438 ], [ -1.6933707, 53.9074092 ], [ -1.6937745, 53.9073373 ] ] ] ] } },
	{ "type": "Feature", "properties": { "osm_id": null, "centroid": { "latitude": 53.912446, "longitude": -1.741187 }, "osm_way_id": "60671023", "name": "St Mary", "amenity": "place_of_worship", "building": "church", "other_tags": "\"addr:city\"=>\"Burley-in-Wharfedale\",\"addr:street\"=>\"Main Street\",\"denomination\"=>\"anglican\",\"religion\"=>\"christian\",\"website\"=>\"www.burleyparishchurch.org.uk\",\"wikidata\"=>\"Q26426426\"" }, "geometry": { "type": "MultiPolygon", "coordinates": [ [ [ [ -1.7414418, 53.9123959 ], [ -1.7413969, 53.9125353 ], [ -1.7410393, 53.9124954 ], [ -1.7410519, 53.9124562 ], [ -1.7409314, 53.9124427 ], [ -1.7409456, 53.9123985 ], [ -1.7410733, 53.9124127 ], [ -1.7410913, 53.9123568 ], [ -1.7414418, 53.9123959 ] ] ] ] } },
	{ "type": "Feature", "properties": { "osm_id": null, "centroid": { "latitude": 53.831211, "longitude": -1.956079 }, "osm_way_id": "61300080", "name": "St Michael's and All Angels' Church", "amenity": "place_of_worship", "building": "church", "other_tags": "\"denomination\"=>\"anglican\",\"religion\"=>\"christian\",\"wikidata\"=>\"Q7594842\",\"wikipedia\"=>\"en:St Michael and All Angels' Church, Haworth\"" }, "geometry": { "type": "MultiPolygon", "coordinates": [ [ [ [ -1.9558578, 53.8311425 ], [ -1.9558599, 53.8311833 ], [ -1.9558289, 53.8311839 ], [ -1.955833, 53.8312596 ], [ -1.955872, 53.8312589 ], [ -1.9558736, 53.8312887 ], [ -1.956257, 53.8312815 ], [ -1.9563293, 53.8312802 ], [ -1.9563215, 53.8311338 ], [ -1.9558578, 53.8311425 ] ] ] ] } },
	{ "type": "Feature", "properties": { "osm_id": null, "centroid": { "latitude": 53.707495, "longitude": -1.505150 }, "osm_way_id": "61509547", "name": "Parkside Methodist Church", "amenity": "place_of_worship", "building": "yes", "other_tags": "\"religion\"=>\"christian\",\"denomination\"=>\"methodist\",\"addr:postcode\"=>\"WF1 2PN\"" }, "geometry": { "type": "MultiPolygon", "coordinates": [ [ [ [ -1.5054756, 53.7074939 ], [ -1.505404, 53.7075604 ], [ -1.5052828, 53.7075147 ], [ -1.5052046, 53.7075874 ], [ -1.505241, 53.7076012 ], [ -1.5051852, 53.7076531 ], [ -1.5050332, 53.7075959 ], [ -1.5050551, 53.7075756 ], [ -1.5049858, 53.7075495 ], [ -1.5050343, 53.7075045 ], [ -1.504825, 53.7074256 ], [ -1.5049203, 53.707337 ], [ -1.5051771, 53.7074338 ], [ -1.5052172, 53.7073965 ], [ -1.5054756, 53.7074939 ] ] ] ] } },
	{ "type": "Feature", "properties": { "osm_id": null, "centroid": { "latitude": 53.711179, "longitude": -1.501578 }, "osm_way_id": "61722283", "name": "St Mary Magdalene, Outwood", "amenity": "place_of_worship", "building": "yes", "other_tags": "\"addr:postcode\"=>\"WF1 2JL\",\"denomination\"=>\"anglican\",\"religion\"=>\"christian\",\"wikidata\"=>\"Q105104340\"" }, "geometry": { "type": "MultiPolygon", "coordinates": [ [ [ [ -1.5018223, 53.7111296 ], [ -1.5016311, 53.7112656 ], [ -1.5017036, 53.7113013 ], [ -1.5016453, 53.7113428 ], [ -1.5015105, 53.7112765 ], [ -1.5014618, 53.7113112 ], [ -1.5013751, 53.7112686 ], [ -1.5014165, 53.7112391 ], [ -1.501333, 53.711198 ], [ -1.5015898, 53.7110152 ], [ -1.5018223, 53.7111296 ] ] ] ] } },
	{ "type": "Feature", "properties": { "osm_id": null, "centroid": { "latitude": 53.612665, "longitude": -1.518744 }, "osm_way_id": "62747667", "name": "St Peters", "amenity": "place_of_worship", "building": "church", "other_tags": "\"denomination\"=>\"anglican\",\"religion\"=>\"christian\",\"wikidata\"=>\"Q17528177\"" }, "geometry": { "type": "MultiPolygon", "coordinates": [ [ [ [ -1.5189708, 53.6127238 ], [ -1.5185372, 53.612746 ], [ -1.5185169, 53.6126066 ], [ -1.5189504, 53.6125843 ], [ -1.5189708, 53.6127238 ] ] ] ] } },
	{ "type": "Feature", "properties": { "osm_id": null, "centroid": { "latitude": 53.894440, "longitude": -1.451812 }, "osm_way_id": "65281479", "name": "East Keswick Methodist Church", "amenity": "place_of_worship", "building": "church", "other_tags": "\"religion\"=>\"christian\",\"denomination\"=>\"methodist\"" }, "geometry": { "type": "MultiPolygon", "coordinates": [ [ [ [ -1.4519785, 53.8943444 ], [ -1.4520299, 53.8944463 ], [ -1.4517964, 53.8944872 ], [ -1.4518018, 53.8944979 ], [ -1.4517219, 53.8945118 ], [ -1.4517312, 53.8945306 ], [ -1.4516985, 53.8945362 ], [ -1.4516873, 53.8945137 ], [ -1.4516344, 53.8945228 ], [ -1.4515941, 53.8944412 ], [ -1.4516709, 53.894428 ], [ -1.4516463, 53.8943783 ], [ -1.4517454, 53.8943614 ], [ -1.4517613, 53.8943936 ], [ -1.4519634, 53.8943591 ], [ -1.4519579, 53.8943479 ], [ -1.4519785, 53.8943444 ] ] ] ] } },
	{ "type": "Feature", "properties": { "osm_id": null, "centroid": { "latitude": 53.908023, "longitude": -1.414199 }, "osm_way_id": "65287726", "name": "The Ramblers Church", "amenity": "place_of_worship", "building": "church", "other_tags": "\"religion\"=>\"christian\",\"denomination\"=>\"methodist\"" }, "geometry": { "type": "MultiPolygon", "coordinates": [ [ [ [ -1.4142842, 53.9080295 ], [ -1.4143366, 53.9081167 ], [ -1.4142857, 53.9081273 ], [ -1.4142891, 53.908133 ], [ -1.4142544, 53.9081403 ], [ -1.414251, 53.9081346 ], [ -1.4142048, 53.9081443 ], [ -1.4141523, 53.9080571 ], [ -1.4140979, 53.9080684 ], [ -1.4140385, 53.9079697 ], [ -1.4142145, 53.9079329 ], [ -1.4142054, 53.9079179 ], [ -1.4142829, 53.9079017 ], [ -1.4143603, 53.9080303 ], [ -1.4143194, 53.9080388 ], [ -1.4143105, 53.908024 ], [ -1.4142842, 53.9080295 ] ] ] ] } },
	{ "type": "Feature", "properties": { "osm_id": null, "centroid": { "latitude": 53.929957, "longitude": -1.386283 }, "osm_way_id": "65288698", "name": "Parish Church of St. James Wetherby", "amenity": "place_of_worship", "building": "church", "other_tags": "\"addr:postcode\"=>\"LS22 6LP\",\"addr:street\"=>\"Church Street\",\"addr:town\"=>\"Wetherby\",\"denomination\"=>\"anglican\",\"fhrs:id\"=>\"320618\",\"religion\"=>\"christian\",\"wikidata\"=>\"Q7593458\"" }, "geometry": { "type": "MultiPolygon", "coordinates": [ [ [ [ -1.3863954, 53.9298921 ], [ -1.3864996, 53.9299048 ], [ -1.3864981, 53.929909 ], [ -1.3865614, 53.9299167 ], [ -1.3865493, 53.929951 ], [ -1.3865624, 53.9299526 ], [ -1.3865431, 53.9300071 ], [ -1.3864668, 53.9299977 ], [ -1.3864457, 53.9300573 ], [ -1.3863031, 53.9300398 ], [ -1.386311, 53.9300175 ], [ -1.3861116, 53.9299931 ], [ -1.3861135, 53.9299877 ], [ -1.3860464, 53.9299795 ], [ -1.3860557, 53.9299531 ], [ -1.3860035, 53.9299467 ], [ -1.386015, 53.9299141 ], [ -1.3860268, 53.9298807 ], [ -1.386079, 53.9298871 ], [ -1.3860885, 53.9298602 ], [ -1.3861556, 53.9298684 ], [ -1.3861576, 53.929863 ], [ -1.3863294, 53.929884 ], [ -1.3863393, 53.9298559 ], [ -1.3864053, 53.9298639 ], [ -1.3863954, 53.9298921 ] ] ] ] } },
	{ "type": "Feature", "properties": { "osm_id": null, "centroid": { "latitude": 53.716571, "longitude": -1.475025 }, "osm_way_id": "65494182", "name": "Stanley Metodist Church", "amenity": "place_of_worship", "other_tags": "\"religion\"=>\"christian\",\"denomination\"=>\"methodist\"" }, "geometry": { "type": "MultiPolygon", "coordinates": [ [ [ [ -1.4750957, 53.7165878 ], [ -1.4751314, 53.7166073 ], [ -1.4750271, 53.7166741 ], [ -1.4748504, 53.7165775 ], [ -1.4749558, 53.71651 ], [ -1.4750013, 53.7165349 ], [ -1.4751049, 53.7164685 ], [ -1.4752004, 53.7165208 ], [ -1.4750957, 53.7165878 ] ] ] ] } },
	{ "type": "Feature", "properties": { "osm_id": null, "centroid": { "latitude": 53.830433, "longitude": -1.684983 }, "osm_way_id": "66428177", "name": "St Wilfrid's", "amenity": "place_of_worship", "building": "church", "other_tags": "\"religion\"=>\"christian\",\"wikidata\"=>\"Q17533340\",\"denomination\"=>\"anglican\"" }, "geometry": { "type": "MultiPolygon", "coordinates": [ [ [ [ -1.6852307, 53.8303188 ], [ -1.68523, 53.830457 ], [ -1.684883, 53.8304564 ], [ -1.6848825, 53.830549 ], [ -1.6847598, 53.8305488 ], [ -1.6847603, 53.8304461 ], [ -1.684736, 53.830446 ], [ -1.6847366, 53.8303179 ], [ -1.6852307, 53.8303188 ] ] ] ] } },
	{ "type": "Feature", "properties": { "osm_id": null, "centroid": { "latitude": 53.924273, "longitude": -1.824689 }, "osm_way_id": "68466922", "name": "Christchurch", "amenity": "place_of_worship", "building": "church", "other_tags": "\"fhrs:id\"=>\"327244\",\"website\"=>\"www.christchurchilkley.org.uk\",\"religion\"=>\"christian\",\"addr:city\"=>\"Ilkley\",\"addr:street\"=>\"The Grove\",\"source:addr\"=>\"FHRS Open Data\",\"denomination\"=>\"methodist;united_reformed\",\"addr:postcode\"=>\"LS29 9LW\",\"addr:housenumber\"=>\"21\"" }, "geometry": { "type": "MultiPolygon", "coordinates": [ [ [ [ -1.8248808, 53.9241436 ], [ -1.8248782, 53.9241743 ], [ -1.8250153, 53.9241784 ], [ -1.825009, 53.9242522 ], [ -1.8249647, 53.9242509 ], [ -1.8249505, 53.9244158 ], [ -1.8243637, 53.9243984 ], [ -1.8243738, 53.9242805 ], [ -1.824419, 53.9242818 ], [ -1.8244213, 53.9242553 ], [ -1.8246974, 53.9242635 ], [ -1.8246998, 53.9242359 ], [ -1.8244405, 53.9242282 ], [ -1.8244488, 53.9241308 ], [ -1.8248808, 53.9241436 ] ] ] ] } },
	{ "type": "Feature", "properties": { "osm_id": null, "centroid": { "latitude": 53.783226, "longitude": -1.819315 }, "osm_way_id": "72660841", "name": "Clayton Baptist Church", "amenity": "place_of_worship", "other_tags": "\"website\"=>\"http:\/\/www.claytonbaptist.co.uk\/\",\"religion\"=>\"christian\",\"addr:city\"=>\"Bradford\",\"addr:street\"=>\"School Street\",\"addr:village\"=>\"Clayton\",\"denomination\"=>\"baptist\",\"addr:postcode\"=>\"BD14 6AL\"" }, "geometry": { "type": "MultiPolygon", "coordinates": [ [ [ [ -1.8198518, 53.7828744 ], [ -1.8200342, 53.7829885 ], [ -1.8199376, 53.7830518 ], [ -1.8197553, 53.7831533 ], [ -1.8194548, 53.7833117 ], [ -1.8195729, 53.7834132 ], [ -1.8192725, 53.783578 ], [ -1.8185965, 53.7830138 ], [ -1.8188862, 53.7829821 ], [ -1.8193261, 53.7829187 ], [ -1.8195943, 53.7828997 ], [ -1.8198518, 53.7828744 ] ] ] ] } },
	{ "type": "Feature", "properties": { "osm_id": null, "centroid": { "latitude": 53.781295, "longitude": -1.823300 }, "osm_way_id": "72663652", "name": "Clayton Methodist Church", "amenity": "place_of_worship", "other_tags": "\"religion\"=>\"christian\",\"denomination\"=>\"methodist\"" }, "geometry": { "type": "MultiPolygon", "coordinates": [ [ [ [ -1.8232434, 53.7815776 ], [ -1.8228534, 53.781259 ], [ -1.8230288, 53.7811782 ], [ -1.8232326, 53.7810768 ], [ -1.8233399, 53.7810134 ], [ -1.8234901, 53.7810831 ], [ -1.8235867, 53.7811655 ], [ -1.8236833, 53.7812099 ], [ -1.8237476, 53.7812543 ], [ -1.8234687, 53.7814255 ], [ -1.8232434, 53.7815776 ] ] ] ] } },
	{ "type": "Feature", "properties": { "osm_id": null, "centroid": { "latitude": 53.786270, "longitude": -1.789762 }, "osm_way_id": "74360740", "name": "Parish Church Of St Wilfred, Lidget Green", "amenity": "place_of_worship", "building": "church", "other_tags": "\"denomination\"=>\"anglican\",\"religion\"=>\"christian\",\"wikidata\"=>\"Q26535387\"" }, "geometry": { "type": "MultiPolygon", "coordinates": [ [ [ [ -1.7900612, 53.7862953 ], [ -1.7895811, 53.7864127 ], [ -1.7894635, 53.7862448 ], [ -1.7899436, 53.7861274 ], [ -1.7900612, 53.7862953 ] ] ] ] } },
	{ "type": "Feature", "properties": { "osm_id": null, "centroid": { "latitude": 53.785150, "longitude": -1.787541 }, "osm_way_id": "74486643", "name": "Christadelphian Hall", "amenity": "place_of_worship", "other_tags": "\"religion\"=>\"christian\",\"denomination\"=>\"christadelphian\"" }, "geometry": { "type": "MultiPolygon", "coordinates": [ [ [ [ -1.7873478, 53.7853026 ], [ -1.7872834, 53.7852075 ], [ -1.7872405, 53.7851124 ], [ -1.787455, 53.7850554 ], [ -1.7876804, 53.7849983 ], [ -1.7877769, 53.7850997 ], [ -1.7878413, 53.7851758 ], [ -1.7875838, 53.7852455 ], [ -1.7873478, 53.7853026 ] ] ] ] } },
	{ "type": "Feature", "properties": { "osm_id": null, "centroid": { "latitude": 53.715308, "longitude": -1.471844 }, "osm_way_id": "75095333", "name": "St Peters Church Centre", "amenity": "place_of_worship", "building": "yes", "other_tags": "\"addr:city\"=>\"Wakefield\",\"addr:postcode\"=>\"WF3 4HW\",\"addr:street\"=>\"Lake Lock Road\",\"denomination\"=>\"anglican\",\"fhrs:id\"=>\"284349\",\"religion\"=>\"christian\",\"wikidata\"=>\"Q26428870\"" }, "geometry": { "type": "MultiPolygon", "coordinates": [ [ [ [ -1.472091, 53.7152889 ], [ -1.4720929, 53.7153485 ], [ -1.4719411, 53.7153561 ], [ -1.4719395, 53.7153861 ], [ -1.4718387, 53.7153979 ], [ -1.4718355, 53.7153748 ], [ -1.471767, 53.7153775 ], [ -1.4717644, 53.715365 ], [ -1.4715965, 53.7153735 ], [ -1.4715945, 53.7153039 ], [ -1.4716707, 53.7153016 ], [ -1.4716627, 53.7152282 ], [ -1.4719031, 53.7152187 ], [ -1.4719119, 53.7152943 ], [ -1.472091, 53.7152889 ] ] ] ] } },
	{ "type": "Feature", "properties": { "osm_id": null, "centroid": { "latitude": 53.716323, "longitude": -1.466466 }, "osm_way_id": "75095486", "name": "Zion Christian Centre", "amenity": "place_of_worship", "building": "yes", "other_tags": "\"website\"=>\"http:\/\/zionchurch.co.uk\/\",\"religion\"=>\"christian\",\"addr:city\"=>\"Wakefield\",\"addr:street\"=>\"Aberford Road\",\"addr:postcode\"=>\"WF3 4AG\"" }, "geometry": { "type": "MultiPolygon", "coordinates": [ [ [ [ -1.4664082, 53.7162153 ], [ -1.46645, 53.7162384 ], [ -1.4664842, 53.7162167 ], [ -1.4665807, 53.7162699 ], [ -1.4665457, 53.7162921 ], [ -1.4666127, 53.716329 ], [ -1.4665936, 53.7163411 ], [ -1.4666555, 53.7163752 ], [ -1.4665695, 53.7164298 ], [ -1.4665068, 53.7163953 ], [ -1.4664816, 53.7164113 ], [ -1.4662771, 53.7162986 ], [ -1.4664082, 53.7162153 ] ] ] ] } },
	{ "type": "Feature", "properties": { "osm_id": null, "centroid": { "latitude": 53.781557, "longitude": -1.785101 }, "osm_way_id": "75517044", "amenity": "place_of_worship" }, "geometry": { "type": "MultiPolygon", "coordinates": [ [ [ [ -1.7853546, 53.7814942 ], [ -1.7852688, 53.7814244 ], [ -1.7852152, 53.781323 ], [ -1.785065, 53.7811962 ], [ -1.7849898, 53.7811455 ], [ -1.7849147, 53.7811011 ], [ -1.7848075, 53.7811328 ], [ -1.7847538, 53.7811582 ], [ -1.7846251, 53.7812342 ], [ -1.784668, 53.781323 ], [ -1.7847538, 53.7813927 ], [ -1.7847753, 53.7814371 ], [ -1.7848826, 53.7815702 ], [ -1.7847727, 53.7818415 ], [ -1.7849336, 53.7820126 ], [ -1.7852877, 53.7818668 ], [ -1.7854486, 53.7817781 ], [ -1.7855773, 53.7817147 ], [ -1.785419, 53.7815956 ], [ -1.7853546, 53.7814942 ] ] ] ] } },
	{ "type": "Feature", "properties": { "osm_id": null, "centroid": { "latitude": 53.780851, "longitude": -1.786373 }, "osm_way_id": "75640164", "name": "St John, Great Horton", "amenity": "place_of_worship", "building": "church", "other_tags": "\"church\"=>\"Church of England\",\"denomination\"=>\"anglican\",\"religion\"=>\"christian\",\"wikidata\"=>\"Q26578940\"" }, "geometry": { "type": "MultiPolygon", "coordinates": [ [ [ [ -1.7861119, 53.7809955 ], [ -1.7860536, 53.7809562 ], [ -1.7861236, 53.780885 ], [ -1.7860662, 53.7808529 ], [ -1.7863183, 53.780699 ], [ -1.7863051, 53.7806767 ], [ -1.7863731, 53.7806326 ], [ -1.7865979, 53.7807278 ], [ -1.786618, 53.7807765 ], [ -1.7866931, 53.7808145 ], [ -1.7863296, 53.7810698 ], [ -1.7862117, 53.7809861 ], [ -1.7861119, 53.7809955 ] ] ] ] } },
	{ "type": "Feature", "properties": { "osm_id": null, "centroid": { "latitude": 53.685066, "longitude": -1.476834 }, "osm_way_id": "77176682", "name": "Wakefield Evangelical Free Church", "amenity": "place_of_worship", "building": "yes", "other_tags": "\"religion\"=>\"christian\",\"denomination\"=>\"evangelical\",\"addr:postcode\"=>\"WF1 4HN\"" }, "geometry": { "type": "MultiPolygon", "coordinates": [ [ [ [ -1.4767593, 53.6849554 ], [ -1.4768669, 53.6849516 ], [ -1.4768868, 53.6851465 ], [ -1.4769146, 53.6851455 ], [ -1.4769176, 53.6851749 ], [ -1.4767526, 53.6851808 ], [ -1.4767496, 53.6851514 ], [ -1.4767792, 53.6851503 ], [ -1.4767593, 53.6849554 ] ] ] ] } },
	{ "type": "Feature", "properties": { "osm_id": null, "centroid": { "latitude": 53.796701, "longitude": -1.546588 }, "osm_way_id": "78423923", "name": "Mill Hill Unitarian Chapel", "amenity": "place_of_worship", "building": "church", "other_tags": "\"denomination\"=>\"unitarian\",\"religion\"=>\"christian\",\"wikidata\"=>\"Q15253403\"" }, "geometry": { "type": "MultiPolygon", "coordinates": [ [ [ [ -1.546698, 53.7968633 ], [ -1.5464676, 53.7968718 ], [ -1.5464325, 53.7965383 ], [ -1.5466706, 53.7965295 ], [ -1.5466854, 53.7966709 ], [ -1.5467352, 53.796669 ], [ -1.5467384, 53.7966995 ], [ -1.5467425, 53.7967379 ], [ -1.546685, 53.79674 ], [ -1.546698, 53.7968633 ] ] ] ] } },
	{ "type": "Feature", "properties": { "osm_id": null, "centroid": { "latitude": 53.799938, "longitude": -1.550902 }, "osm_way_id": "78431219", "name": "Oxford Place Centre", "amenity": "place_of_worship", "building": "yes", "other_tags": "\"denomination\"=>\"methodist\",\"religion\"=>\"christian\",\"wikidata\"=>\"Q26656180\"" }, "geometry": { "type": "MultiPolygon", "coordinates": [ [ [ [ -1.5510934, 53.8000714 ], [ -1.5506391, 53.8000182 ], [ -1.5507106, 53.7998054 ], [ -1.5511649, 53.7998586 ], [ -1.5510934, 53.8000714 ] ] ] ] } },
	{ "type": "Feature", "properties": { "osm_id": null, "centroid": { "latitude": 53.799480, "longitude": -1.536677 }, "osm_way_id": "78431240", "name": "Bridge Street Church", "amenity": "place_of_worship", "building": "yes", "other_tags": "\"religion\"=>\"christian\",\"denomination\"=>\"pentecostal\"" }, "geometry": { "type": "MultiPolygon", "coordinates": [ [ [ [ -1.5368724, 53.7996382 ], [ -1.5366079, 53.7996222 ], [ -1.536427, 53.7996112 ], [ -1.5364436, 53.7995377 ], [ -1.5364882, 53.7995397 ], [ -1.5364928, 53.7995121 ], [ -1.5365519, 53.7995156 ], [ -1.5365618, 53.7994481 ], [ -1.5364928, 53.7994423 ], [ -1.5365162, 53.7993397 ], [ -1.5367167, 53.7993564 ], [ -1.5367235, 53.7993221 ], [ -1.5369271, 53.7993416 ], [ -1.5368724, 53.7996382 ] ] ] ] } },
	{ "type": "Feature", "properties": { "osm_id": null, "centroid": { "latitude": 53.794625, "longitude": -1.523200 }, "osm_way_id": "78431248", "name": "Newbourne Methodist Church", "amenity": "place_of_worship", "building": "yes", "other_tags": "\"religion\"=>\"christian\",\"denomination\"=>\"methodist\"" }, "geometry": { "type": "MultiPolygon", "coordinates": [ [ [ [ -1.5233004, 53.7945851 ], [ -1.5233545, 53.7945412 ], [ -1.5232553, 53.7944985 ], [ -1.5230321, 53.7946792 ], [ -1.5231986, 53.794751 ], [ -1.5233677, 53.7946141 ], [ -1.5233004, 53.7945851 ] ] ] ] } },
	{ "type": "Feature", "properties": { "osm_id": null, "centroid": { "latitude": 53.795142, "longitude": -1.536078 }, "osm_way_id": "78431281", "name": "Minster Church of St-Peter-at-Leeds", "amenity": "place_of_worship", "building": "church", "other_tags": "\"denomination\"=>\"anglican\",\"religion\"=>\"christian\",\"website\"=>\"www.leedsminster.org\",\"wikidata\"=>\"Q2322532\",\"wikipedia\"=>\"en:Leeds Minster\"" }, "geometry": { "type": "MultiPolygon", "coordinates": [ [ [ [ -1.5365041, 53.795288 ], [ -1.5365103, 53.7952135 ], [ -1.5365134, 53.7951759 ], [ -1.5365215, 53.7950799 ], [ -1.5365246, 53.7950417 ], [ -1.5362832, 53.7950347 ], [ -1.5362856, 53.795006 ], [ -1.5362147, 53.7950039 ], [ -1.5362151, 53.794999 ], [ -1.5360705, 53.7949948 ], [ -1.5360677, 53.7950284 ], [ -1.5358105, 53.795021 ], [ -1.5356509, 53.7950164 ], [ -1.5356418, 53.7951261 ], [ -1.5356306, 53.7952612 ], [ -1.5357899, 53.7952658 ], [ -1.5360467, 53.7952733 ], [ -1.5360457, 53.7952856 ], [ -1.5361172, 53.7952877 ], [ -1.5361913, 53.7952899 ], [ -1.5361922, 53.7952789 ], [ -1.5365041, 53.795288 ] ] ] ] } },
	{ "type": "Feature", "properties": { "osm_id": null, "centroid": { "latitude": 53.777357, "longitude": -1.525769 }, "osm_way_id": "78500856", "name": "Hunslet Nazarene Church", "amenity": "place_of_worship", "building": "yes", "other_tags": "\"religion\"=>\"christian\"" }, "geometry": { "type": "MultiPolygon", "coordinates": [ [ [ [ -1.525941, 53.7773701 ], [ -1.5257774, 53.7772734 ], [ -1.5255977, 53.7773796 ], [ -1.5257024, 53.7774414 ], [ -1.5257694, 53.7774018 ], [ -1.5258284, 53.7774367 ], [ -1.525941, 53.7773701 ] ] ] ] } },
	{ "type": "Feature", "properties": { "osm_id": null, "centroid": { "latitude": 53.782088, "longitude": -1.547334 }, "osm_way_id": "78500875", "name": "The Salvation Army", "amenity": "place_of_worship", "building": "yes", "other_tags": "\"fhrs:id\"=>\"319857\",\"religion\"=>\"christian\",\"addr:city\"=>\"Leeds\",\"addr:street\"=>\"Hunslet Hall Road\",\"addr:postcode\"=>\"LS11 6QB\",\"contact:website\"=>\"http:\/\/www.salvationarmy.org.uk\/yks\/Leeds_West_Hunslet\"" }, "geometry": { "type": "MultiPolygon", "coordinates": [ [ [ [ -1.5470695, 53.7821404 ], [ -1.5471349, 53.7821516 ], [ -1.5471648, 53.7820907 ], [ -1.5470567, 53.7820721 ], [ -1.547085, 53.7820144 ], [ -1.5471992, 53.782034 ], [ -1.5472333, 53.7819645 ], [ -1.5474274, 53.7819978 ], [ -1.5474148, 53.7820234 ], [ -1.5476183, 53.7820583 ], [ -1.5475715, 53.7821538 ], [ -1.547513, 53.7821438 ], [ -1.5474895, 53.7821917 ], [ -1.5473872, 53.7821742 ], [ -1.5474008, 53.7821464 ], [ -1.5473445, 53.7821367 ], [ -1.5473246, 53.7821772 ], [ -1.5472382, 53.7821624 ], [ -1.5472144, 53.7822109 ], [ -1.5470488, 53.7821825 ], [ -1.5470695, 53.7821404 ] ] ] ] } },
	{ "type": "Feature", "properties": { "osm_id": null, "centroid": { "latitude": 53.780944, "longitude": -1.545552 }, "osm_way_id": "78500888", "name": "Kingdom Hall of Jehovah's Witnesses", "amenity": "place_of_worship", "building": "yes", "other_tags": "\"religion\"=>\"christian\",\"denomination\"=>\"jehovahs_witness\"" }, "geometry": { "type": "MultiPolygon", "coordinates": [ [ [ [ -1.5455451, 53.7808411 ], [ -1.5457401, 53.7809458 ], [ -1.545632, 53.7810161 ], [ -1.5456023, 53.7810002 ], [ -1.5455289, 53.7810478 ], [ -1.5453636, 53.7809591 ], [ -1.5455451, 53.7808411 ] ] ] ] } },
	{ "type": "Feature", "properties": { "osm_id": null, "centroid": { "latitude": 53.781119, "longitude": -1.545350 },