{
"type": "FeatureCollection",
"crs": { "type": "name", "properties": { "name": "urn:ogc:def:crs:OGC:1.3:CRS84" } },
"features": [
	{ "type": "Feature", "properties": { "osm_id": "2128107759", "name": "Stitches", "other_tags": "\"shop\"=>\"tailor\"" }, "geometry": { "type": "Point", "coordinates": [ -1.5416342, 53.7989348 ] } },
	{ "type": "Feature", "properties": { "osm_id": "3718205540", "name": "Sew Quick", "other_tags": "\"addr:city\"=>\"Yeadon\",\"addr:housenumber\"=>\"35\",\"addr:postcode\"=>\"LS19 7SP\",\"addr:street\"=>\"High Street\",\"phone\"=>\"+44 113 250 4182\",\"shop\"=>\"tailor\"" }, "geometry": { "type": "Point", "coordinates": [ -1.6841065, 53.8662668 ] } },
	{ "type": "Feature", "properties": { "osm_id": "4411803755", "name": "Stitch Express", "other_tags": "\"shop\"=>\"tailor\",\"addr:street\"=>\"Westmorland Street\",\"addr:postcode\"=>\"WF1 1PJ\",\"addr:housenumber\"=>\"20\"" }, "geometry": { "type": "Point", "coordinates": [ -1.4965166, 53.6832276 ] } },
	{ "type": "Feature", "properties": { "osm_id": "4468401789", "name": "Hem and Stitch", "other_tags": "\"shop\"=>\"tailor\",\"addr:city\"=>\"Wakefield\",\"addr:street\"=>\"The Springs\",\"addr:postcode\"=>\"WF1 1PU\",\"addr:housenumber\"=>\"6\"" }, "geometry": { "type": "Point", "coordinates": [ -1.49529, 53.6830445 ] } },
	{ "type": "Feature", "properties": { "osm_id": "4998540245", "name": "Mr. Tailor", "other_tags": "\"addr:city\"=>\"Leeds\",\"addr:housenumber\"=>\"2\",\"addr:postcode\"=>\"LS6 4ES\",\"addr:street\"=>\"Wilton Grove\",\"phone\"=>\"+44 113 887 8446\",\"shop\"=>\"tailor\"" }, "geometry": { "type": "Point", "coordinates": [ -1.571084, 53.8258023 ] } },
	{ "type": "Feature", "properties": { "osm_id": "5694793445", "name": "Stitchy Buckle Alterations", "other_tags": "\"addr:city\"=>\"Bingley\",\"addr:housenumber\"=>\"5\",\"addr:postcode\"=>\"BD16 2LT\",\"addr:street\"=>\"Queens Court\",\"shop\"=>\"tailor\",\"website\"=>\"http:\/\/www.alterations-hire-bingley.co.uk\/\"" }, "geometry": { "type": "Point", "coordinates": [ -1.8390544, 53.8486075 ] } },
	{ "type": "Feature", "properties": { "osm_id": "5794581341", "name": "Stitch in Time", "other_tags": "\"addr:city\"=>\"Bingley\",\"addr:housenumber\"=>\"100\",\"addr:postcode\"=>\"BD16 2JH\",\"addr:street\"=>\"Main Street\",\"shop\"=>\"tailor\"" }, "geometry": { "type": "Point", "coordinates": [ -1.8401021, 53.8501861 ] } },
	{ "type": "Feature", "properties": { "osm_id": "5918770665", "name": "The Zip Yard", "other_tags": "\"addr:city\"=>\"Leeds\",\"addr:housenumber\"=>\"114 a\",\"addr:postcode\"=>\"LS7 4NY\",\"addr:street\"=>\"Harrogate Road\",\"shop\"=>\"tailor\"" }, "geometry": { "type": "Point", "coordinates": [ -1.5379807, 53.8293953 ] } }
]
}
