{
"type": "FeatureCollection",
"crs": { "type": "name", "properties": { "name": "urn:ogc:def:crs:OGC:1.3:CRS84" } },
"features": [
	{ "type": "Feature", "properties": { "osm_id": "29059183", "name": "High Acres Garden Centre", "other_tags": "\"shop\"=>\"garden_centre\"" }, "geometry": { "type": "Point", "coordinates": [ -1.6433827, 53.8752523 ] } },
	{ "type": "Feature", "properties": { "osm_id": "324708843", "name": "Totties Nursery", "other_tags": "\"shop\"=>\"garden_centre\"" }, "geometry": { "type": "Point", "coordinates": [ -1.7632907, 53.5710829 ] } },
	{ "type": "Feature", "properties": { "osm_id": "441335087", "name": "Hillycroft Nurseries", "other_tags": "\"shop\"=>\"garden_centre\"" }, "geometry": { "type": "Point", "coordinates": [ -1.6369736, 53.7744199 ] } },
	{ "type": "Feature", "properties": { "osm_id": "703977998", "name": "Woodward Nursery", "other_tags": "\"shop\"=>\"garden_centre\"" }, "geometry": { "type": "Point", "coordinates": [ -1.7625263, 53.8484016 ] } },
	{ "type": "Feature", "properties": { "osm_id": "766759807", "name": "Spring Green Nurseries", "other_tags": "\"addr:city\"=>\"Wakefield\",\"addr:postcode\"=>\"WF4 1LW\",\"addr:street\"=>\"Pontefract Road\",\"addr:suburb\"=>\"Crofton\",\"fhrs:id\"=>\"1018772\",\"shop\"=>\"garden_centre\"" }, "geometry": { "type": "Point", "coordinates": [ -1.4222945, 53.665918 ] } },
	{ "type": "Feature", "properties": { "osm_id": "798300348", "name": "Carlton Nurseries", "other_tags": "\"shop\"=>\"garden_centre\"" }, "geometry": { "type": "Point", "coordinates": [ -1.8302044, 53.8199162 ] } },
	{ "type": "Feature", "properties": { "osm_id": "1247756169", "name": "The Old Bridge Nursery", "other_tags": "\"shop\"=>\"garden_centre\"" }, "geometry": { "type": "Point", "coordinates": [ -1.8306554, 53.9288135 ] } },
	{ "type": "Feature", "properties": { "osm_id": "1273177159", "other_tags": "\"shop\"=>\"garden_centre\"" }, "geometry": { "type": "Point", "coordinates": [ -1.3905035, 53.6523405 ] } },
	{ "type": "Feature", "properties": { "osm_id": "1710730498", "name": "Dobbies", "other_tags": "\"shop\"=>\"garden_centre\"" }, "geometry": { "type": "Point", "coordinates": [ -1.6831282, 53.5969517 ] } },
	{ "type": "Feature", "properties": { "osm_id": "3015136534", "other_tags": "\"shop\"=>\"garden_centre\"" }, "geometry": { "type": "Point", "coordinates": [ -1.5970206, 53.6981465 ] } },
	{ "type": "Feature", "properties": { "osm_id": "3551134993", "name": "Colne Valley Garden Centre", "other_tags": "\"shop\"=>\"garden_centre\"" }, "geometry": { "type": "Point", "coordinates": [ -1.8383916, 53.6398355 ] } },
	{ "type": "Feature", "properties": { "osm_id": "3579045970", "other_tags": "\"shop\"=>\"garden_centre\"" }, "geometry": { "type": "Point", "coordinates": [ -1.610878, 53.6486742 ] } }
]
}
