{
"type": "FeatureCollection",
"crs": { "type": "name", "properties": { "name": "urn:ogc:def:crs:OGC:1.3:CRS84" } },
"features": [
	{ "type": "Feature", "properties": { "osm_id": "313247813", "name": "Bruno Venezia", "other_tags": "\"shop\"=>\"clothes\"" }, "geometry": { "type": "Point", "coordinates": [ -1.6098804, 53.8031018 ] } },
	{ "type": "Feature", "properties": { "osm_id": "313247814", "name": "Helen Sykes", "other_tags": "\"shop\"=>\"clothes\"" }, "geometry": { "type": "Point", "coordinates": [ -1.6097039, 53.8030343 ] } },
	{ "type": "Feature", "properties": { "osm_id": "330089351", "name": "Baby's Need's", "other_tags": "\"shop\"=>\"clothes\"" }, "geometry": { "type": "Point", "coordinates": [ -1.5895164, 53.7970805 ] } },
	{ "type": "Feature", "properties": { "osm_id": "333467301", "name": "Michael Kors", "other_tags": "\"addr:city\"=>\"Leeds\",\"addr:housenumber\"=>\"112-114\",\"addr:postcode\"=>\"LS1 6BG\",\"addr:street\"=>\"Briggate\",\"brand\"=>\"Michael Kors\",\"brand:wikidata\"=>\"Q19572998\",\"brand:wikipedia\"=>\"en:Capri Holdings\",\"shop\"=>\"clothes\"" }, "geometry": { "type": "Point", "coordinates": [ -1.5419633, 53.7978638 ] } },
	{ "type": "Feature", "properties": { "osm_id": "333467317", "name": "Fat Face", "other_tags": "\"addr:city\"=>\"Leeds\",\"addr:housenumber\"=>\"69-70\",\"addr:postcode\"=>\"LS1 6LH\",\"addr:street\"=>\"Briggate\",\"brand\"=>\"Fat Face\",\"brand:wikidata\"=>\"Q5437186\",\"brand:wikipedia\"=>\"en:Fat Face\",\"shop\"=>\"clothes\",\"website\"=>\"https:\/\/www.fatface.com\/\"" }, "geometry": { "type": "Point", "coordinates": [ -1.5423938, 53.7981117 ] } },
	{ "type": "Feature", "properties": { "osm_id": "333799013", "name": "Louis Vuitton", "other_tags": "\"addr:city\"=>\"Leeds\",\"addr:housenumber\"=>\"98-99\",\"addr:postcode\"=>\"LS1 6NP\",\"addr:street\"=>\"Briggate\",\"brand\"=>\"Louis Vuitton\",\"brand:wikidata\"=>\"Q191485\",\"brand:wikipedia\"=>\"en:Louis Vuitton\",\"shop\"=>\"clothes\"" }, "geometry": { "type": "Point", "coordinates": [ -1.5418889, 53.7985098 ] } },
	{ "type": "Feature", "properties": { "osm_id": "333799043", "name": "Matalan", "other_tags": "\"addr:city\"=>\"Leeds\",\"addr:housename\"=>\"The Core\",\"addr:postcode\"=>\"LS1 6JD\",\"addr:street\"=>\"The Headrow\",\"addr:unit\"=>\"A110-112\",\"brand\"=>\"Matalan\",\"brand:wikidata\"=>\"Q12061509\",\"brand:wikipedia\"=>\"en:Matalan\",\"shop\"=>\"clothes\"" }, "geometry": { "type": "Point", "coordinates": [ -1.5435792, 53.7991168 ] } },
	{ "type": "Feature", "properties": { "osm_id": "352872460", "name": "Jo Brand Junior", "other_tags": "\"shop\"=>\"clothes\"" }, "geometry": { "type": "Point", "coordinates": [ -1.5667801, 53.8290653 ] } },
	{ "type": "Feature", "properties": { "osm_id": "385014727", "name": "Matalan", "other_tags": "\"brand\"=>\"Matalan\",\"brand:wikidata\"=>\"Q12061509\",\"brand:wikipedia\"=>\"en:Matalan\",\"shop\"=>\"clothes\"" }, "geometry": { "type": "Point", "coordinates": [ -1.6255458, 53.6908133 ] } },
	{ "type": "Feature", "properties": { "osm_id": "535954699", "name": "Muhsin's", "other_tags": "\"shop\"=>\"clothes\"" }, "geometry": { "type": "Point", "coordinates": [ -1.6651246, 53.6785561 ] } },
	{ "type": "Feature", "properties": { "osm_id": "540201164", "name": "Time & Time Again", "other_tags": "\"addr:city\"=>\"Ilkley\",\"addr:country\"=>\"GB\",\"addr:housenumber\"=>\"1\",\"addr:postcode\"=>\"LS29 9DR\",\"addr:street\"=>\"Church Street\",\"description\"=>\"Formal wear; Highland wear; clothes hire; men\",\"shop\"=>\"clothes\"" }, "geometry": { "type": "Point", "coordinates": [ -1.8236886, 53.9261128 ] } },
	{ "type": "Feature", "properties": { "osm_id": "662441113", "name": "United Footwear", "other_tags": "\"shop\"=>\"clothes\"" }, "geometry": { "type": "Point", "coordinates": [ -1.7279003, 53.7752053 ] } },
	{ "type": "Feature", "properties": { "osm_id": "662441219", "name": "St Vincent's", "other_tags": "\"shop\"=>\"clothes\"" }, "geometry": { "type": "Point", "coordinates": [ -1.7215148, 53.7711915 ] } },
	{ "type": "Feature", "properties": { "osm_id": "662441243", "name": "Step 2", "other_tags": "\"shop\"=>\"clothes\"" }, "geometry": { "type": "Point", "coordinates": [ -1.7215998, 53.7714484 ] } },
	{ "type": "Feature", "properties": { "osm_id": "687080933", "name": "Diva Bridal", "other_tags": "\"shop\"=>\"clothes\"" }, "geometry": { "type": "Point", "coordinates": [ -1.7160135, 53.7696628 ] } },
	{ "type": "Feature", "properties": { "osm_id": "687081050", "other_tags": "\"shop\"=>\"clothes\"" }, "geometry": { "type": "Point", "coordinates": [ -1.7123148, 53.7683463 ] } },
	{ "type": "Feature", "properties": { "osm_id": "888253998", "name": "Zara", "other_tags": "\"addr:city\"=>\"Leeds\",\"addr:housenumber\"=>\"129-132\",\"addr:postcode\"=>\"LS1 6BR\",\"addr:street\"=>\"Briggate\",\"brand\"=>\"Zara\",\"brand:wikidata\"=>\"Q147662\",\"brand:wikipedia\"=>\"en:Zara (retailer)\",\"shop\"=>\"clothes\"" }, "geometry": { "type": "Point", "coordinates": [ -1.5421279, 53.7971096 ] } },
	{ "type": "Feature", "properties": { "osm_id": "966181120", "name": "Ashy's Collection", "other_tags": "\"shop\"=>\"clothes\"" }, "geometry": { "type": "Point", "coordinates": [ -1.666767, 53.6782914 ] } },
	{ "type": "Feature", "properties": { "osm_id": "1039830673", "name": "Topman", "other_tags": "\"brand\"=>\"Topman\",\"brand:wikidata\"=>\"Q1090880\",\"brand:wikipedia\"=>\"en:Topman\",\"clothes\"=>\"men\",\"indoor\"=>\"yes\",\"shop\"=>\"clothes\"" }, "geometry": { "type": "Point", "coordinates": [ -1.7830802, 53.6446339 ] } },
	{ "type": "Feature", "properties": { "osm_id": "1055328716", "name": "Pronuptia", "other_tags": "\"shop\"=>\"clothes\"" }, "geometry": { "type": "Point", "coordinates": [ -1.7798098, 53.6455446 ] } },
	{ "type": "Feature", "properties": { "osm_id": "1137929818", "name": "Natasha School Wear", "other_tags": "\"shop\"=>\"clothes\"" }, "geometry": { "type": "Point", "coordinates": [ -1.6297191, 53.6933504 ] } },
	{ "type": "Feature", "properties": { "osm_id": "1137965475", "name": "Freedom", "other_tags": "\"addr:housenumber\"=>\"29\",\"shop\"=>\"clothes\"" }, "geometry": { "type": "Point", "coordinates": [ -1.6288401, 53.6929089 ] } },
	{ "type": "Feature", "properties": { "osm_id": "1139204123", "name": "Ansari's Variety House", "other_tags": "\"phone\"=>\"+44 7733 758094\",\"shop\"=>\"clothes\"" }, "geometry": { "type": "Point", "coordinates": [ -1.6278506, 53.6925894 ] } },
	{ "type": "Feature", "properties": { "osm_id": "1139236299", "name": "Kids Connection", "other_tags": "\"shop\"=>\"clothes\"" }, "geometry": { "type": "Point", "coordinates": [ -1.6288299, 53.6913753 ] } },
	{ "type": "Feature", "properties": { "osm_id": "1378792118", "name": "Trad Collective", "other_tags": "\"shop\"=>\"clothes\"" }, "geometry": { "type": "Point", "coordinates": [ -1.5777218, 53.8216085 ] } },
	{ "type": "Feature", "properties": { "osm_id": "1534826943", "name": "Stitch & Style", "other_tags": "\"addr:housenumber\"=>\"133\",\"addr:street\"=>\"Church Street\",\"shop\"=>\"clothes\"" }, "geometry": { "type": "Point", "coordinates": [ -1.8101901, 53.6430254 ] } },
	{ "type": "Feature", "properties": { "osm_id": "1535922179", "name": "Trendz Clothing", "other_tags": "\"addr:city\"=>\"Huddersfield\",\"addr:country\"=>\"GB\",\"addr:postcode\"=>\"HD1 4UL\",\"addr:street\"=>\"Church Street\",\"addr:suburb\"=>\"Paddock\",\"shop\"=>\"clothes\"" }, "geometry": { "type": "Point", "coordinates": [ -1.8127963, 53.6435163 ] } },
	{ "type": "Feature", "properties": { "osm_id": "1650942199", "name": "Abbey Wedding Warehouse", "other_tags": "\"addr:city\"=>\"Leeds\",\"addr:housenumber\"=>\"2B\",\"addr:postcode\"=>\"LS5 3AQ\",\"addr:street\"=>\"Commercial Road\",\"clothes\"=>\"wedding\",\"contact:phone\"=>\"+44 7711 768471\",\"contact:website\"=>\"https:\/\/www.abbeyweddingwarehouse.co.uk\/\",\"shop\"=>\"clothes\"" }, "geometry": { "type": "Point", "coordinates": [ -1.6025998, 53.8157179 ] } },
	{ "type": "Feature", "properties": { "osm_id": "1959492746", "name": "Jannat Boutique", "other_tags": "\"shop\"=>\"clothes\"" }, "geometry": { "type": "Point", "coordinates": [ -1.9014119, 53.8702328 ] } },
	{ "type": "Feature", "properties": { "osm_id": "1959492752", "name": "Maria", "other_tags": "\"shop\"=>\"clothes\"" }, "geometry": { "type": "Point", "coordinates": [ -1.9017339, 53.8703047 ] } },
	{ "type": "Feature", "properties": { "osm_id": "1959492756", "name": "Mughal Boutique", "other_tags": "\"shop\"=>\"clothes\",\"wheelchair\"=>\"limited\"" }, "geometry": { "type": "Point", "coordinates": [ -1.9001762, 53.8699808 ] } },
	{ "type": "Feature", "properties": { "osm_id": "2091013189", "name": "Hugo Boss", "other_tags": "\"addr:city\"=>\"Leeds\",\"addr:housenumber\"=>\"71-75\",\"addr:postcode\"=>\"LS1 6QA\",\"addr:street\"=>\"Vicar Lane\",\"brand\"=>\"Hugo Boss\",\"brand:wikidata\"=>\"Q491627\",\"brand:wikipedia\"=>\"en:Hugo Boss\",\"old_name\"=>\"The Dutchess\",\"shop\"=>\"clothes\",\"short_name\"=>\"Boss\"" }, "geometry": { "type": "Point", "coordinates": [ -1.5401437, 53.7984455 ] } },
	{ "type": "Feature", "properties": { "osm_id": "2091013202", "name": "White Stuff", "other_tags": "\"addr:city\"=>\"Leeds\",\"addr:housenumber\"=>\"60-64\",\"addr:postcode\"=>\"LS1 7JH\",\"addr:street\"=>\"Vicar Lane\",\"brand\"=>\"White Stuff\",\"brand:wikidata\"=>\"Q7995442\",\"brand:wikipedia\"=>\"en:White Stuff Clothing\",\"shop\"=>\"clothes\"" }, "geometry": { "type": "Point", "coordinates": [ -1.5398736, 53.7980251 ] } },
	{ "type": "Feature", "properties": { "osm_id": "2098303575", "name": "Flannels", "other_tags": "\"addr:city\"=>\"Leeds\",\"addr:housenumber\"=>\"68-78\",\"addr:postcode\"=>\"LS1 7JH\",\"addr:street\"=>\"Vicar Lane\",\"shop\"=>\"clothes\"" }, "geometry": { "type": "Point", "coordinates": [ -1.5397253, 53.7983267 ] } },
	{ "type": "Feature", "properties": { "osm_id": "2125610501", "name": "Best", "other_tags": "\"addr:city\"=>\"Leeds\",\"addr:housenumber\"=>\"22-24\",\"addr:street\"=>\"New Market Street\",\"shop\"=>\"clothes\"" }, "geometry": { "type": "Point", "coordinates": [ -1.5410651, 53.7962165 ] } },
	{ "type": "Feature", "properties": { "osm_id": "2125610581", "name": "Ryan Vintage", "other_tags": "\"shop\"=>\"clothes\"" }, "geometry": { "type": "Point", "coordinates": [ -1.5415149, 53.7961008 ] } },
	{ "type": "Feature", "properties": { "osm_id": "2128107736", "name": "Rohan", "other_tags": "\"addr:city\"=>\"Leeds\",\"addr:housenumber\"=>\"10-12\",\"addr:postcode\"=>\"LS1 6LQ\",\"addr:street\"=>\"Thornton's Arcade\",\"shop\"=>\"clothes\"" }, "geometry": { "type": "Point", "coordinates": [ -1.5426306, 53.7987243 ] } },
	{ "type": "Feature", "properties": { "osm_id": "2128107741", "name": "The Hip Store", "other_tags": "\"addr:city\"=>\"Leeds\",\"addr:housenumber\"=>\"49-51\",\"addr:postcode\"=>\"LS1 6DS\",\"addr:street\"=>\"Vicar Lane\",\"phone\"=>\"+44 113 246 0347\",\"shop\"=>\"clothes\",\"website\"=>\"https:\/\/www.thehipstore.co.uk\/\"" }, "geometry": { "type": "Point", "coordinates": [ -1.5405615, 53.7975362 ] } },
	{ "type": "Feature", "properties": { "osm_id": "2140301912", "name": "Bravissimo", "other_tags": "\"addr:city\"=>\"Leeds\",\"addr:housenumber\"=>\"6-8\",\"addr:postcode\"=>\"LS1 6AZ\",\"addr:street\"=>\"Cross Arcade\",\"shop\"=>\"clothes\"" }, "geometry": { "type": "Point", "coordinates": [ -1.5409436, 53.7979392 ] } },
	{ "type": "Feature", "properties": { "osm_id": "2140301913", "name": "Paul Smith", "other_tags": "\"addr:city\"=>\"Leeds\",\"addr:housenumber\"=>\"17-19\",\"addr:postcode\"=>\"LS1 6AX\",\"addr:street\"=>\"King Edward Street\",\"brand\"=>\"Paul Smith\",\"brand:wikidata\"=>\"Q56356277\",\"shop\"=>\"clothes\"" }, "geometry": { "type": "Point", "coordinates": [ -1.5409465, 53.7977781 ] } },
	{ "type": "Feature", "properties": { "osm_id": "2140301914", "name": "Ted Baker", "other_tags": "\"addr:city\"=>\"Leeds\",\"addr:housenumber\"=>\"23-25\",\"addr:postcode\"=>\"LS1 6BD\",\"addr:street\"=>\"Queen Victoria Street\",\"brand\"=>\"Ted Baker\",\"brand:wikidata\"=>\"Q2913458\",\"brand:wikipedia\"=>\"en:Ted Baker\",\"shop\"=>\"clothes\"" }, "geometry": { "type": "Point", "coordinates": [ -1.5408482, 53.7980331 ] } },
	{ "type": "Feature", "properties": { "osm_id": "2142553146", "name": "Blue Rinse", "other_tags": "\"addr:city\"=>\"Leeds\",\"addr:street\"=>\"Call Lane\",\"shop\"=>\"clothes\"" }, "geometry": { "type": "Point", "coordinates": [ -1.5399711, 53.7962754 ] } },
	{ "type": "Feature", "properties": { "osm_id": "2195805644", "name": "USC", "other_tags": "\"brand\"=>\"USC\",\"brand:wikidata\"=>\"Q7866331\",\"brand:wikipedia\"=>\"en:USC (clothing retailer)\",\"shop\"=>\"clothes\"" }, "geometry": { "type": "Point", "coordinates": [ -1.7551731, 53.8015873 ] } },
	{ "type": "Feature", "properties": { "osm_id": "2195805657", "other_tags": "\"shop\"=>\"clothes\"" }, "geometry": { "type": "Point", "coordinates": [ -1.7577426, 53.796464 ] } },
	{ "type": "Feature", "properties": { "osm_id": "2212648134", "name": "Superdry", "other_tags": "\"brand\"=>\"Superdry\",\"brand:wikidata\"=>\"Q1684445\",\"brand:wikipedia\"=>\"en:Superdry\",\"contact:website\"=>\"https:\/\/stores.superdry.com\/gb\/leeds\/18-24-albion-street\",\"shop\"=>\"clothes\"" }, "geometry": { "type": "Point", "coordinates": [ -1.544969, 53.7964543 ] } },
	{ "type": "Feature", "properties": { "osm_id": "2212648187", "name": "River Island", "other_tags": "\"addr:city\"=>\"Leeds\",\"addr:housenumber\"=>\"36\",\"addr:postcode\"=>\"LS1 6HD\",\"addr:street\"=>\"Briggate\",\"brand\"=>\"River Island\",\"brand:wikidata\"=>\"Q2670328\",\"brand:wikipedia\"=>\"en:River Island\",\"contact:website\"=>\"https:\/\/www.riverisland.com\/how-can-we-help\/find-a-store\/leeds-trinity\",\"shop\"=>\"clothes\"" }, "geometry": { "type": "Point", "coordinates": [ -1.542783, 53.7963656 ] } },
	{ "type": "Feature", "properties": { "osm_id": "2212648198", "name": "Urban Outfitters", "other_tags": "\"brand\"=>\"Urban Outfitters\",\"brand:wikidata\"=>\"Q3552193\",\"brand:wikipedia\"=>\"en:Urban Outfitters\",\"shop\"=>\"clothes\"" }, "geometry": { "type": "Point", "coordinates": [ -1.5440999, 53.7960567 ] } },
	{ "type": "Feature", "properties": { "osm_id": "2212678969", "name": "H&M", "other_tags": "\"addr:housenumber\"=>\"30\",\"addr:postcode\"=>\"LS1 5ER\",\"addr:street\"=>\"Albion Street\",\"brand\"=>\"H&M\",\"brand:wikidata\"=>\"Q188326\",\"brand:wikipedia\"=>\"en:H&M\",\"opening_hours\"=>\"Mo-Sa 09:00-20:00; Su 11:00-17:00\",\"shop\"=>\"clothes\",\"website\"=>\"https:\/\/www2.hm.com\/en_gb\/index.html\"" }, "geometry": { "type": "Point", "coordinates": [ -1.545545, 53.7966161 ] } },
	{ "type": "Feature", "properties": { "osm_id": "2213576305", "name": "Hollister", "other_tags": "\"brand\"=>\"Hollister\",\"brand:wikidata\"=>\"Q1257477\",\"brand:wikipedia\"=>\"en:Hollister Co.\",\"official_name\"=>\"Hollister Co.\",\"shop\"=>\"clothes\"" }, "geometry": { "type": "Point", "coordinates": [ -1.5440964, 53.7966462 ] } },
	{ "type": "Feature", "properties": { "osm_id": "2353394451", "name": "Jenni's Dresser", "other_tags": "\"addr:city\"=>\"Otley\",\"addr:housenumber\"=>\"26\",\"addr:street\"=>\"Cross Green\",\"contact:facebook\"=>\"https:\/\/www.facebook.com\/jennisdresserotley\/\",\"shop\"=>\"clothes\"" }, "geometry": { "type": "Point", "coordinates": [ -1.6888021, 53.9062092 ] } },
	{ "type": "Feature", "properties": { "osm_id": "2353473495", "name": "Silk Sisters", "other_tags": "\"addr:city\"=>\"Otley\",\"addr:country\"=>\"GB\",\"addr:street\"=>\"Market Street\",\"is_in:town\"=>\"Otley\",\"phone\"=>\"+44 1943 463353\",\"shop\"=>\"clothes\",\"website\"=>\"www.silksisters.co.uk\"" }, "geometry": { "type": "Point", "coordinates": [ -1.6932251, 53.905525 ] } },
	{ "type": "Feature", "properties": { "osm_id": "2353501509", "name": "Wedding Belles of Otley", "other_tags": "\"addr:street\"=>\"New Inn Court\",\"description\"=>\"Quality bridal wear & accessories\",\"shop\"=>\"clothes\",\"website\"=>\"www.weddingbellesofotley.co.uk\"" }, "geometry": { "type": "Point", "coordinates": [ -1.6936781, 53.9048992 ] } },
	{ "type": "Feature", "properties": { "osm_id": "2353531362", "other_tags": "\"shop\"=>\"clothes\"" }, "geometry": { "type": "Point", "coordinates": [ -1.6943784, 53.9046922 ] } },
	{ "type": "Feature", "properties": { "osm_id": "2353558009", "name": "Wild Thing", "other_tags": "\"shop\"=>\"clothes\"" }, "geometry": { "type": "Point", "coordinates": [ -1.6938608, 53.9042341 ] } },
	{ "type": "Feature", "properties": { "osm_id": "2661206206", "name": "Backcountry UK", "other_tags": "\"clothes\"=>\"outsoor\",\"shop\"=>\"clothes\"" }, "geometry": { "type": "Point", "coordinates": [ -1.822436, 53.9263064 ] } },
	{ "type": "Feature", "properties": { "osm_id": "3057247701", "name": "Rag Doll of Pudsey", "other_tags": "\"addr:city\"=>\"Pudsey\",\"addr:housenumber\"=>\"76\",\"addr:postcode\"=>\"LS28 8LE\",\"addr:street\"=>\"Galloway Lane\",\"shop\"=>\"clothes\"" }, "geometry": { "type": "Point", "coordinates": [ -1.6897951, 53.8008212 ] } },
	{ "type": "Feature", "properties": { "osm_id": "3073182159", "name": "Uniformitry", "other_tags": "\"addr:city\"=>\"Farsley\",\"addr:housenumber\"=>\"5\",\"addr:street\"=>\"New Street\",\"phone\"=>\"+44 113 256 6020\",\"shop\"=>\"clothes\"" }, "geometry": { "type": "Point", "coordinates": [ -1.6723188, 53.8112816 ] } },
	{ "type": "Feature", "properties": { "osm_id": "3155299679", "name": "Peacocks", "other_tags": "\"shop\"=>\"clothes\"" }, "geometry": { "type": "Point", "coordinates": [ -1.6762534, 53.7083754 ] } },
	{ "type": "Feature", "properties": { "osm_id": "3518087594", "name": "Almond", "other_tags": "\"clothes\"=>\"women\",\"shop\"=>\"clothes\"" }, "geometry": { "type": "Point", "coordinates": [ -1.7858042, 53.570347 ] } },
	{ "type": "Feature", "properties": { "osm_id": "3621975746", "name": "Reiss", "other_tags": "\"addr:city\"=>\"Leeds\",\"addr:housenumber\"=>\"26-28\",\"addr:postcode\"=>\"LS1 6BH\",\"addr:street\"=>\"County Arcade\",\"brand\"=>\"Reiss\",\"brand:wikidata\"=>\"Q7310479\",\"brand:wikipedia\"=>\"en:Reiss (brand)\",\"shop\"=>\"clothes\",\"website\"=>\"https:\/\/www.reiss.com\/\"" }, "geometry": { "type": "Point", "coordinates": [ -1.5409442, 53.7984122 ] } },
	{ "type": "Feature", "properties": { "osm_id": "3621975750", "name": "Vivienne Westwood", "other_tags": "\"addr:city\"=>\"Leeds\",\"addr:housenumber\"=>\"11-17\",\"addr:postcode\"=>\"LS1 6BW\",\"addr:street\"=>\"County Arcade\",\"shop\"=>\"clothes\",\"website\"=>\"https:\/\/www.viviennewestwood.com\/\"" }, "geometry": { "type": "Point", "coordinates": [ -1.5413462, 53.7983088 ] } },
	{ "type": "Feature", "properties": { "osm_id": "3660968673", "name": "Coldspring Mill", "other_tags": "\"shop\"=>\"clothes\"" }, "geometry": { "type": "Point", "coordinates": [ -1.9115041, 53.8211105 ] } },
	{ "type": "Feature", "properties": { "osm_id": "3715263092", "name": "Farouche", "other_tags": "\"addr:city\"=>\"Rawdon\",\"addr:street\"=>\"Harrogate Road\",\"shop\"=>\"clothes\"" }, "geometry": { "type": "Point", "coordinates": [ -1.6842609, 53.8543587 ] } },
	{ "type": "Feature", "properties": { "osm_id": "3715282329", "name": "Bridal Apparel", "other_tags": "\"addr:city\"=>\"Rawdon\",\"addr:housenumber\"=>\"15\",\"addr:postcode\"=>\"LS19 6HW\",\"addr:street\"=>\"Harrogate Road\",\"phone\"=>\"+44 113 250 1616\",\"shop\"=>\"clothes\",\"website\"=>\"https:\/\/www.bridalapparelleeds.co.uk\/\"" }, "geometry": { "type": "Point", "coordinates": [ -1.6848443, 53.8539247 ] } },
	{ "type": "Feature", "properties": { "osm_id": "3718207674", "name": "New Collection", "other_tags": "\"addr:city\"=>\"Yeadon\",\"addr:street\"=>\"High Street\",\"shop\"=>\"clothes\"" }, "geometry": { "type": "Point", "coordinates": [ -1.684724, 53.8661948 ] } },
	{ "type": "Feature", "properties": { "osm_id": "3887789760", "name": "The Horsforth Dress Agency", "other_tags": "\"addr:city\"=>\"Leeds\",\"addr:housenumber\"=>\"102\",\"addr:postcode\"=>\"LS18 4AP\",\"addr:street\"=>\"Town Street\",\"addr:suburb\"=>\"Horsforth\",\"clothes\"=>\"women\",\"old_name\"=>\"Mutley's\",\"opening_hours\"=>\"Tu-Sa 10:00-17:00\",\"phone\"=>\"+44 113 258 3642\",\"shop\"=>\"clothes\"" }, "geometry": { "type": "Point", "coordinates": [ -1.6378422, 53.8396413 ] } },
	{ "type": "Feature", "properties": { "osm_id": "3892020075", "name": "very stylish girl", "other_tags": "\"addr:city\"=>\"Leeds\",\"addr:housenumber\"=>\"121\",\"addr:postcode\"=>\"LS18 5BL\",\"addr:street\"=>\"Town Street\",\"addr:suburb\"=>\"Horsforth\",\"clothes\"=>\"women\",\"opening_hours\"=>\"Tu-Sa 10:00-16:00; Su,Mo off\",\"shop\"=>\"clothes\"" }, "geometry": { "type": "Point", "coordinates": [ -1.6374153, 53.840099 ] } },
	{ "type": "Feature", "properties": { "osm_id": "3892414281", "name": "Dressie Boutique", "other_tags": "\"addr:city\"=>\"Leeds\",\"addr:housenumber\"=>\"164\",\"addr:postcode\"=>\"LS18 4AQ\",\"addr:street\"=>\"Town Street\",\"addr:suburb\"=>\"Horsforth\",\"clothes\"=>\"women\",\"contact:facebook\"=>\"https:\/\/www.facebook.com\/dressieboutique\",\"opening_hours\"=>\"Tu-Sa 10:00-16:00; Su,Mo off\",\"phone\"=>\"+44 113 318 4683\",\"shop\"=>\"clothes\"" }, "geometry": { "type": "Point", "coordinates": [ -1.6360364, 53.8411583 ] } },
	{ "type": "Feature", "properties": { "osm_id": "3901161760", "name": "Sophie's Choice", "other_tags": "\"addr:city\"=>\"Horsforth\",\"addr:housenumber\"=>\"159\",\"addr:postcode\"=>\"LS18 4DR\",\"addr:street\"=>\"New Road Side\",\"clothes\"=>\"women\",\"phone\"=>\"+44 113 258 8881\",\"shop\"=>\"clothes\"" }, "geometry": { "type": "Point", "coordinates": [ -1.644706, 53.8321781 ] } },
	{ "type": "Feature", "properties": { "osm_id": "3901161761", "name": "Cash4Clothes", "other_tags": "\"addr:city\"=>\"Horsforth\",\"addr:housenumber\"=>\"157\",\"addr:postcode\"=>\"LS18 4DR\",\"addr:street\"=>\"New Road Side\",\"shop\"=>\"clothes\"" }, "geometry": { "type": "Point", "coordinates": [ -1.6446213, 53.8321676 ] } },
	{ "type": "Feature", "properties": { "osm_id": "3903000730", "name": "Laura Jane Bridal", "other_tags": "\"addr:city\"=>\"Horsforth\",\"addr:housenumber\"=>\"125\",\"addr:postcode\"=>\"LS18 4QD\",\"addr:street\"=>\"New Road Side\",\"check_date:opening_hours\"=>\"2023-01-09\",\"clothes\"=>\"wedding\",\"opening_hours:signed\"=>\"no\",\"shop\"=>\"clothes\"" }, "geometry": { "type": "Point", "coordinates": [ -1.643163, 53.8320344 ] } },
	{ "type": "Feature", "properties": { "osm_id": "3904772152", "name": "Maid To Fit", "other_tags": "\"addr:city\"=>\"Horsforth\",\"addr:housenumber\"=>\"87\",\"addr:postcode\"=>\"LS18 4QD\",\"addr:street\"=>\"New Road Side\",\"clothes\"=>\"women\",\"opening_hours\"=>\"We,Th 10:00-17:00; Fr 10:00-15:00\",\"shop\"=>\"clothes\"" }, "geometry": { "type": "Point", "coordinates": [ -1.6413828, 53.831966 ] } },
	{ "type": "Feature", "properties": { "osm_id": "3934263614", "name": "Paradise Grove", "other_tags": "\"addr:city\"=>\"Horsforth\",\"addr:housenumber\"=>\"27\",\"addr:postcode\"=>\"LS18 4RN\",\"addr:street\"=>\"Paradise Place\",\"shop\"=>\"clothes\"" }, "geometry": { "type": "Point", "coordinates": [ -1.6189911, 53.8355808 ] } },
	{ "type": "Feature", "properties": { "osm_id": "4353989162", "name": "Ashworth & Bird", "other_tags": "\"addr:city\"=>\"Wakefield\",\"addr:housenumber\"=>\"13-17\",\"addr:street\"=>\"Cross Square\",\"shop\"=>\"clothes\",\"website\"=>\"https:\/\/www.ashworthandbird.com\/\"" }, "geometry": { "type": "Point", "coordinates": [ -1.4988524, 53.6828565 ] } },
	{ "type": "Feature", "properties": { "osm_id": "4353989290", "name": "Peters", "other_tags": "\"addr:city\"=>\"Wakefield\",\"addr:housenumber\"=>\"33-35\",\"addr:postcode\"=>\"WF1 1QW\",\"addr:street\"=>\"Brook Street\",\"shop\"=>\"clothes\"" }, "geometry": { "type": "Point", "coordinates": [ -1.4967086, 53.6841726 ] } },
	{ "type": "Feature", "properties": { "osm_id": "4413109076", "name": "Bridal Reloved", "other_tags": "\"addr:city\"=>\"Wakefield\",\"addr:housenumber\"=>\"24\",\"addr:postcode\"=>\"WF1 2ED\",\"addr:street\"=>\"Wood Street\",\"shop\"=>\"clothes\",\"website\"=>\"https:\/\/bridalreloved.co.uk\/\"" }, "geometry": { "type": "Point", "coordinates": [ -1.500018, 53.6835463 ] } },
	{ "type": "Feature", "properties": { "osm_id": "4414777795", "name": "Dress2Party", "other_tags": "\"addr:city\"=>\"Wakefield\",\"addr:housenumber\"=>\"57\",\"addr:postcode\"=>\"WF1 3BP\",\"addr:street\"=>\"Northgate\",\"shop\"=>\"clothes\"" }, "geometry": { "type": "Point", "coordinates": [ -1.4999083, 53.6845074 ] } },
	{ "type": "Feature", "properties": { "osm_id": "4602768928", "name": "Yorkshire Menswear", "other_tags": "\"shop\"=>\"clothes\"" }, "geometry": { "type": "Point", "coordinates": [ -1.6629175, 53.8231128 ] } },
	{ "type": "Feature", "properties": { "osm_id": "4636108674", "name": "Fat Face", "other_tags": "\"brand\"=>\"Fat Face\",\"brand:wikidata\"=>\"Q5437186\",\"brand:wikipedia\"=>\"en:Fat Face\",\"shop\"=>\"clothes\"" }, "geometry": { "type": "Point", "coordinates": [ -2.0132507, 53.741658 ] } },
	{ "type": "Feature", "properties": { "osm_id": "4885695945", "name": "Select", "other_tags": "\"brand\"=>\"Select\",\"brand:wikidata\"=>\"Q105105307\",\"clothes\"=>\"women\",\"shop\"=>\"clothes\"" }, "geometry": { "type": "Point", "coordinates": [ -1.544226, 53.8010395 ] } },
	{ "type": "Feature", "properties": { "osm_id": "4951726045", "name": "USC", "other_tags": "\"brand\"=>\"USC\",\"brand:wikidata\"=>\"Q7866331\",\"brand:wikipedia\"=>\"en:USC (clothing retailer)\",\"shop\"=>\"clothes\"" }, "geometry": { "type": "Point", "coordinates": [ -1.781345, 53.6440407 ] } },
	{ "type": "Feature", "properties": { "osm_id": "4951726046", "name": "Dorothy Perkins", "other_tags": "\"brand\"=>\"Dorothy Perkins\",\"brand:wikidata\"=>\"Q5298588\",\"brand:wikipedia\"=>\"en:Dorothy Perkins\",\"shop\"=>\"clothes\"" }, "geometry": { "type": "Point", "coordinates": [ -1.7821254, 53.6440243 ] } },
	{ "type": "Feature", "properties": { "osm_id": "4951726047", "name": "Evans", "other_tags": "\"brand\"=>\"Evans\",\"brand:wikidata\"=>\"Q5415877\",\"brand:wikipedia\"=>\"en:Evans (retailer)\",\"clothes\"=>\"women\",\"shop\"=>\"clothes\"" }, "geometry": { "type": "Point", "coordinates": [ -1.7819556, 53.6441397 ] } },
	{ "type": "Feature", "properties": { "osm_id": "4969745011", "name": "New Look", "other_tags": "\"addr:city\"=>\"Huddersfield\",\"addr:housenumber\"=>\"21\",\"addr:postcode\"=>\"HD1 2QB\",\"addr:street\"=>\"Kingsgate Centre\",\"brand\"=>\"New Look\",\"brand:wikidata\"=>\"Q12063852\",\"clothes\"=>\"women\",\"shop\"=>\"clothes\"" }, "geometry": { "type": "Point", "coordinates": [ -1.7781878, 53.6455801 ] } },
	{ "type": "Feature", "properties": { "osm_id": "4969745014", "name": "Roman", "other_tags": "\"addr:city\"=>\"Huddersfield\",\"addr:housenumber\"=>\"16\",\"addr:postcode\"=>\"HD1 2QB\",\"addr:street\"=>\"Kingsgate Centre\",\"brand\"=>\"Roman Originals\",\"brand:wikidata\"=>\"Q94579553\",\"clothes\"=>\"women\",\"shop\"=>\"clothes\"" }, "geometry": { "type": "Point", "coordinates": [ -1.7785601, 53.6458941 ] } },
	{ "type": "Feature", "properties": { "osm_id": "4969745016", "name": "Next", "other_tags": "\"addr:city\"=>\"Huddersfield\",\"addr:postcode\"=>\"HD1 2QB\",\"addr:street\"=>\"Kingsgate Centre\",\"brand\"=>\"Next\",\"brand:wikidata\"=>\"Q246655\",\"brand:wikipedia\"=>\"en:Next plc\",\"shop\"=>\"clothes\"" }, "geometry": { "type": "Point", "coordinates": [ -1.7790408, 53.646259 ] } },
	{ "type": "Feature", "properties": { "osm_id": "5026332220", "name": "Imagine Dance & Theatrical Wear", "other_tags": "\"addr:city\"=>\"Wakefield\",\"addr:housenumber\"=>\"1\",\"addr:postcode\"=>\"WF1 1PA\",\"addr:street\"=>\"Marygate\",\"shop\"=>\"clothes\",\"website\"=>\"https:\/\/www.imaginewear.co.uk\/\"" }, "geometry": { "type": "Point", "coordinates": [ -1.4992623, 53.6826191 ] } },
	{ "type": "Feature", "properties": { "osm_id": "5071335020", "name": "River Island", "other_tags": "\"addr:city\"=>\"Huddersfield\",\"addr:postcode\"=>\"HD1 2QB\",\"addr:street\"=>\"Kingsgate Centre\",\"addr:unit\"=>\"4-5\",\"brand\"=>\"River Island\",\"brand:wikidata\"=>\"Q2670328\",\"brand:wikipedia\"=>\"en:River Island\",\"contact:website\"=>\"https:\/\/www.riverisland.com\/how-can-we-help\/find-a-store\/huddersfield\",\"shop\"=>\"clothes\"" }, "geometry": { "type": "Point", "coordinates": [ -1.7798577, 53.6460779 ] } },
	{ "type": "Feature", "properties": { "osm_id": "5071349015", "name": "Peter's of Huddersfield", "other_tags": "\"addr:city\"=>\"Huddersfield\",\"addr:street\"=>\"Packhorse Centre\",\"shop\"=>\"clothes\"" }, "geometry": { "type": "Point", "coordinates": [ -1.7813284, 53.6465578 ] } },
	{ "type": "Feature", "properties": { "osm_id": "5071542356", "name": "Bonmarché", "other_tags": "\"addr:city\"=>\"Huddersfield\",\"addr:housenumber\"=>\"56\",\"addr:postcode\"=>\"HD1 2BW\",\"addr:street\"=>\"New Street\",\"brand\"=>\"Bonmarché\",\"brand:wikidata\"=>\"Q4942146\",\"brand:wikipedia\"=>\"en:Bonmarché\",\"shop\"=>\"clothes\"" }, "geometry": { "type": "Point", "coordinates": [ -1.7833547, 53.6447814 ] } },
	{ "type": "Feature", "properties": { "osm_id": "5139532435", "name": "Slaters", "other_tags": "\"addr:city\"=>\"Leeds\",\"addr:housenumber\"=>\"83\",\"addr:postcode\"=>\"LS1 5AP\",\"addr:street\"=>\"Albion Street\",\"brand\"=>\"Slaters\",\"brand:wikidata\"=>\"Q7538912\",\"brand:wikipedia\"=>\"en:Slater Menswear\",\"check_date:opening_hours\"=>\"2023-03-19\",\"clothes\"=>\"suits\",\"opening_hours\"=>\"Mo-We 08:30-17:30; Th 08:30-19:30; Fr-Sa 08:30-17:30; Su 11:00-16:00\",\"phone\"=>\"+44 113 234 9933\",\"shop\"=>\"clothes\",\"website\"=>\"https:\/\/www.slaters.co.uk\/store-locator\/slaters-leeds\/\",\"wheelchair\"=>\"yes\",\"wikipedia\"=>\"en:Slater menswear\"" }, "geometry": { "type": "Point", "coordinates": [ -1.5452485, 53.7985639 ] } },
	{ "type": "Feature", "properties": { "osm_id": "5296592028", "name": "Damsell Dancewear", "other_tags": "\"clothes\"=>\"dancewear\",\"shop\"=>\"clothes\"" }, "geometry": { "type": "Point", "coordinates": [ -1.6717753, 53.8114213 ] } },
	{ "type": "Feature", "properties": { "osm_id": "5311505827", "name": "The Boutique", "other_tags": "\"clothes\"=>\"wedding\",\"shop\"=>\"clothes\"" }, "geometry": { "type": "Point", "coordinates": [ -1.6936085, 53.9061 ] } },
	{ "type": "Feature", "properties": { "osm_id": "5422663139", "name": "Kilo", "other_tags": "\"addr:city\"=>\"Leeds\",\"addr:housename\"=>\"The Merrion Centre\",\"addr:postcode\"=>\"LS2 8NG\",\"addr:unit\"=>\"20-26\",\"recycling:clothes\"=>\"yes\",\"shop\"=>\"clothes\"" }, "geometry": { "type": "Point", "coordinates": [ -1.5440619, 53.8014563 ] } },
	{ "type": "Feature", "properties": { "osm_id": "5452280958", "name": "New Look", "other_tags": "\"brand\"=>\"New Look\",\"brand:wikidata\"=>\"Q12063852\",\"brand:wikipedia\"=>\"en:New Look (company)\",\"shop\"=>\"clothes\"" }, "geometry": { "type": "Point", "coordinates": [ -1.8570355, 53.7233166 ] } },
	{ "type": "Feature", "properties": { "osm_id": "5452280959", "name": "Topshop", "other_tags": "\"brand\"=>\"Topshop\",\"brand:wikidata\"=>\"Q1893576\",\"brand:wikipedia\"=>\"en:Topshop\",\"clothes\"=>\"women\",\"shop\"=>\"clothes\"" }, "geometry": { "type": "Point", "coordinates": [ -1.8572286, 53.7232864 ] } },
	{ "type": "Feature", "properties": { "osm_id": "5452280970", "name": "River Island", "other_tags": "\"brand\"=>\"River Island\",\"brand:wikidata\"=>\"Q2670328\",\"brand:wikipedia\"=>\"en:River Island\",\"contact:website\"=>\"https:\/\/www.riverisland.com\/how-can-we-help\/find-a-store\/halifax\",\"shop\"=>\"clothes\"" }, "geometry": { "type": "Point", "coordinates": [ -1.858618, 53.723407 ] } },
	{ "type": "Feature", "properties": { "osm_id": "5469277355", "name": "Miss Chief", "other_tags": "\"shop\"=>\"clothes\"" }, "geometry": { "type": "Point", "coordinates": [ -1.8576604, 53.722869 ] } },
	{ "type": "Feature", "properties": { "osm_id": "5469277357", "name": "Peacocks", "other_tags": "\"brand\"=>\"Peacocks\",\"brand:wikidata\"=>\"Q7157762\",\"brand:wikipedia\"=>\"en:Peacocks (clothing)\",\"contact:website\"=>\"https:\/\/www.peacocks.co.uk\/store-finder\/index\/storeDetail\/id\/418\/\",\"shop\"=>\"clothes\"" }, "geometry": { "type": "Point", "coordinates": [ -1.8572393, 53.7226341 ] } },
	{ "type": "Feature", "properties": { "osm_id": "5469277358", "name": "Kelly's Boutique", "other_tags": "\"shop\"=>\"clothes\"" }, "geometry": { "type": "Point", "coordinates": [ -1.8573118, 53.7227278 ] } },
	{ "type": "Feature", "properties": { "osm_id": "5569969821", "name": "Uptown Boutique", "other_tags": "\"shop\"=>\"clothes\"" }, "geometry": { "type": "Point", "coordinates": [ -1.8585643, 53.7217803 ] } },
	{ "type": "Feature", "properties": { "osm_id": "5569969830", "name": "Dorothy Perkins", "other_tags": "\"brand\"=>\"Dorothy Perkins\",\"brand:wikidata\"=>\"Q5298588\",\"brand:wikipedia\"=>\"en:Dorothy Perkins\",\"shop\"=>\"clothes\"" }, "geometry": { "type": "Point", "coordinates": [ -1.8583497, 53.7220771 ] } },
	{ "type": "Feature", "properties": { "osm_id": "5572259413", "name": "Uniform Shop", "other_tags": "\"shop\"=>\"clothes\"" }, "geometry": { "type": "Point", "coordinates": [ -1.8581834, 53.7213597 ] } },
	{ "type": "Feature", "properties": { "osm_id": "5626680391", "name": "Louise Perry Bridal", "other_tags": "\"clothes\"=>\"wedding\",\"opening_hours\"=>\"Mo 11:00-16:00; Fr 10:00-16:00; Sa 10:30-17:00\",\"shop\"=>\"clothes\",\"website\"=>\"https:\/\/www.louiseperrybridal.co.uk\/\"" }, "geometry": { "type": "Point", "coordinates": [ -1.7908938, 53.8376215 ] } },
	{ "type": "Feature", "properties": { "osm_id": "5632562238", "name": "Dolls Boutique", "other_tags": "\"addr:city\"=>\"Leeds\",\"addr:housename\"=>\"The Light\",\"addr:postcode\"=>\"LS1 8TL\",\"addr:street\"=>\"The Headrow\",\"addr:unit\"=>\"10a\",\"shop\"=>\"clothes\"" }, "geometry": { "type": "Point", "coordinates": [ -1.5460065, 53.7998873 ] } },
	{ "type": "Feature", "properties": { "osm_id": "5648164592", "name": "Officers Club", "other_tags": "\"addr:city\"=>\"Leeds\",\"addr:housename\"=>\"St Johns Centre\",\"addr:housenumber\"=>\"110-118\",\"addr:postcode\"=>\"LS2 8LQ\",\"addr:street\"=>\"Albion Street\",\"level\"=>\"1\",\"shop\"=>\"clothes\"" }, "geometry": { "type": "Point", "coordinates": [ -1.5440968, 53.8005186 ] } },
	{ "type": "Feature", "properties": { "osm_id": "5648164597", "name": "Yours Clothing", "other_tags": "\"addr:city\"=>\"Leeds\",\"addr:housename\"=>\"St Johns Centre\",\"addr:housenumber\"=>\"110-118\",\"addr:postcode\"=>\"LS2 8LQ\",\"addr:street\"=>\"Albion Street\",\"brand\"=>\"Yours Clothing\",\"brand:wikidata\"=>\"Q84163322\",\"clothes\"=>\"women\",\"level\"=>\"0\",\"shop\"=>\"clothes\"" }, "geometry": { "type": "Point", "coordinates": [ -1.5439801, 53.7999301 ] } },
	{ "type": "Feature", "properties": { "osm_id": "5648164598", "name": "Roman", "other_tags": "\"addr:city\"=>\"Leeds\",\"addr:housename\"=>\"St Johns Centre\",\"addr:housenumber\"=>\"110-118\",\"addr:postcode\"=>\"LS2 8LQ\",\"addr:street\"=>\"Albion Street\",\"brand\"=>\"Roman Originals\",\"brand:wikidata\"=>\"Q94579553\",\"clothes\"=>\"women\",\"level\"=>\"0\",\"shop\"=>\"clothes\"" }, "geometry": { "type": "Point", "coordinates": [ -1.5437749, 53.7999277 ] } },
	{ "type": "Feature", "properties": { "osm_id": "5648164599", "name": "Shout", "other_tags": "\"addr:city\"=>\"Leeds\",\"addr:housename\"=>\"St Johns Centre\",\"addr:housenumber\"=>\"110-118\",\"addr:postcode\"=>\"LS2 8LQ\",\"addr:street\"=>\"Albion Street\",\"level\"=>\"0\",\"shop\"=>\"clothes\"" }, "geometry": { "type": "Point", "coordinates": [ -1.5437716, 53.799991 ] } },
	{ "type": "Feature", "properties": { "osm_id": "5700048221", "name": "The Shuttle", "other_tags": "\"shop\"=>\"clothes\"" }, "geometry": { "type": "Point", "coordinates": [ -1.7736583, 53.8369515 ] } },
	{ "type": "Feature", "properties": { "osm_id": "5711983937", "name": "Amour de Femme Lingerie", "other_tags": "\"addr:city\"=>\"Bingley\",\"addr:housenumber\"=>\"87\",\"addr:postcode\"=>\"BD16 2JA\",\"addr:street\"=>\"Main Street\",\"shop\"=>\"clothes\"" }, "geometry": { "type": "Point", "coordinates": [ -1.8384484, 53.8490727 ] } },
	{ "type": "Feature", "properties": { "osm_id": "5754417060", "name": "Hype", "other_tags": "\"addr:city\"=>\"Wakefield\",\"addr:postcode\"=>\"WF1 1YB\",\"addr:street\"=>\"Bishopgate Walk The Ridings Centre\",\"addr:unit\"=>\"53\",\"level\"=>\"1\",\"shop\"=>\"clothes\"" }, "geometry": { "type": "Point", "coordinates": [ -1.4973995, 53.6819908 ] } },
	{ "type": "Feature", "properties": { "osm_id": "5754417072", "name": "Morgana & Hellraiser", "other_tags": "\"addr:city\"=>\"Wakefield\",\"addr:postcode\"=>\"WF1 1DS\",\"addr:street\"=>\"Bishopgate Walk The Ridings Centre\",\"addr:unit\"=>\"64\",\"level\"=>\"1\",\"shop\"=>\"clothes\",\"wheelchair\"=>\"yes\"" }, "geometry": { "type": "Point", "coordinates": [ -1.4972797, 53.6817181 ] } },
	{ "type": "Feature", "properties": { "osm_id": "5754417077", "name": "Yours", "other_tags": "\"addr:city\"=>\"Wakefield\",\"addr:postcode\"=>\"WF1 1DS\",\"addr:street\"=>\"Bishopgate Walk The Ridings Centre\",\"addr:unit\"=>\"67\",\"level\"=>\"1\",\"shop\"=>\"clothes\"" }, "geometry": { "type": "Point", "coordinates": [ -1.4966637, 53.681733 ] } },
	{ "type": "Feature", "properties": { "osm_id": "5754417080", "name": "Peacocks", "other_tags": "\"addr:city\"=>\"Wakefield\",\"addr:postcode\"=>\"WF1 1YB\",\"addr:street\"=>\"Bishopgate Walk The Ridings Centre\",\"addr:unit\"=>\"74\",\"brand\"=>\"Peacocks\",\"brand:wikidata\"=>\"Q7157762\",\"brand:wikipedia\"=>\"en:Peacocks (clothing)\",\"contact:website\"=>\"https:\/\/www.peacocks.co.uk\/store-finder\/index\/storeDetail\/id\/461\/\",\"level\"=>\"1\",\"shop\"=>\"clothes\",\"wheelchair\"=>\"yes\"" }, "geometry": { "type": "Point", "coordinates": [ -1.4958814, 53.6817208 ] } },
	{ "type": "Feature", "properties": { "osm_id": "5804495961", "name": "Peacocks", "other_tags": "\"addr:city\"=>\"Huddersfield\",\"addr:housenumber\"=>\"24\",\"addr:postcode\"=>\"HD1 2QF\",\"addr:street\"=>\"Victoria Lane\",\"brand\"=>\"Peacocks\",\"brand:wikidata\"=>\"Q7157762\",\"shop\"=>\"clothes\"" }, "geometry": { "type": "Point", "coordinates": [ -1.78186, 53.6449287 ] } },
	{ "type": "Feature", "properties": { "osm_id": "5918770662", "name": "New Collection", "other_tags": "\"addr:city\"=>\"Leeds\",\"addr:housenumber\"=>\"124\",\"addr:postcode\"=>\"LS7 4NY\",\"addr:street\"=>\"Harrogate Road\",\"shop\"=>\"clothes\"" }, "geometry": { "type": "Point", "coordinates": [ -1.5381068, 53.8297769 ] } },
	{ "type": "Feature", "properties": { "osm_id": "5940387580", "name": "Bridal Emporium", "other_tags": "\"addr:city\"=>\"Leeds\",\"addr:housenumber\"=>\"4-5\",\"addr:postcode\"=>\"LS1 6PG\",\"addr:street\"=>\"Grand Arcade\",\"shop\"=>\"clothes\",\"website\"=>\"https:\/\/www.the-bridal-emporium.com\/\"" }, "geometry": { "type": "Point", "coordinates": [ -1.5399788, 53.8001544 ] } },
	{ "type": "Feature", "properties": { "osm_id": "5940387584", "name": "Labels Designer Menswear", "other_tags": "\"addr:city\"=>\"Leeds\",\"addr:housenumber\"=>\"13\",\"addr:postcode\"=>\"LS1 6PG\",\"addr:street\"=>\"Grand Arcade\",\"shop\"=>\"clothes\"" }, "geometry": { "type": "Point", "coordinates": [ -1.5408117, 53.8002481 ] } },
	{ "type": "Feature", "properties": { "osm_id": "5941346393", "name": "Seraphine", "other_tags": "\"addr:city\"=>\"Leeds\",\"addr:housenumber\"=>\"10-12\",\"addr:postcode\"=>\"LS1 6AZ\",\"addr:street\"=>\"Cross Arcade\",\"shop\"=>\"clothes\"" }, "geometry": { "type": "Point", "coordinates": [ -1.5409586, 53.7978706 ] } },
	{ "type": "Feature", "properties": { "osm_id": "5941346394", "name": "Sweaty Betty", "other_tags": "\"addr:city\"=>\"Leeds\",\"addr:housenumber\"=>\"7-11\",\"addr:postcode\"=>\"LS1 6AZ\",\"addr:street\"=>\"Cross Arcade\",\"brand\"=>\"Sweaty Betty\",\"brand:wikidata\"=>\"Q7654224\",\"clothes\"=>\"women;sports\",\"shop\"=>\"clothes\"" }, "geometry": { "type": "Point", "coordinates": [ -1.5411651, 53.7979055 ] } },
	{ "type": "Feature", "properties": { "osm_id": "5941346395", "name": "Blue Collar Boys", "other_tags": "\"addr:city\"=>\"Leeds\",\"addr:housenumber\"=>\"18\",\"addr:postcode\"=>\"LS1 6AX\",\"addr:street\"=>\"King Edward Street\",\"opening_hours\"=>\"Mo-Sa 10:00-18:00; Su 11:00-17:00\",\"shop\"=>\"clothes\"" }, "geometry": { "type": "Point", "coordinates": [ -1.5408741, 53.7975704 ] } },
	{ "type": "Feature", "properties": { "osm_id": "5941346397", "name": "Jigsaw", "other_tags": "\"addr:city\"=>\"Leeds\",\"addr:housenumber\"=>\"23\",\"addr:postcode\"=>\"LS1 6AX\",\"addr:street\"=>\"King Edward Street\",\"brand\"=>\"Jigsaw\",\"brand:wikidata\"=>\"Q6192383\",\"brand:wikipedia\"=>\"en:Jigsaw (clothing retailer)\",\"shop\"=>\"clothes\"" }, "geometry": { "type": "Point", "coordinates": [ -1.54074, 53.7977629 ] } },
	{ "type": "Feature", "properties": { "osm_id": "5941346400", "name": "Diesel", "other_tags": "\"addr:city\"=>\"Leeds\",\"addr:housenumber\"=>\"13-15\",\"addr:postcode\"=>\"LS1 6AX\",\"addr:street\"=>\"King Edward Street\",\"brand\"=>\"Diesel\",\"brand:wikidata\"=>\"Q158285\",\"brand:wikipedia\"=>\"en:Diesel (brand)\",\"shop\"=>\"clothes\"" }, "geometry": { "type": "Point", "coordinates": [ -1.5412255, 53.7977986 ] } },
	{ "type": "Feature", "properties": { "osm_id": "5941346402", "name": "Pretty Green", "other_tags": "\"addr:city\"=>\"Leeds\",\"addr:housenumber\"=>\"9\",\"addr:postcode\"=>\"LS1 6AX\",\"addr:street\"=>\"King Edward Street\",\"shop\"=>\"clothes\"" }, "geometry": { "type": "Point", "coordinates": [ -1.5414695, 53.7978144 ] } },
	{ "type": "Feature", "properties": { "osm_id": "5941346403", "name": "Jack Wills", "other_tags": "\"addr:city\"=>\"Leeds\",\"addr:housenumber\"=>\"7\",\"addr:postcode\"=>\"LS1 6AX\",\"addr:street\"=>\"King Edward Street\",\"brand\"=>\"Jack Wills\",\"brand:wikidata\"=>\"Q6115814\",\"brand:wikipedia\"=>\"en:Jack Wills\",\"shop\"=>\"clothes\"" }, "geometry": { "type": "Point", "coordinates": [ -1.5415889, 53.7978247 ] } },
	{ "type": "Feature", "properties": { "osm_id": "5941346404", "name": "The North Face", "other_tags": "\"addr:city\"=>\"Leeds\",\"addr:housenumber\"=>\"5\",\"addr:postcode\"=>\"LS1 6AX\",\"addr:street\"=>\"King Edward Street\",\"alt_name\"=>\"North Face\",\"brand\"=>\"The North Face\",\"brand:wikidata\"=>\"Q152784\",\"brand:wikipedia\"=>\"en:The North Face\",\"clothes\"=>\"outdoor\",\"shop\"=>\"clothes\"" }, "geometry": { "type": "Point", "coordinates": [ -1.5417096, 53.7978318 ] } },
	{ "type": "Feature", "properties": { "osm_id": "5941346410", "name": "AllSaints", "other_tags": "\"addr:city\"=>\"Leeds\",\"addr:housenumber\"=>\"33-35\",\"addr:postcode\"=>\"LS1 6BD\",\"addr:street\"=>\"Queen Victoria Street\",\"brand\"=>\"AllSaints\",\"brand:wikidata\"=>\"Q4728473\",\"brand:wikipedia\"=>\"en:AllSaints\",\"shop\"=>\"clothes\"" }, "geometry": { "type": "Point", "coordinates": [ -1.5406327, 53.7980156 ] } },
	{ "type": "Feature", "properties": { "osm_id": "5941346416", "name": "AllSaints", "other_tags": "\"addr:city\"=>\"Leeds\",\"addr:housenumber\"=>\"30-32\",\"addr:postcode\"=>\"LS1 6BE\",\"addr:street\"=>\"Queen Victoria Street\",\"brand\"=>\"AllSaints\",\"brand:wikidata\"=>\"Q4728473\",\"brand:wikipedia\"=>\"en:AllSaints\",\"shop\"=>\"clothes\"" }, "geometry": { "type": "Point", "coordinates": [ -1.5407266, 53.7982065 ] } },
	{ "type": "Feature", "properties": { "osm_id": "5941346422", "name": "Whistles", "other_tags": "\"addr:city\"=>\"Leeds\",\"addr:housenumber\"=>\"12-14\",\"addr:postcode\"=>\"LS1 6BE\",\"addr:street\"=>\"Queen Victoria Street\",\"shop\"=>\"clothes\"" }, "geometry": { "type": "Point", "coordinates": [ -1.5414696, 53.7982711 ] } },
	{ "type": "Feature", "properties": { "osm_id": "5941346424", "name": "Hobbs", "other_tags": "\"addr:city\"=>\"Leeds\",\"addr:housenumber\"=>\"6-8\",\"addr:postcode\"=>\"LS1 6BE\",\"addr:street\"=>\"Queen Victoria Street\",\"brand\"=>\"Hobbs\",\"brand:wikidata\"=>\"Q25108740\",\"brand:wikipedia\"=>\"en:Hobbs Ltd\",\"shop\"=>\"clothes\"" }, "geometry": { "type": "Point", "coordinates": [ -1.5416841, 53.7982881 ] } },
	{ "type": "Feature", "properties": { "osm_id": "5941346433", "name": "Hawes & Curtis", "other_tags": "\"addr:city\"=>\"Leeds\",\"addr:housenumber\"=>\"22-24\",\"addr:postcode\"=>\"LS1 6BN\",\"addr:street\"=>\"County Arcade\",\"shop\"=>\"clothes\",\"website\"=>\"https:\/\/www.hawesandcurtis.co.uk\/\",\"wheelchair\"=>\"no\"" }, "geometry": { "type": "Point", "coordinates": [ -1.5410739, 53.7984196 ] } },
	{ "type": "Feature", "properties": { "osm_id": "5941346442", "name": "Berketex Bride", "other_tags": "\"addr:city\"=>\"Leeds\",\"addr:housenumber\"=>\"1\",\"addr:postcode\"=>\"LS1 6LF\",\"addr:street\"=>\"Queens Arcade\",\"shop\"=>\"clothes\",\"website\"=>\"https:\/\/www.berketexbride.com\/\"" }, "geometry": { "type": "Point", "coordinates": [ -1.5424658, 53.7983805 ] } },
	{ "type": "Feature", "properties": { "osm_id": "5941346447", "name": "Accent", "other_tags": "\"addr:city\"=>\"Leeds\",\"addr:housenumber\"=>\"11-13\",\"addr:postcode\"=>\"LS1 6LF\",\"addr:street\"=>\"Queens Arcade\",\"shop\"=>\"clothes\"" }, "geometry": { "type": "Point", "coordinates": [ -1.5428854, 53.7984386 ] } },
	{ "type": "Feature", "properties": { "osm_id": "5941346451", "name": "Levi's", "other_tags": "\"addr:city\"=>\"Leeds\",\"addr:housenumber\"=>\"30\",\"addr:postcode\"=>\"LS1 6LB\",\"addr:street\"=>\"Lands Lane\",\"brand\"=>\"Levi's\",\"brand:wikidata\"=>\"Q127962\",\"brand:wikipedia\"=>\"en:Levi Strauss & Co.\",\"clothes\"=>\"denim;men;women\",\"shop\"=>\"clothes\"" }, "geometry": { "type": "Point", "coordinates": [ -1.5433042, 53.7984956 ] } },
	{ "type": "Feature", "properties": { "osm_id": "5941346458", "name": "Tunnel", "other_tags": "\"addr:city\"=>\"Leeds\",\"addr:housenumber\"=>\"8\",\"addr:postcode\"=>\"LS1 6LF\",\"addr:street\"=>\"Queens Arcade\",\"shop\"=>\"clothes\"" }, "geometry": { "type": "Point", "coordinates": [ -1.5426873, 53.7983 ] } },
	{ "type": "Feature", "properties": { "osm_id": "5941346462", "name": "Bolongaro Trevor", "other_tags": "\"addr:city\"=>\"Leeds\",\"addr:housenumber\"=>\"14\",\"addr:postcode\"=>\"LS1 6LQ\",\"addr:street\"=>\"Thornton's Arcade\",\"shop\"=>\"clothes\"" }, "geometry": { "type": "Point", "coordinates": [ -1.5427167, 53.7987324 ] } },
	{ "type": "Feature", "properties": { "osm_id": "5981573962", "name": "Aras of Leeds", "other_tags": "\"addr:city\"=>\"Leeds\",\"addr:housename\"=>\"Kirkgate Market\",\"addr:street\"=>\"Kirkgate\",\"shop\"=>\"clothes\"" }, "geometry": { "type": "Point", "coordinates": [ -1.5394372, 53.79726 ] } },
	{ "type": "Feature", "properties": { "osm_id": "5981573973", "name": "Pocket Friendly Fashions", "other_tags": "\"addr:city\"=>\"Leeds\",\"addr:housename\"=>\"Kirkgate Market\",\"addr:street\"=>\"Kirkgate\",\"shop\"=>\"clothes\"" }, "geometry": { "type": "Point", "coordinates": [ -1.5396858, 53.7970625 ] } },
	{ "type": "Feature", "properties": { "osm_id": "5981573978", "other_tags": "\"addr:city\"=>\"Leeds\",\"addr:housename\"=>\"Kirkgate Market\",\"addr:street\"=>\"Kirkgate\",\"addr:unit\"=>\"R\",\"shop\"=>\"clothes\"" }, "geometry": { "type": "Point", "coordinates": [ -1.5399211, 53.7970656 ] } },
	{ "type": "Feature", "properties": { "osm_id": "5981576286", "name": "Myers - The Cardigan Shop", "other_tags": "\"addr:city\"=>\"Leeds\",\"addr:housename\"=>\"Kirkgate Market\",\"addr:street\"=>\"Kirkgate\",\"shop\"=>\"clothes\"" }, "geometry": { "type": "Point", "coordinates": [ -1.5400628, 53.7968633 ] } },
	{ "type": "Feature", "properties": { "osm_id": "5981576296", "name": "Dorothy Goodall", "other_tags": "\"addr:city\"=>\"Leeds\",\"addr:housename\"=>\"Kirkgate Market\",\"addr:street\"=>\"Kirkgate\",\"addr:unit\"=>\"12\",\"shop\"=>\"clothes\"" }, "geometry": { "type": "Point", "coordinates": [ -1.5400266, 53.7972299 ] } },
	{ "type": "Feature", "properties": { "osm_id": "6001482107", "name": "Ego", "other_tags": "\"shop\"=>\"clothes\"" }, "geometry": { "type": "Point", "coordinates": [ -1.5383475, 53.797435 ] } },
	{ "type": "Feature", "properties": { "osm_id": "6001482138", "name": "Amigo Clothing", "other_tags": "\"opening_hours\"=>\"Mo-We 08:00-18:30 Th-Sa 7:30-18:30 Su closed\",\"opening_hours:covid19\"=>\"same\",\"shop\"=>\"clothes\"" }, "geometry": { "type": "Point", "coordinates": [ -1.5385392, 53.7970714 ] } },
	{ "type": "Feature", "properties": { "osm_id": "6001596328", "name": "Calvin Klein", "other_tags": "\"addr:city\"=>\"Leeds\",\"addr:housename\"=>\"Victoria Gate\",\"addr:postcode\"=>\"LS2 7AR\",\"addr:street\"=>\"Harewood Street\",\"addr:unit\"=>\"29\",\"brand\"=>\"Calvin Klein\",\"brand:wikidata\"=>\"Q1068628\",\"brand:wikipedia\"=>\"en:Calvin Klein (fashion house)\",\"level\"=>\"0\",\"shop\"=>\"clothes\"" }, "geometry": { "type": "Point", "coordinates": [ -1.5390489, 53.7979245 ] } },
	{ "type": "Feature", "properties": { "osm_id": "6001596332", "name": "Seasalt", "other_tags": "\"addr:city\"=>\"Leeds\",\"addr:housename\"=>\"Victoria Gate\",\"addr:postcode\"=>\"LS2 7AR\",\"addr:street\"=>\"Harewood Street\",\"addr:unit\"=>\"30\",\"brand\"=>\"Seasalt\",\"brand:wikidata\"=>\"Q107344382\",\"level\"=>\"0\",\"shop\"=>\"clothes\"" }, "geometry": { "type": "Point", "coordinates": [ -1.5389121, 53.7979245 ] } },
	{ "type": "Feature", "properties": { "osm_id": "6001596336", "name": "Joules", "other_tags": "\"addr:city\"=>\"Leeds\",\"addr:housename\"=>\"Victoria Gate\",\"addr:postcode\"=>\"LS2 7AR\",\"addr:street\"=>\"Harewood Street\",\"addr:unit\"=>\"32\",\"brand\"=>\"Joules\",\"brand:wikidata\"=>\"Q25351738\",\"brand:wikipedia\"=>\"en:Joules (clothing)\",\"level\"=>\"0\",\"shop\"=>\"clothes\"" }, "geometry": { "type": "Point", "coordinates": [ -1.5386975, 53.7979293 ] } },
	{ "type": "Feature", "properties": { "osm_id": "6001596337", "name": "Honey Birdette", "other_tags": "\"addr:city\"=>\"Leeds\",\"addr:housename\"=>\"Victoria Gate\",\"addr:postcode\"=>\"LS2 7AR\",\"addr:street\"=>\"Harewood Street\",\"addr:unit\"=>\"25\",\"level\"=>\"0\",\"shop\"=>\"clothes\"" }, "geometry": { "type": "Point", "coordinates": [ -1.5384051, 53.798132 ] } },
	{ "type": "Feature", "properties": { "osm_id": "6001596338", "name": "Hackett", "other_tags": "\"addr:city\"=>\"Leeds\",\"addr:housename\"=>\"Victoria Gate\",\"addr:postcode\"=>\"LS2 7AR\",\"addr:street\"=>\"Harewood Street\",\"addr:unit\"=>\"7\",\"level\"=>\"0\",\"shop\"=>\"clothes\"" }, "geometry": { "type": "Point", "coordinates": [ -1.5381476, 53.7983934 ] } },
	{ "type": "Feature", "properties": { "osm_id": "6001596339", "name": "GANT", "other_tags": "\"addr:city\"=>\"Leeds\",\"addr:housename\"=>\"Victoria Gate\",\"addr:postcode\"=>\"LS2 7AR\",\"addr:street\"=>\"Harewood Street\",\"addr:unit\"=>\"33\",\"brand\"=>\"GANT\",\"brand:wikidata\"=>\"Q1493667\",\"brand:wikipedia\"=>\"en:Gant (retailer)\",\"level\"=>\"0\",\"shop\"=>\"clothes\"" }, "geometry": { "type": "Point", "coordinates": [ -1.5385848, 53.7979324 ] } },
	{ "type": "Feature", "properties": { "osm_id": "6001596340", "name": "& Other Stories", "other_tags": "\"addr:city\"=>\"Leeds\",\"addr:housename\"=>\"Victoria Gate\",\"addr:postcode\"=>\"LS2 7AR\",\"addr:street\"=>\"Harewood Street\",\"addr:unit\"=>\"35-36\",\"brand\"=>\"& Other Stories\",\"brand:wikidata\"=>\"Q85322338\",\"clothes\"=>\"women\",\"level\"=>\"0\",\"shop\"=>\"clothes\"" }, "geometry": { "type": "Point", "coordinates": [ -1.5382683, 53.7979419 ] } },
	{ "type": "Feature", "properties": { "osm_id": "6001596341", "name": "COS", "other_tags": "\"addr:city\"=>\"Leeds\",\"addr:housename\"=>\"Victoria Gate\",\"addr:postcode\"=>\"LS2 7AR\",\"addr:street\"=>\"Harewood Street\",\"addr:unit\"=>\"37-38\",\"brand\"=>\"COS\",\"brand:wikidata\"=>\"Q60772401\",\"brand:wikipedia\"=>\"en:COS (clothing)\",\"level\"=>\"0\",\"shop\"=>\"clothes\"" }, "geometry": { "type": "Point", "coordinates": [ -1.5381262, 53.7979483 ] } },
	{ "type": "Feature", "properties": { "osm_id": "6001596342", "name": "Anthropologie", "other_tags": "\"addr:city\"=>\"Leeds\",\"addr:housename\"=>\"Victoria Gate\",\"addr:postcode\"=>\"LS2 7AR\",\"addr:street\"=>\"Harewood Street\",\"addr:unit\"=>\"12-13\",\"brand\"=>\"Anthropologie\",\"brand:wikidata\"=>\"Q4773903\",\"brand:wikipedia\"=>\"en:Anthropologie\",\"clothes\"=>\"women\",\"level\"=>\"0\",\"shop\"=>\"clothes\"" }, "geometry": { "type": "Point", "coordinates": [ -1.5389738, 53.7983807 ] } },
	{ "type": "Feature", "properties": { "osm_id": "6001596344", "name": "Tommy Hilfiger", "other_tags": "\"addr:city\"=>\"Leeds\",\"addr:housename\"=>\"Victoria Gate\",\"addr:postcode\"=>\"LS2 7AR\",\"addr:street\"=>\"Harewood Street\",\"addr:unit\"=>\"28\",\"brand\"=>\"Tommy Hilfiger\",\"brand:wikidata\"=>\"Q634881\",\"brand:wikipedia\"=>\"en:Tommy Hilfiger (company)\",\"level\"=>\"0\",\"shop\"=>\"clothes\"" }, "geometry": { "type": "Point", "coordinates": [ -1.5391964, 53.7979324 ] } },
	{ "type": "Feature", "properties": { "osm_id": "6022849874", "name": "Luvyababes", "other_tags": "\"addr:city\"=>\"Leeds\",\"addr:housenumber\"=>\"90-92\",\"addr:postcode\"=>\"LS1 6AD\",\"addr:street\"=>\"Albion Street\",\"addr:unit\"=>\"1\",\"shop\"=>\"clothes\",\"website\"=>\"https:\/\/www.luvyababes.co.uk\/\"" }, "geometry": { "type": "Point", "coordinates": [ -1.5449001, 53.798917 ] } },
	{ "type": "Feature", "properties": { "osm_id": "6022849883", "name": "Oliver Bonas", "other_tags": "\"addr:city\"=>\"Leeds\",\"addr:housenumber\"=>\"50\",\"addr:postcode\"=>\"LS1 6AD\",\"addr:street\"=>\"Albion Street\",\"brand\"=>\"Oliver Bonas\",\"brand:wikidata\"=>\"Q65045195\",\"fhrs:id\"=>\"1101706\",\"shop\"=>\"clothes\"" }, "geometry": { "type": "Point", "coordinates": [ -1.5450329, 53.7976013 ] } },
	{ "type": "Feature", "properties": { "osm_id": "6022850189", "name": "Joy", "other_tags": "\"addr:city\"=>\"Leeds\",\"addr:housename\"=>\"Pinnacle\",\"addr:housenumber\"=>\"63-65\",\"addr:postcode\"=>\"LS1 5AA\",\"addr:street\"=>\"Albion Street\",\"shop\"=>\"clothes\"" }, "geometry": { "type": "Point", "coordinates": [ -1.5453386, 53.7978904 ] } },
	{ "type": "Feature", "properties": { "osm_id": "6022850194", "name": "New Look", "other_tags": "\"brand\"=>\"New Look\",\"brand:wikidata\"=>\"Q12063852\",\"brand:wikipedia\"=>\"en:New Look (company)\",\"shop\"=>\"clothes\"" }, "geometry": { "type": "Point", "coordinates": [ -1.545521, 53.796463 ] } },
	{ "type": "Feature", "properties": { "osm_id": "6022850239", "name": "Pebbles Hats", "other_tags": "\"addr:city\"=>\"Leeds\",\"addr:housenumber\"=>\"4\",\"addr:postcode\"=>\"LS1 6DX\",\"addr:street\"=>\"Central Arcade\",\"shop\"=>\"clothes\"" }, "geometry": { "type": "Point", "coordinates": [ -1.5417264, 53.7964452 ] } },
	{ "type": "Feature", "properties": { "osm_id": "6022850240", "name": "World Of Dance", "other_tags": "\"addr:city\"=>\"Leeds\",\"addr:housenumber\"=>\"3\",\"addr:postcode\"=>\"LS1 6DX\",\"addr:street\"=>\"Central Arcade\",\"shop\"=>\"clothes\"" }, "geometry": { "type": "Point", "coordinates": [ -1.5419446, 53.7964577 ] } },
	{ "type": "Feature", "properties": { "osm_id": "6022850268", "name": "Intrigue Fashion", "other_tags": "\"addr:city\"=>\"Leeds\",\"addr:housename\"=>\"Kirkgate Market\",\"addr:postcode\"=>\"LS2 7JE\",\"addr:street\"=>\"Kirkgate\",\"addr:unit\"=>\"405-409\",\"shop\"=>\"clothes\"" }, "geometry": { "type": "Point", "coordinates": [ -1.5384306, 53.7971882 ] } },
	{ "type": "Feature", "properties": { "osm_id": "6022850269", "other_tags": "\"shop\"=>\"clothes\"" }, "geometry": { "type": "Point", "coordinates": [ -1.5383652, 53.7971866 ] } },
	{ "type": "Feature", "properties": { "osm_id": "6022850272", "other_tags": "\"shop\"=>\"clothes\"" }, "geometry": { "type": "Point", "coordinates": [ -1.5386693, 53.7971991 ] } },
	{ "type": "Feature", "properties": { "osm_id": "6022850282", "other_tags": "\"shop\"=>\"clothes\"" }, "geometry": { "type": "Point", "coordinates": [ -1.5381037, 53.7971803 ] } },
	{ "type": "Feature", "properties": { "osm_id": "6022850391", "other_tags": "\"shop\"=>\"clothes\"" }, "geometry": { "type": "Point", "coordinates": [ -1.5377708, 53.7971688 ] } },
	{ "type": "Feature", "properties": { "osm_id": "6033885578", "name": "Next One Leather", "other_tags": "\"addr:city\"=>\"Leeds\",\"addr:housename\"=>\"Corn Exchange\",\"addr:postcode\"=>\"LS1 7BR\",\"addr:street\"=>\"Call Lane\",\"level\"=>\"1\",\"not:brand:wikidata\"=>\"Q246655\",\"shop\"=>\"clothes\"" }, "geometry": { "type": "Point", "coordinates": [ -1.5401167, 53.7960647 ] } },
	{ "type": "Feature", "properties": { "osm_id": "6033886285", "name": "Precious Proms & Pearls", "other_tags": "\"addr:city\"=>\"Leeds\",\"addr:housename\"=>\"Corn Exchange\",\"addr:postcode\"=>\"LS1 7BR\",\"addr:street\"=>\"Call Lane\",\"level\"=>\"1\",\"shop\"=>\"clothes\",\"website\"=>\"https:\/\/www.promsandpearls.co.uk\/\"" }, "geometry": { "type": "Point", "coordinates": [ -1.5404846, 53.795979 ] } },
	{ "type": "Feature", "properties": { "osm_id": "6033886292", "name": "Soho's Leeds", "other_tags": "\"addr:city\"=>\"Leeds\",\"addr:housename\"=>\"Corn Exchange\",\"addr:postcode\"=>\"LS1 7BR\",\"addr:street\"=>\"Call Lane\",\"level\"=>\"0\",\"shop\"=>\"clothes\",\"website\"=>\"https:\/\/www.sohos.co.uk\/\"" }, "geometry": { "type": "Point", "coordinates": [ -1.539845, 53.7959143 ] } },
	{ "type": "Feature", "properties": { "osm_id": "6033886295", "name": "Mki Miyuki Zoku", "other_tags": "\"addr:housename\"=>\"Corn Exchange\",\"addr:postcode\"=>\"LS1 7BR\",\"addr:street\"=>\"Call Lane\",\"level\"=>\"0\",\"shop\"=>\"clothes\"" }, "geometry": { "type": "Point", "coordinates": [ -1.540227, 53.7961102 ] } },
	{ "type": "Feature", "properties": { "osm_id": "6033886296", "name": "All Blues Co", "other_tags": "\"addr:city\"=>\"Leeds\",\"addr:housename\"=>\"Corn Exchange\",\"addr:postcode\"=>\"LS1 7BR\",\"addr:street\"=>\"Call Lane\",\"level\"=>\"0\",\"shop\"=>\"clothes\"" }, "geometry": { "type": "Point", "coordinates": [ -1.540338, 53.7961146 ] } },
	{ "type": "Feature", "properties": { "osm_id": "6033886297", "name": "The Little Pink Wardrobe", "other_tags": "\"addr:city\"=>\"Leeds\",\"addr:housename\"=>\"Corn Exchange\",\"addr:postcode\"=>\"LS1 7BR\",\"addr:street\"=>\"Call Lane\",\"level\"=>\"0\",\"shop\"=>\"clothes\"" }, "geometry": { "type": "Point", "coordinates": [ -1.5404195, 53.7960988 ] } },
	{ "type": "Feature", "properties": { "osm_id": "6052531526", "name": "Evans", "other_tags": "\"brand\"=>\"Evans\",\"brand:wikidata\"=>\"Q5415877\",\"brand:wikipedia\"=>\"en:Evans (retailer)\",\"clothes\"=>\"women\",\"level\"=>\"0\",\"shop\"=>\"clothes\"" }, "geometry": { "type": "Point", "coordinates": [ -1.5745304, 53.7588759 ] } },
	{ "type": "Feature", "properties": { "osm_id": "6052531539", "name": "Monsoon", "other_tags": "\"brand\"=>\"Monsoon\",\"brand:wikidata\"=>\"Q65007501\",\"level\"=>\"0\",\"shop\"=>\"clothes\"" }, "geometry": { "type": "Point", "coordinates": [ -1.5744968, 53.7593401 ] } },
	{ "type": "Feature", "properties": { "osm_id": "6052531541", "name": "Burton", "other_tags": "\"brand\"=>\"Burton\",\"brand:wikidata\"=>\"Q5000795\",\"brand:wikipedia\"=>\"en:Burton (retailer)\",\"level\"=>\"0\",\"shop\"=>\"clothes\"" }, "geometry": { "type": "Point", "coordinates": [ -1.5745089, 53.7591748 ] } },
	{ "type": "Feature", "properties": { "osm_id": "6052531542", "name": "Esquire", "other_tags": "\"level\"=>\"0\",\"shop\"=>\"clothes\"" }, "geometry": { "type": "Point", "coordinates": [ -1.5745149, 53.7590921 ] } },
	{ "type": "Feature", "properties": { "osm_id": "6052531543", "name": "Topshop", "other_tags": "\"brand\"=>\"Topshop\",\"brand:wikidata\"=>\"Q1893576\",\"brand:wikipedia\"=>\"en:Topshop\",\"clothes\"=>\"women\",\"level\"=>\"0\",\"shop\"=>\"clothes\"" }, "geometry": { "type": "Point", "coordinates": [ -1.5745186, 53.7590022 ] } },
	{ "type": "Feature", "properties": { "osm_id": "6052531544", "name": "Jack & Jones", "other_tags": "\"brand\"=>\"Jack & Jones\",\"brand:wikidata\"=>\"Q6077665\",\"brand:wikipedia\"=>\"en:Jack & Jones\",\"level\"=>\"0\",\"shop\"=>\"clothes\"" }, "geometry": { "type": "Point", "coordinates": [ -1.5745367, 53.7587876 ] } },
	{ "type": "Feature", "properties": { "osm_id": "6052531545", "name": "Tessuti", "other_tags": "\"level\"=>\"0\",\"shop\"=>\"clothes\"" }, "geometry": { "type": "Point", "coordinates": [ -1.5745431, 53.7586993 ] } },
	{ "type": "Feature", "properties": { "osm_id": "6052531548", "name": "Warehouse", "other_tags": "\"brand\"=>\"Warehouse\",\"brand:wikidata\"=>\"Q28135370\",\"brand:wikipedia\"=>\"en:Warehouse (clothing)\",\"level\"=>\"0\",\"shop\"=>\"clothes\"" }, "geometry": { "type": "Point", "coordinates": [ -1.5746042, 53.7584291 ] } },
	{ "type": "Feature", "properties": { "osm_id": "6052531554", "name": "Select", "other_tags": "\"brand\"=>\"Select\",\"brand:wikidata\"=>\"Q105105307\",\"clothes\"=>\"women\",\"level\"=>\"0\",\"shop\"=>\"clothes\"" }, "geometry": { "type": "Point", "coordinates": [ -1.574433, 53.757513 ] } },
	{ "type": "Feature", "properties": { "osm_id": "6052531558", "name": "Superdry", "other_tags": "\"brand\"=>\"Superdry\",\"brand:wikidata\"=>\"Q1684445\",\"brand:wikipedia\"=>\"en:Superdry\",\"contact:website\"=>\"https:\/\/stores.superdry.com\/gb\/leeds\/4a-lower-level-white-rose-shopping-centre\",\"level\"=>\"0\",\"shop\"=>\"clothes\"" }, "geometry": { "type": "Point", "coordinates": [ -1.5744391, 53.7574299 ] } },
	{ "type": "Feature", "properties": { "osm_id": "6052531562", "name": "Zara", "other_tags": "\"brand\"=>\"Zara\",\"brand:wikidata\"=>\"Q147662\",\"brand:wikipedia\"=>\"en:Zara (retailer)\",\"level\"=>\"0\",\"shop\"=>\"clothes\"" }, "geometry": { "type": "Point", "coordinates": [ -1.5742032, 53.7566435 ] } },
	{ "type": "Feature", "properties": { "osm_id": "6052531564", "name": "River Island", "other_tags": "\"brand\"=>\"River Island\",\"brand:wikidata\"=>\"Q2670328\",\"brand:wikipedia\"=>\"en:River Island\",\"contact:website\"=>\"https:\/\/www.riverisland.com\/how-can-we-help\/find-a-store\/leeds-white-rose\",\"level\"=>\"0\",\"shop\"=>\"clothes\"" }, "geometry": { "type": "Point", "coordinates": [ -1.5737674, 53.756596 ] } },
	{ "type": "Feature", "properties": { "osm_id": "6052531571", "name": "Oasis", "other_tags": "\"brand\"=>\"Oasis\",\"brand:wikidata\"=>\"Q64532852\",\"level\"=>\"0\",\"shop\"=>\"clothes\"" }, "geometry": { "type": "Point", "coordinates": [ -1.5740034, 53.7584132 ] } },
	{ "type": "Feature", "properties": { "osm_id": "6052531575", "name": "Primark", "other_tags": "\"brand\"=>\"Primark\",\"brand:wikidata\"=>\"Q137023\",\"brand:wikipedia\"=>\"en:Primark\",\"contact:website\"=>\"https:\/\/stores.primark.com\/united-kingdom\/leeds\/unit-4-white-rose-shopping-centre\",\"level\"=>\"0;1\",\"shop\"=>\"clothes\"" }, "geometry": { "type": "Point", "coordinates": [ -1.5736923, 53.757836 ] } },
	{ "type": "Feature", "properties": { "osm_id": "6052531585", "name": "Quiz", "other_tags": "\"brand\"=>\"Quiz\",\"brand:wikidata\"=>\"Q29995941\",\"brand:wikipedia\"=>\"en:Quiz (clothing)\",\"clothes\"=>\"women\",\"level\"=>\"0\",\"shop\"=>\"clothes\"" }, "geometry": { "type": "Point", "coordinates": [ -1.5741858, 53.7585639 ] } },
	{ "type": "Feature", "properties": { "osm_id": "6052531588", "name": "Next", "other_tags": "\"brand\"=>\"Next\",\"brand:wikidata\"=>\"Q246655\",\"brand:wikipedia\"=>\"en:Next plc\",\"level\"=>\"0;1\",\"shop\"=>\"clothes\"" }, "geometry": { "type": "Point", "coordinates": [ -1.5737432, 53.7587415 ] } },
	{ "type": "Feature", "properties": { "osm_id": "6052531590", "name": "Miss Selfridge", "other_tags": "\"brand\"=>\"Miss Selfridge\",\"brand:wikidata\"=>\"Q6877374\",\"brand:wikipedia\"=>\"en:Miss Selfridge\",\"clothes\"=>\"women\",\"level\"=>\"0\",\"shop\"=>\"clothes\"" }, "geometry": { "type": "Point", "coordinates": [ -1.5741456, 53.759044 ] } },
	{ "type": "Feature", "properties": { "osm_id": "6052531591", "name": "Boux Avenue", "other_tags": "\"brand\"=>\"Boux Avenue\",\"brand:wikidata\"=>\"Q4950489\",\"brand:wikipedia\"=>\"en:Boux Avenue\",\"clothes\"=>\"underwear\",\"level\"=>\"0\",\"shop\"=>\"clothes\"" }, "geometry": { "type": "Point", "coordinates": [ -1.5741389, 53.7591272 ] } },
	{ "type": "Feature", "properties": { "osm_id": "6052531592", "name": "H&M", "other_tags": "\"brand\"=>\"H&M\",\"brand:wikidata\"=>\"Q188326\",\"brand:wikipedia\"=>\"en:H&M\",\"level\"=>\"0\",\"shop\"=>\"clothes\"" }, "geometry": { "type": "Point", "coordinates": [ -1.5738808, 53.7592646 ] } },
	{ "type": "Feature", "properties": { "osm_id": "6052531595", "name": "Yours Clothing", "other_tags": "\"brand\"=>\"Yours Clothing\",\"brand:wikidata\"=>\"Q84163322\",\"clothes\"=>\"women\",\"level\"=>\"0\",\"shop\"=>\"clothes\"" }, "geometry": { "type": "Point", "coordinates": [ -1.5741097, 53.7594906 ] } },
	{ "type": "Feature", "properties": { "osm_id": "6092510503", "name": "The Bridal House", "other_tags": "\"addr:city\"=>\"Leeds\",\"addr:housename\"=>\"Citispace\",\"addr:housenumber\"=>\"11\",\"addr:postcode\"=>\"LS2 7QN\",\"addr:street\"=>\"Regent Street\",\"addr:unit\"=>\"1\",\"shop\"=>\"clothes\"" }, "geometry": { "type": "Point", "coordinates": [ -1.5333223, 53.8025644 ] } },
	{ "type": "Feature", "properties": { "osm_id": "6101234050", "name": "Fat Face", "other_tags": "\"addr:city\"=>\"Leeds\",\"addr:housename\"=>\"The Springs\",\"addr:housenumber\"=>\"Unit 27\",\"addr:postcode\"=>\"LS15 8GG\",\"addr:street\"=>\"Thorpe Park Approach\",\"brand\"=>\"Fat Face\",\"brand:wikidata\"=>\"Q5437186\",\"brand:wikipedia\"=>\"en:Fat Face\",\"shop\"=>\"clothes\"" }, "geometry": { "type": "Point", "coordinates": [ -1.4240455, 53.7999096 ] } },
	{ "type": "Feature", "properties": { "osm_id": "6101234052", "name": "River Island", "other_tags": "\"addr:city\"=>\"Leeds\",\"addr:housename\"=>\"The Springs\",\"addr:housenumber\"=>\"Unit 25\",\"addr:postcode\"=>\"LS15 8GG\",\"addr:street\"=>\"Thorpe Park Approach\",\"brand\"=>\"River Island\",\"brand:wikidata\"=>\"Q2670328\",\"brand:wikipedia\"=>\"en:River Island\",\"shop\"=>\"clothes\"" }, "geometry": { "type": "Point", "coordinates": [ -1.4240446, 53.7996306 ] } },
	{ "type": "Feature", "properties": { "osm_id": "6101234053", "name": "Outfit", "other_tags": "\"addr:city\"=>\"Leeds\",\"addr:housename\"=>\"The Springs\",\"addr:housenumber\"=>\"Unit 24\",\"addr:postcode\"=>\"LS15 8GG\",\"addr:street\"=>\"Thorpe Park Approach\",\"brand\"=>\"Outfit\",\"brand:wikidata\"=>\"Q7112061\",\"brand:wikipedia\"=>\"en:Outfit (retailer)\",\"shop\"=>\"clothes\"" }, "geometry": { "type": "Point", "coordinates": [ -1.4240441, 53.7994681 ] } },
	{ "type": "Feature", "properties": { "osm_id": "6139531109", "name": "Scotts", "other_tags": "\"addr:city\"=>\"Leeds\",\"addr:housename\"=>\"The Core\",\"addr:postcode\"=>\"LS1 6JB\",\"addr:street\"=>\"Lands Lane\",\"addr:unit\"=>\"MSU1\",\"shop\"=>\"clothes\"" }, "geometry": { "type": "Point", "coordinates": [ -1.5437022, 53.7984071 ] } },
	{ "type": "Feature", "properties": { "osm_id": "6139531118", "name": "Pop Boutique", "other_tags": "\"addr:city\"=>\"Leeds\",\"addr:housenumber\"=>\"26\",\"addr:postcode\"=>\"LS1 6LB\",\"addr:street\"=>\"Lands Lane\",\"contact:instagram\"=>\"https:\/\/www.instagram.com\/popboutiqueleeds\/?hl=en\",\"second_hand\"=>\"yes\",\"shop\"=>\"clothes\",\"website\"=>\"https:\/\/pop-boutique.com\/\"" }, "geometry": { "type": "Point", "coordinates": [ -1.5433528, 53.7982743 ] } },
	{ "type": "Feature", "properties": { "osm_id": "6210514962", "name": "M&Co", "other_tags": "\"brand\"=>\"M&Co\",\"brand:wikidata\"=>\"Q6711808\",\"brand:wikipedia\"=>\"en:M&Co.\",\"shop\"=>\"clothes\"" }, "geometry": { "type": "Point", "coordinates": [ -1.6925886, 53.90509 ] } },
	{ "type": "Feature", "properties": { "osm_id": "6438334052", "name": "The Clothes Horse", "other_tags": "\"addr:city\"=>\"Wakefield\",\"addr:housename\"=>\"Spring Green Nurseries\",\"addr:postcode\"=>\"WF4 1LW\",\"addr:street\"=>\"Pontefract Road\",\"addr:suburb\"=>\"Crofton\",\"clothes\"=>\"women\",\"old_name\"=>\"Daisy Handmade\",\"shop\"=>\"clothes\"" }, "geometry": { "type": "Point", "coordinates": [ -1.4224291, 53.6661068 ] } },
	{ "type": "Feature", "properties": { "osm_id": "6515446374", "name": "H&M", "other_tags": "\"addr:city\"=>\"Leeds\",\"addr:housename\"=>\"The Springs\",\"addr:housenumber\"=>\"Unit 5\",\"addr:postcode\"=>\"LS15 8GG\",\"addr:street\"=>\"Thorpe Park View\",\"addr:suburb\"=>\"Austhorpe\",\"brand\"=>\"H&M\",\"brand:wikidata\"=>\"Q188326\",\"brand:wikipedia\"=>\"en:H&M\",\"shop\"=>\"clothes\"" }, "geometry": { "type": "Point", "coordinates": [ -1.4239548, 53.80055 ] } },
	{ "type": "Feature", "properties": { "osm_id": "6600874643", "name": "Bridal Boutique", "other_tags": "\"addr:housenumber\"=>\"63\",\"addr:postcode\"=>\"WF10 1HH\",\"addr:street\"=>\"Bridge Street\",\"addr:town\"=>\"Castleford\",\"clothes\"=>\"wedding\",\"shop\"=>\"clothes\"" }, "geometry": { "type": "Point", "coordinates": [ -1.3481439, 53.7268088 ] } },
	{ "type": "Feature", "properties": { "osm_id": "6600874656", "name": "Bonmarché", "other_tags": "\"addr:housename\"=>\"Carlton Lanes Shopping Centre\",\"addr:postcode\"=>\"WF10 1AD\",\"addr:street\"=>\"Carlton Street\",\"addr:town\"=>\"Castleford\",\"addr:unit\"=>\"22\",\"brand\"=>\"Bonmarché\",\"brand:wikidata\"=>\"Q4942146\",\"brand:wikipedia\"=>\"en:Bonmarché\",\"shop\"=>\"clothes\"" }, "geometry": { "type": "Point", "coordinates": [ -1.3514345, 53.7255752 ] } },
	{ "type": "Feature", "properties": { "osm_id": "6600874659", "name": "New Look", "other_tags": "\"addr:housename\"=>\"Carlton Lanes Shopping Centre\",\"addr:postcode\"=>\"WF10 1AD\",\"addr:street\"=>\"Carlton Street\",\"addr:town\"=>\"Castleford\",\"addr:unit\"=>\"19\",\"brand\"=>\"New Look\",\"brand:wikidata\"=>\"Q12063852\",\"brand:wikipedia\"=>\"en:New Look (company)\",\"shop\"=>\"clothes\"" }, "geometry": { "type": "Point", "coordinates": [ -1.3508565, 53.725693 ] } },
	{ "type": "Feature", "properties": { "osm_id": "6600874676", "name": "Sisters", "other_tags": "\"addr:housename\"=>\"Carlton Lanes Shopping Centre\",\"addr:postcode\"=>\"WF10 1AD\",\"addr:street\"=>\"Carlton Street\",\"addr:town\"=>\"Castleford\",\"addr:unit\"=>\"33\",\"clothes\"=>\"women\",\"shop\"=>\"clothes\"" }, "geometry": { "type": "Point", "coordinates": [ -1.3503751, 53.7260727 ] } },
	{ "type": "Feature", "properties": { "osm_id": "6600898390", "name": "Peacocks", "other_tags": "\"addr:housename\"=>\"Carlton Lanes Shopping Centre\",\"addr:postcode\"=>\"WF10 1AD\",\"addr:street\"=>\"Carlton Street\",\"addr:town\"=>\"Castleford\",\"addr:unit\"=>\"LRU1\",\"brand\"=>\"Peacocks\",\"brand:wikidata\"=>\"Q7157762\",\"brand:wikipedia\"=>\"en:Peacocks (clothing)\",\"contact:website\"=>\"https:\/\/www.peacocks.co.uk\/store-finder\/index\/storeDetail\/id\/374\/\",\"shop\"=>\"clothes\"" }, "geometry": { "type": "Point", "coordinates": [ -1.3497152, 53.7259973 ] } },
	{ "type": "Feature", "properties": { "osm_id": "6600898401", "name": "Quirky Chic", "other_tags": "\"shop\"=>\"clothes\"" }, "geometry": { "type": "Point", "coordinates": [ -1.3521741, 53.7259592 ] } },
	{ "type": "Feature", "properties": { "osm_id": "6606798464", "other_tags": "\"addr:city\"=>\"Pontefract\",\"addr:housename\"=>\"Market Hall\",\"addr:postcode\"=>\"WF8 1AU\",\"addr:street\"=>\"Market Place\",\"addr:unit\"=>\"34-35\",\"shop\"=>\"clothes\"" }, "geometry": { "type": "Point", "coordinates": [ -1.3109297, 53.691837 ] } },
	{ "type": "Feature", "properties": { "osm_id": "6606798465", "name": "Harry's Styles", "other_tags": "\"addr:city\"=>\"Pontefract\",\"addr:housename\"=>\"Market Hall\",\"addr:postcode\"=>\"WF8 1AU\",\"addr:street\"=>\"Market Place\",\"addr:unit\"=>\"33\",\"shop\"=>\"clothes\"" }, "geometry": { "type": "Point", "coordinates": [ -1.3109712, 53.6918654 ] } },
	{ "type": "Feature", "properties": { "osm_id": "6606798480", "name": "Better & Bright", "other_tags": "\"addr:city\"=>\"Pontefract\",\"addr:housename\"=>\"Market Hall\",\"addr:postcode\"=>\"WF8 1AU\",\"addr:street\"=>\"Market Place\",\"addr:unit\"=>\"12-13\",\"shop\"=>\"clothes\"" }, "geometry": { "type": "Point", "coordinates": [ -1.3109156, 53.6919047 ] } },
	{ "type": "Feature", "properties": { "osm_id": "6611619544", "name": "Jamnian 1", "other_tags": "\"clothes\"=>\"children;school\",\"shop\"=>\"clothes\"" }, "geometry": { "type": "Point", "coordinates": [ -1.4415048, 53.8180795 ] } },
	{ "type": "Feature", "properties": { "osm_id": "6691869418", "name": "Redd Boutique", "other_tags": "\"addr:city\"=>\"Huddersfield\",\"addr:housenumber\"=>\"10\",\"addr:postcode\"=>\"HD1 2RT\",\"addr:street\"=>\"Pack Horse Walk\",\"shop\"=>\"clothes\"" }, "geometry": { "type": "Point", "coordinates": [ -1.781144, 53.6462273 ] } },
	{ "type": "Feature", "properties": { "osm_id": "6691869428", "name": "Greenwoods", "other_tags": "\"addr:city\"=>\"Huddersfield\",\"addr:street\"=>\"King Street\",\"shop\"=>\"clothes\"" }, "geometry": { "type": "Point", "coordinates": [ -1.7812727, 53.6459105 ] } },
	{ "type": "Feature", "properties": { "osm_id": "6711918983", "name": "Monsoon", "other_tags": "\"addr:city\"=>\"Huddersfield\",\"addr:housenumber\"=>\"25-27\",\"addr:postcode\"=>\"HD1 2AZ\",\"addr:street\"=>\"New Street\",\"branch\"=>\"Accessories\",\"brand\"=>\"Monsoon\",\"brand:wikidata\"=>\"Q65007501\",\"shop\"=>\"clothes\"" }, "geometry": { "type": "Point", "coordinates": [ -1.7826937, 53.6455381 ] } },
	{ "type": "Feature", "properties": { "osm_id": "6711989286", "name": "Pink", "other_tags": "\"addr:city\"=>\"Huddersfield\",\"addr:street\"=>\"Kingsgate Centre\",\"brand\"=>\"Pink\",\"brand:wikidata\"=>\"Q20716793\",\"brand:wikipedia\"=>\"en:Pink (Victoria's Secret)\",\"clothes\"=>\"underwear;women\",\"shop\"=>\"clothes\"" }, "geometry": { "type": "Point", "coordinates": [ -1.7786948, 53.6460179 ] } },
	{ "type": "Feature", "properties": { "osm_id": "6711989287", "name": "You Know Who's", "other_tags": "\"addr:city\"=>\"Huddersfield\",\"addr:housenumber\"=>\"12\",\"addr:street\"=>\"Kingsgate Centre\",\"shop\"=>\"clothes\"" }, "geometry": { "type": "Point", "coordinates": [ -1.778837, 53.6461486 ] } },
	{ "type": "Feature", "properties": { "osm_id": "6799475467", "name": "Timberland", "other_tags": "\"brand\"=>\"Timberland\",\"brand:wikidata\"=>\"Q1539185\",\"brand:wikipedia\"=>\"en:The Timberland Company\",\"shop\"=>\"clothes\"" }, "geometry": { "type": "Point", "coordinates": [ -1.5450239, 53.7968602 ] } },
	{ "type": "Feature", "properties": { "osm_id": "6814594447", "name": "No 6", "other_tags": "\"shop\"=>\"clothes\"" }, "geometry": { "type": "Point", "coordinates": [ -1.3862672, 53.9278995 ] } },
	{ "type": "Feature", "properties": { "osm_id": "6814612367", "name": "Espada Boutique", "other_tags": "\"shop\"=>\"clothes\"" }, "geometry": { "type": "Point", "coordinates": [ -1.3858149, 53.9282198 ] } },
	{ "type": "Feature", "properties": { "osm_id": "6814632424", "name": "Kool Kidz", "other_tags": "\"shop\"=>\"clothes\"" }, "geometry": { "type": "Point", "coordinates": [ -1.3852858, 53.9299971 ] } },
	{ "type": "Feature", "properties": { "osm_id": "6814640926", "name": "Practically Perfect", "other_tags": "\"shop\"=>\"clothes\"" }, "geometry": { "type": "Point", "coordinates": [ -1.3862745, 53.9280382 ] } },
	{ "type": "Feature", "properties": { "osm_id": "6836914764", "name": "Joules", "other_tags": "\"shop\"=>\"clothes\"" }, "geometry": { "type": "Point", "coordinates": [ -1.8245612, 53.9249997 ] } },
	{ "type": "Feature", "properties": { "osm_id": "6836919225", "name": "The Fitting Room", "other_tags": "\"clothes:underwear\"=>\"yes\",\"shop\"=>\"clothes\"" }, "geometry": { "type": "Point", "coordinates": [ -1.8246549, 53.925002 ] } },
	{ "type": "Feature", "properties": { "osm_id": "6836944201", "name": "Herbert & Stella", "other_tags": "\"shop\"=>\"clothes\"" }, "geometry": { "type": "Point", "coordinates": [ -1.8239153, 53.9253285 ] } },
	{ "type": "Feature", "properties": { "osm_id": "7141868815", "name": "Nousa", "other_tags": "\"clothes\"=>\"women;wedding\",\"shop\"=>\"clothes\"" }, "geometry": { "type": "Point", "coordinates": [ -1.4653255, 53.7990113 ] } },
	{ "type": "Feature", "properties": { "osm_id": "7625005113", "name": "Edinburgh Woollen Mill", "other_tags": "\"brand\"=>\"Edinburgh Woollen Mill\",\"brand:wikidata\"=>\"Q16834657\",\"brand:wikipedia\"=>\"en:Edinburgh Woollen Mill\",\"shop\"=>\"clothes\"" }, "geometry": { "type": "Point", "coordinates": [ -1.3843162, 53.675004 ] } },
	{ "type": "Feature", "properties": { "osm_id": "7750414723", "name": "Select", "other_tags": "\"addr:housename\"=>\"Junction 32 Outlet Shopping Village\",\"addr:postcode\"=>\"WF10 4FR\",\"addr:street\"=>\"Tomahawk Trail\",\"addr:town\"=>\"Castleford\",\"addr:unit\"=>\"74\",\"brand\"=>\"Select\",\"brand:wikidata\"=>\"Q105105307\",\"clothes\"=>\"women\",\"shop\"=>\"clothes\"" }, "geometry": { "type": "Point", "coordinates": [ -1.3396003, 53.712821 ] } },
	{ "type": "Feature", "properties": { "osm_id": "7750414729", "name": "Jack Wills", "other_tags": "\"addr:housename\"=>\"Junction 32 Outlet Shopping Village\",\"addr:postcode\"=>\"WF10 4FR\",\"addr:street\"=>\"Tomahawk Trail\",\"addr:town\"=>\"Castleford\",\"addr:unit\"=>\"53\",\"brand\"=>\"Jack Wills\",\"brand:wikidata\"=>\"Q6115814\",\"brand:wikipedia\"=>\"en:Jack Wills\",\"clothes\"=>\"women;men\",\"shop\"=>\"clothes\"" }, "geometry": { "type": "Point", "coordinates": [ -1.3383447, 53.7115803 ] } },
	{ "type": "Feature", "properties": { "osm_id": "7750414744", "name": "Jack & Jones", "other_tags": "\"addr:housename\"=>\"Junction 32 Outlet Shopping Village\",\"addr:postcode\"=>\"WF10 4FR\",\"addr:street\"=>\"Tomahawk Trail\",\"addr:town\"=>\"Castleford\",\"addr:unit\"=>\"63\",\"brand\"=>\"Jack & Jones\",\"brand:wikidata\"=>\"Q6077665\",\"brand:wikipedia\"=>\"en:Jack & Jones\",\"shop\"=>\"clothes\"" }, "geometry": { "type": "Point", "coordinates": [ -1.3395379, 53.7119354 ] } },
	{ "type": "Feature", "properties": { "osm_id": "7750414747", "name": "Klass", "other_tags": "\"addr:housename\"=>\"Junction 32 Outlet Shopping Village\",\"addr:postcode\"=>\"WF10 4FR\",\"addr:street\"=>\"Tomahawk Trail\",\"addr:town\"=>\"Castleford\",\"addr:unit\"=>\"65\",\"brand\"=>\"Klass\",\"brand:wikidata\"=>\"Q99938733\",\"clothes\"=>\"women\",\"shop\"=>\"clothes\"" }, "geometry": { "type": "Point", "coordinates": [ -1.3397274, 53.7120143 ] } },
	{ "type": "Feature", "properties": { "osm_id": "7750414748", "name": "Mango", "other_tags": "\"addr:housename\"=>\"Junction 32 Outlet Shopping Village\",\"addr:postcode\"=>\"WF10 4FR\",\"addr:street\"=>\"Tomahawk Trail\",\"addr:town\"=>\"Castleford\",\"addr:unit\"=>\"66\",\"brand\"=>\"Mango\",\"brand:wikidata\"=>\"Q136503\",\"brand:wikipedia\"=>\"en:Mango (retailer)\",\"clothes\"=>\"women\",\"shop\"=>\"clothes\"" }, "geometry": { "type": "Point", "coordinates": [ -1.3398214, 53.7120579 ] } },
	{ "type": "Feature", "properties": { "osm_id": "7750414749", "name": "Eden", "other_tags": "\"addr:housename\"=>\"Junction 32 Outlet Shopping Village\",\"addr:postcode\"=>\"WF10 4FR\",\"addr:street\"=>\"Tomahawk Trail\",\"addr:town\"=>\"Castleford\",\"addr:unit\"=>\"67\",\"clothes\"=>\"men\",\"shop\"=>\"clothes\"" }, "geometry": { "type": "Point", "coordinates": [ -1.3399345, 53.7121005 ] } },
	{ "type": "Feature", "properties": { "osm_id": "7750414751", "name": "Wonderbra", "other_tags": "\"addr:city\"=>\"Castleford\",\"addr:housename\"=>\"Junction 32 Outlet Shopping Village\",\"addr:housenumber\"=>\"Unit 70\",\"addr:postcode\"=>\"WF10 4FR\",\"addr:street\"=>\"Tomahawk Trail\",\"addr:town\"=>\"Castleford\",\"addr:unit\"=>\"68\",\"clothes\"=>\"lingerie\",\"opening_hours:covid19\"=>\"closed\",\"shop\"=>\"clothes\"" }, "geometry": { "type": "Point", "coordinates": [ -1.3401525, 53.7121913 ] } },
	{ "type": "Feature", "properties": { "osm_id": "7837875675", "name": "M&Co", "other_tags": "\"brand\"=>\"M&Co\",\"brand:wikidata\"=>\"Q6711808\",\"brand:wikipedia\"=>\"en:M&Co.\",\"shop\"=>\"clothes\"" }, "geometry": { "type": "Point", "coordinates": [ -1.8228718, 53.9246386 ] } },
	{ "type": "Feature", "properties": { "osm_id": "7847703582", "name": "Eric Spencer", "other_tags": "\"addr:city\"=>\"Ilkley\",\"addr:housenumber\"=>\"15-17\",\"addr:street\"=>\"Church Street\",\"clothes\"=>\"men\",\"shop\"=>\"clothes\"" }, "geometry": { "type": "Point", "coordinates": [ -1.8246498, 53.9261746 ] } },
	{ "type": "Feature", "properties": { "osm_id": "7981609211", "name": "Peacocks", "other_tags": "\"addr:city\"=>\"Pontefract\",\"addr:housename\"=>\"Co-op\",\"addr:postcode\"=>\"WF7 7BS\",\"addr:street\"=>\"Barnsley Road\",\"brand\"=>\"Peacocks\",\"brand:wikidata\"=>\"Q7157762\",\"brand:wikipedia\"=>\"en:Peacocks (clothing)\",\"contact:website\"=>\"https:\/\/www.peacocks.co.uk\/store-finder\/index\/storeDetail\/id\/508\/\",\"shop\"=>\"clothes\"" }, "geometry": { "type": "Point", "coordinates": [ -1.3375376, 53.6417603 ] } },
	{ "type": "Feature", "properties": { "osm_id": "8047164094", "name": "Outfit", "other_tags": "\"brand\"=>\"Outfit\",\"brand:wikidata\"=>\"Q7112061\",\"brand:wikipedia\"=>\"en:Outfit (retailer)\",\"shop\"=>\"clothes\"" }, "geometry": { "type": "Point", "coordinates": [ -1.7547474, 53.8016877 ] } },
	{ "type": "Feature", "properties": { "osm_id": "8047164095", "name": "Next", "other_tags": "\"brand\"=>\"Next\",\"brand:wikidata\"=>\"Q246655\",\"brand:wikipedia\"=>\"en:Next plc\",\"shop\"=>\"clothes\"" }, "geometry": { "type": "Point", "coordinates": [ -1.7543906, 53.801772 ] } },
	{ "type": "Feature", "properties": { "osm_id": "8049572264", "name": "Miss Sana", "other_tags": "\"shop\"=>\"clothes\"" }, "geometry": { "type": "Point", "coordinates": [ -1.6609242, 53.7319219 ] } },
	{ "type": "Feature", "properties": { "osm_id": "8049572271", "other_tags": "\"clothes\"=>\"prom;pagent\",\"shop\"=>\"clothes\"" }, "geometry": { "type": "Point", "coordinates": [ -1.6611767, 53.7322691 ] } },
	{ "type": "Feature", "properties": { "osm_id": "8050474751", "name": "Amira London Fashion", "other_tags": "\"shop\"=>\"clothes\"" }, "geometry": { "type": "Point", "coordinates": [ -1.632802, 53.7142872 ] } },
	{ "type": "Feature", "properties": { "osm_id": "8315815406", "name": "Numteg", "other_tags": "\"addr:city\"=>\"Pontefract\",\"addr:housename\"=>\"Morrisons\",\"addr:postcode\"=>\"WF8 1BT\",\"addr:street\"=>\"Stuart Road\",\"clothes\"=>\"children;women;men\",\"shop\"=>\"clothes\"" }, "geometry": { "type": "Point", "coordinates": [ -1.3112097, 53.6936487 ] } },
	{ "type": "Feature", "properties": { "osm_id": "8316250699", "name": "Stephanie's Boutique", "other_tags": "\"addr:city\"=>\"Rawdon\",\"addr:housenumber\"=>\"1\",\"addr:postcode\"=>\"LS19 6HW\",\"addr:street\"=>\"Harrogate Road\",\"shop\"=>\"clothes\"" }, "geometry": { "type": "Point", "coordinates": [ -1.6849097, 53.8533663 ] } },
	{ "type": "Feature", "properties": { "osm_id": "8392777510", "name": "Peacocks", "other_tags": "\"addr:city\"=>\"Leeds\",\"addr:housenumber\"=>\"60\",\"addr:postcode\"=>\"LS25 7AJ\",\"addr:street\"=>\"High Street\",\"brand\"=>\"Peacocks\",\"brand:wikidata\"=>\"Q7157762\",\"brand:wikipedia\"=>\"en:Peacocks (clothing)\",\"contact:website\"=>\"https:\/\/www.peacocks.co.uk\/store-finder\/index\/storeDetail\/id\/449\/\",\"shop\"=>\"clothes\"" }, "geometry": { "type": "Point", "coordinates": [ -1.3673563, 53.7663806 ] } },
	{ "type": "Feature", "properties": { "osm_id": "8619056200", "name": "Wed2B", "other_tags": "\"clothes\"=>\"wedding\",\"shop\"=>\"clothes\"" }, "geometry": { "type": "Point", "coordinates": [ -1.5907082, 53.8087686 ] } },
	{ "type": "Feature", "properties": { "osm_id": "8633753018", "name": "Aminah's Bridal Shop", "other_tags": "\"clothes\"=>\"wedding\",\"shop\"=>\"clothes\"" }, "geometry": { "type": "Point", "coordinates": [ -1.9083756, 53.8689104 ] } },
	{ "type": "Feature", "properties": { "osm_id": "8714198716", "name": "Quiz", "other_tags": "\"addr:housename\"=>\"Junction 32 Outlet Shopping Village\",\"addr:postcode\"=>\"WF10 4FR\",\"addr:street\"=>\"Tomahawk Trail\",\"addr:town\"=>\"Castleford\",\"addr:unit\"=>\"51\",\"brand\"=>\"Quiz\",\"brand:wikidata\"=>\"Q29995941\",\"brand:wikipedia\"=>\"en:Quiz (clothing)\",\"clothes\"=>\"women\",\"shop\"=>\"clothes\"" }, "geometry": { "type": "Point", "coordinates": [ -1.338045, 53.7118977 ] } },
	{ "type": "Feature", "properties": { "osm_id": "8714242625", "name": "Urban", "other_tags": "\"addr:housename\"=>\"Junction 32 Outlet Shopping Village\",\"addr:postcode\"=>\"WF10 4FR\",\"addr:street\"=>\"Tomahawk Trail\",\"addr:town\"=>\"Castleford\",\"addr:unit\"=>\"70\",\"shop\"=>\"clothes\"" }, "geometry": { "type": "Point", "coordinates": [ -1.3400376, 53.7126294 ] } },
	{ "type": "Feature", "properties": { "osm_id": "8714242628", "name": "Weird Fish", "other_tags": "\"addr:housename\"=>\"Junction 32 Outlet Shopping Village\",\"addr:postcode\"=>\"WF10 4FR\",\"addr:street\"=>\"Tomahawk Trail\",\"addr:town\"=>\"Castleford\",\"addr:unit\"=>\"76\",\"brand\"=>\"Weird Fish\",\"brand:wikidata\"=>\"Q19903788\",\"brand:wikipedia\"=>\"en:Weird Fish\",\"clothes\"=>\"children;men;women\",\"shop\"=>\"clothes\"" }, "geometry": { "type": "Point", "coordinates": [ -1.3387433, 53.7128881 ] } },
	{ "type": "Feature", "properties": { "osm_id": "8793992366", "name": "Ritesport", "other_tags": "\"addr:city\"=>\"Pontefract\",\"addr:housename\"=>\"Market Hall\",\"addr:postcode\"=>\"WF8 1AU\",\"addr:street\"=>\"Market Place\",\"shop\"=>\"clothes\"" }, "geometry": { "type": "Point", "coordinates": [ -1.3109449, 53.6917544 ] } },
	{ "type": "Feature", "properties": { "osm_id": "9103863068", "name": "Zoot", "other_tags": "\"addr:city\"=>\"Pontefract\",\"addr:housenumber\"=>\"5\",\"addr:postcode\"=>\"WF8 1AP\",\"addr:street\"=>\"Shoemarket\",\"level\"=>\"1\",\"shop\"=>\"clothes\"" }, "geometry": { "type": "Point", "coordinates": [ -1.3120627, 53.6914116 ] } },
	{ "type": "Feature", "properties": { "osm_id": "9481673891", "name": "Little Munchkins", "other_tags": "\"addr:city\"=>\"Otley\",\"addr:housenumber\"=>\"16A\",\"addr:postcode\"=>\"LS21 3AS\",\"addr:street\"=>\"Westgate\",\"clothes\"=>\"children;babies\",\"opening_hours\"=>\"Mo-Th 09:00-17:00; Fr-Sa 09:00-17:30\",\"second_hand\"=>\"no\",\"shoes\"=>\"children;babies\",\"shop\"=>\"clothes\",\"website\"=>\"https:\/\/littlemunchkinsofotley.co.uk\/\"" }, "geometry": { "type": "Point", "coordinates": [ -1.695609, 53.9053475 ] } },
	{ "type": "Feature", "properties": { "osm_id": "9580697263", "name": "The Uniform Centre", "other_tags": "\"shop\"=>\"clothes\"" }, "geometry": { "type": "Point", "coordinates": [ -1.5997984, 53.743288 ] } },
	{ "type": "Feature", "properties": { "osm_id": "9580750254", "name": "Peakaboo", "other_tags": "\"clothes\"=>\"spanish\",\"shop\"=>\"clothes\"" }, "geometry": { "type": "Point", "coordinates": [ -1.6023422, 53.7467237 ] } },
	{ "type": "Feature", "properties": { "osm_id": "9922957305", "name": "Attire", "other_tags": "\"addr:city\"=>\"Huddersfield\",\"addr:housenumber\"=>\"17\",\"addr:postcode\"=>\"HD1 2QB\",\"addr:street\"=>\"Kingsgate Centre\",\"clothes\"=>\"men\",\"shop\"=>\"clothes\"" }, "geometry": { "type": "Point", "coordinates": [ -1.778514, 53.6458442 ] } },
	{ "type": "Feature", "properties": { "osm_id": "9937321257", "name": "Fat Face", "other_tags": "\"brand\"=>\"Fat Face\",\"brand:wikidata\"=>\"Q5437186\",\"shop\"=>\"clothes\"" }, "geometry": { "type": "Point", "coordinates": [ -1.8243333, 53.9246336 ] } },
	{ "type": "Feature", "properties": { "osm_id": "9937321258", "name": "Porters", "other_tags": "\"shop\"=>\"clothes\"" }, "geometry": { "type": "Point", "coordinates": [ -1.8244422, 53.9246353 ] } },
	{ "type": "Feature", "properties": { "osm_id": "9937326186", "name": "Oliver Bonas", "other_tags": "\"clothes\"=>\"women\",\"shop\"=>\"clothes\"" }, "geometry": { "type": "Point", "coordinates": [ -1.8235714, 53.9247919 ] } },
	{ "type": "Feature", "properties": { "osm_id": "9937326188", "name": "JoJo Maman Bébé", "other_tags": "\"brand\"=>\"JoJo Maman Bébé\",\"brand:wikidata\"=>\"Q6204064\",\"clothes\"=>\"maternity;babies\",\"shop\"=>\"clothes\"" }, "geometry": { "type": "Point", "coordinates": [ -1.8235805, 53.9247236 ] } },
	{ "type": "Feature", "properties": { "osm_id": "9937326191", "name": "White Stuff", "other_tags": "\"brand\"=>\"White Stuff\",\"brand:wikidata\"=>\"Q7995442\",\"shop\"=>\"clothes\"" }, "geometry": { "type": "Point", "coordinates": [ -1.823582, 53.9246755 ] } },
	{ "type": "Feature", "properties": { "osm_id": "9937353282", "name": "Joules", "other_tags": "\"brand\"=>\"Joules\",\"brand:wikidata\"=>\"Q25351738\",\"contact:website\"=>\"https:\/\/www.joules.com\/store-locator\/store\/joules-of-ilkley\",\"shop\"=>\"clothes\"" }, "geometry": { "type": "Point", "coordinates": [ -1.8235877, 53.9251749 ] } },
	{ "type": "Feature", "properties": { "osm_id": "9937353283", "name": "Jigsaw", "other_tags": "\"brand\"=>\"Jigsaw\",\"brand:wikidata\"=>\"Q6192383\",\"clothes\"=>\"women\",\"shop\"=>\"clothes\"" }, "geometry": { "type": "Point", "coordinates": [ -1.8235946, 53.925113 ] } },
	{ "type": "Feature", "properties": { "osm_id": "10115101768", "name": "Whittakers", "other_tags": "\"addr:housenumber\"=>\"21\",\"addr:postcode\"=>\"BD17 7BP\",\"addr:street\"=>\"Briggate\",\"clothes\"=>\"schoolwear\",\"shop\"=>\"clothes\",\"website\"=>\"https:\/\/www.whittakersschoolwear.co.uk\/store\/shipley\/\"" }, "geometry": { "type": "Point", "coordinates": [ -1.7748432, 53.8347 ] } },
	{ "type": "Feature", "properties": { "osm_id": "10130461017", "name": "Room 94", "other_tags": "\"shop\"=>\"clothes\"" }, "geometry": { "type": "Point", "coordinates": [ -1.6002637, 53.7440728 ] } },
	{ "type": "Feature", "properties": { "osm_id": "10147661238", "name": "Primark", "other_tags": "\"brand\"=>\"Primark\",\"brand:wikidata\"=>\"Q137023\",\"shop\"=>\"clothes\"" }, "geometry": { "type": "Point", "coordinates": [ -1.5459513, 53.7964364 ] } },
	{ "type": "Feature", "properties": { "osm_id": "10307367981", "name": "Hidden Wardrobe", "other_tags": "\"addr:city\"=>\"Huddersfield\",\"addr:housenumber\"=>\"12\",\"addr:street\"=>\"The Shambles\",\"phone\"=>\"+44 1484 451511\",\"shop\"=>\"clothes\"" }, "geometry": { "type": "Point", "coordinates": [ -1.7812128, 53.6451861 ] } },
	{ "type": "Feature", "properties": { "osm_way_id": "87266764", "name": "Unique Bridal", "building": "yes", "shop": "clothes", "other_tags": "\"addr:city\"=>\"Wakefield\",\"addr:housenumber\"=>\"105\",\"addr:postcode\"=>\"WF1 1EL\",\"addr:street\"=>\"Westgate\",\"takeaway\"=>\"yes\",\"wikidata\"=>\"Q26550159\"" }, "geometry": { "type": "MultiPolygon", "coordinates": [ [ [ [ -1.5035226, 53.6815013 ], [ -1.5036021, 53.6816025 ], [ -1.5035225, 53.6816245 ], [ -1.5034759, 53.6816373 ], [ -1.5034279, 53.681576 ], [ -1.5034552, 53.6815685 ], [ -1.5034732, 53.6815636 ], [ -1.503497, 53.681557 ], [ -1.5034656, 53.681517 ], [ -1.5035226, 53.6815013 ] ] ] ] } },
	{ "type": "Feature", "properties": { "osm_way_id": "88397390", "name": "M&Co", "building": "yes", "shop": "clothes", "other_tags": "\"brand\"=>\"M&Co\",\"brand:wikidata\"=>\"Q6711808\",\"brand:wikipedia\"=>\"en:M&Co.\"" }, "geometry": { "type": "MultiPolygon", "coordinates": [ [ [ [ -1.7789111, 53.7023338 ], [ -1.7790743, 53.7023344 ], [ -1.7790739, 53.7024059 ], [ -1.7790718, 53.7024561 ], [ -1.778926, 53.7024524 ], [ -1.7789251, 53.7024689 ], [ -1.7784442, 53.7025304 ], [ -1.7783686, 53.7023464 ], [ -1.7787661, 53.7022909 ], [ -1.7788368, 53.7022828 ], [ -1.778861, 53.7023422 ], [ -1.7788927, 53.7023413 ], [ -1.7788924, 53.7023604 ], [ -1.7789111, 53.7023606 ], [ -1.7789111, 53.7023338 ] ] ] ] } },
	{ "type": "Feature", "properties": { "osm_way_id": "89624038", "name": "Matalan", "building": "retail", "landuse": "retail", "shop": "clothes", "other_tags": "\"brand\"=>\"Matalan\",\"brand:wikidata\"=>\"Q12061509\",\"brand:wikipedia\"=>\"en:Matalan\",\"website\"=>\"https:\/\/www.matalan.co.uk\/stores\/bradford-greengates\"" }, "geometry": { "type": "MultiPolygon", "coordinates": [ [ [ [ -1.7129021, 53.8284212 ], [ -1.7125265, 53.8289635 ], [ -1.7116713, 53.8287759 ], [ -1.7120296, 53.8282234 ], [ -1.7129021, 53.8284212 ] ] ] ] } },
	{ "type": "Feature", "properties": { "osm_way_id": "97086040", "name": "Matalan", "building": "yes", "shop": "clothes", "other_tags": "\"addr:city\"=>\"Wakefield\",\"addr:housenumber\"=>\"Unit 8\",\"addr:postcode\"=>\"WF1 1RN\",\"addr:street\"=>\"Ings Road\",\"brand\"=>\"Matalan\",\"brand:wikidata\"=>\"Q12061509\",\"brand:wikipedia\"=>\"en:Matalan\"" }, "geometry": { "type": "MultiPolygon", "coordinates": [ [ [ [ -1.4958654, 53.67731 ], [ -1.4957911, 53.6774429 ], [ -1.4956646, 53.677669 ], [ -1.495016, 53.6775417 ], [ -1.4951893, 53.677232 ], [ -1.4952169, 53.6771827 ], [ -1.4958654, 53.67731 ] ] ] ] } },
	{ "type": "Feature", "properties": { "osm_way_id": "97086048", "name": "Next", "building": "yes", "shop": "clothes", "other_tags": "\"addr:city\"=>\"Wakefield\",\"addr:housename\"=>\"Westgate Retail And Leisure Park\",\"addr:postcode\"=>\"WF2 9SD\",\"addr:street\"=>\"Ings Road\",\"addr:unit\"=>\"6\",\"brand\"=>\"Next\",\"brand:wikidata\"=>\"Q246655\"" }, "geometry": { "type": "MultiPolygon", "coordinates": [ [ [ [ -1.5073531, 53.6793838 ], [ -1.5071084, 53.6791181 ], [ -1.5076965, 53.6789282 ], [ -1.5079412, 53.6791939 ], [ -1.5073531, 53.6793838 ] ] ] ] } },
	{ "type": "Feature", "properties": { "osm_way_id": "113160848", "name": "Sports Bike Shop", "building": "yes", "shop": "clothes", "other_tags": "\"addr:city\"=>\"Leeds\",\"addr:housenumber\"=>\"3\",\"addr:postcode\"=>\"LS2 7QN\",\"addr:street\"=>\"Regent Street\",\"clothes\"=>\"motorcycle\",\"old_name\"=>\"Maplin\",\"wheelchair\"=>\"yes\"" }, "geometry": { "type": "MultiPolygon", "coordinates": [ [ [ [ -1.5336748, 53.8010998 ], [ -1.5337477, 53.8009145 ], [ -1.5338263, 53.8009253 ], [ -1.5338358, 53.8009011 ], [ -1.5343276, 53.8009685 ], [ -1.5342453, 53.801178 ], [ -1.5336748, 53.8010998 ] ] ] ] } },
	{ "type": "Feature", "properties": { "osm_way_id": "113160885", "name": "J&S Motorcycle Clothing and Accessories", "building": "yes", "shop": "clothes", "other_tags": "\"addr:city\"=>\"Leeds\",\"addr:housenumber\"=>\"3\",\"addr:postcode\"=>\"LS2 7QA\",\"addr:street\"=>\"Regent Street\"" }, "geometry": { "type": "MultiPolygon", "coordinates": [ [ [ [ -1.5342035, 53.8012842 ], [ -1.533633, 53.801206 ], [ -1.5336748, 53.8010998 ], [ -1.5342453, 53.801178 ], [ -1.5342035, 53.8012842 ] ] ] ] } },
	{ "type": "Feature", "properties": { "osm_way_id": "115559379", "name": "Store Twenty One", "building": "yes", "shop": "clothes" }, "geometry": { "type": "MultiPolygon", "coordinates": [ [ [ [ -1.7811103, 53.7018473 ], [ -1.7811341, 53.701911 ], [ -1.7810208, 53.7019258 ], [ -1.7810605, 53.7020324 ], [ -1.7811006, 53.7021389 ], [ -1.7809657, 53.7021551 ], [ -1.7809129, 53.7020229 ], [ -1.7808599, 53.70188 ], [ -1.7811103, 53.7018473 ] ] ] ] } },
	{ "type": "Feature", "properties": { "osm_way_id": "118045972", "name": "Matalan", "building": "yes", "shop": "clothes", "other_tags": "\"addr:city\"=>\"Halifax\",\"addr:postcode\"=>\"HX1 1RD\",\"addr:street\"=>\"Berry Lane\",\"brand\"=>\"Matalan\",\"brand:wikidata\"=>\"Q12061509\",\"brand:wikipedia\"=>\"en:Matalan\",\"opening_hours\"=>\"Mo-Fr 09:00-20:00\"" }, "geometry": { "type": "MultiPolygon", "coordinates": [ [ [ [ -1.8517456, 53.7235058 ], [ -1.8516514, 53.7234974 ], [ -1.8516268, 53.7235952 ], [ -1.8510116, 53.7235409 ], [ -1.8512161, 53.72273 ], [ -1.8519255, 53.7227927 ], [ -1.8517456, 53.7235058 ] ] ] ] } },
	{ "type": "Feature", "properties": { "osm_way_id": "118710058", "name": "Next", "building": "yes", "shop": "clothes", "other_tags": "\"addr:city\"=>\"Halifax\",\"addr:country\"=>\"GB\",\"addr:postcode\"=>\"HX3 6AB\",\"addr:street\"=>\"Charlestown Road\",\"brand\"=>\"Next\",\"brand:wikidata\"=>\"Q246655\",\"brand:wikipedia\"=>\"en:Next plc\"" }, "geometry": { "type": "MultiPolygon", "coordinates": [ [ [ [ -1.8524344, 53.7262413 ], [ -1.8516492, 53.7259994 ], [ -1.8518313, 53.7257925 ], [ -1.8526165, 53.7260345 ], [ -1.8524344, 53.7262413 ] ] ] ] } },
	{ "type": "Feature", "properties": { "osm_way_id": "120860453", "name": "Matalan", "building": "retail", "shop": "clothes", "other_tags": "\"brand\"=>\"Matalan\",\"brand:wikidata\"=>\"Q12061509\",\"brand:wikipedia\"=>\"en:Matalan\",\"building:levels\"=>\"2\"" }, "geometry": { "type": "MultiPolygon", "coordinates": [ [ [ [ -1.7609563, 53.7712998 ], [ -1.7603168, 53.7711419 ], [ -1.7604283, 53.7709841 ], [ -1.7603755, 53.770971 ], [ -1.760463, 53.7708473 ], [ -1.7605188, 53.770861 ], [ -1.7605806, 53.7707737 ], [ -1.7614065, 53.7709777 ], [ -1.7612879, 53.7711454 ], [ -1.7610985, 53.7710986 ], [ -1.7609563, 53.7712998 ] ] ] ] } },
	{ "type": "Feature", "properties": { "osm_way_id": "121485726", "name": "Getgeared", "building": "yes", "shop": "clothes", "other_tags": "\"addr:city\"=>\"Leeds\",\"addr:housenumber\"=>\"5\",\"addr:postcode\"=>\"LS2 7QA\",\"addr:street\"=>\"Regent Street\"" }, "geometry": { "type": "MultiPolygon", "coordinates": [ [ [ [ -1.5342035, 53.8012842 ], [ -1.5341626, 53.8013882 ], [ -1.5335922, 53.80131 ], [ -1.533633, 53.801206 ], [ -1.5342035, 53.8012842 ] ] ] ] } },
	{ "type": "Feature", "properties": { "osm_way_id": "148253700", "name": "Next", "building": "yes", "shop": "clothes", "other_tags": "\"brand\"=>\"Next\",\"brand:wikidata\"=>\"Q246655\",\"brand:wikipedia\"=>\"en:Next plc\"" }, "geometry": { "type": "MultiPolygon", "coordinates": [ [ [ [ -1.6242362, 53.6900065 ], [ -1.6244407, 53.6901078 ], [ -1.6246152, 53.6901942 ], [ -1.6242406, 53.6904593 ], [ -1.6238616, 53.6902716 ], [ -1.6242362, 53.6900065 ] ] ] ] } },
	{ "type": "Feature", "properties": { "osm_way_id": "148853885", "name": "Fashion Direct", "building": "retail", "shop": "clothes" }, "geometry": { "type": "MultiPolygon", "coordinates": [ [ [ [ -1.7811608, 53.7022587 ], [ -1.7812109, 53.7023939 ], [ -1.7812325, 53.702452 ], [ -1.781171, 53.70246 ], [ -1.7810993, 53.7022667 ], [ -1.7811608, 53.7022587 ] ] ] ] } },
	{ "type": "Feature", "properties": { "osm_way_id": "154336027", "name": "Mona Lisa Fashion", "building": "yes", "shop": "clothes" }, "geometry": { "type": "MultiPolygon", "coordinates": [ [ [ [ -1.6615832, 53.6793431 ], [ -1.661639, 53.6794349 ], [ -1.6614659, 53.6794718 ], [ -1.6614101, 53.67938 ], [ -1.6615832, 53.6793431 ] ] ] ] } },
	{ "type": "Feature", "properties": { "osm_way_id": "161590960", "name": "Next", "building": "retail", "shop": "clothes", "other_tags": "\"addr:postcode\"=>\"LS10 1ET\",\"addr:street\"=>\"Crown Point Retail Park\",\"addr:unit\"=>\"11b\",\"brand\"=>\"Next\",\"brand:wikidata\"=>\"Q246655\",\"brand:wikipedia\"=>\"en:Next plc\",\"fhrs:id\"=>\"467459\"" }, "geometry": { "type": "MultiPolygon", "coordinates": [ [ [ [ -1.5412096, 53.7880808 ], [ -1.5417492, 53.7880819 ], [ -1.5419921, 53.7880823 ], [ -1.5419912, 53.7882943 ], [ -1.5412093, 53.7882924 ], [ -1.5412096, 53.7880808 ] ] ] ] } },
	{ "type": "Feature", "properties": { "osm_way_id": "174658257", "name": "Westgate Bridal Studio", "building": "yes", "shop": "clothes", "other_tags": "\"addr:city\"=>\"Halifax\",\"addr:country\"=>\"GB\",\"addr:housenumber\"=>\"4\",\"addr:postcode\"=>\"HX4 8AD\",\"addr:street\"=>\"Stainland Road\",\"addr:suburb\"=>\"West Vale\",\"clothes\"=>\"wedding\",\"phone\"=>\"+44 1422 330132\",\"website\"=>\"http:\/\/www.westgatebridalstudio.com\/\"" }, "geometry": { "type": "MultiPolygon", "coordinates": [ [ [ [ -1.8560411, 53.6869446 ], [ -1.8560993, 53.6869082 ], [ -1.8562087, 53.6869699 ], [ -1.8561399, 53.6870094 ], [ -1.8560411, 53.6869446 ] ] ] ] } },
	{ "type": "Feature", "properties": { "osm_way_id": "177294186", "name": "Dress Up & Party", "building": "yes", "shop": "clothes", "other_tags": "\"clothes\"=>\"fancy_dress\"" },