{
"type": "FeatureCollection",
"crs": { "type": "name", "properties": { "name": "urn:ogc:def:crs:OGC:1.3:CRS84" } },
"features": [
	{ "type": "Feature", "properties": { "osm_id": "1015090583", "name": "Blaze Head Shop", "other_tags": "\"addr:city\"=>\"Wakefield\",\"addr:housenumber\"=>\"16\",\"addr:postcode\"=>\"WF1 1UY\",\"addr:street\"=>\"Silver Street\",\"fhrs:id\"=>\"1223685\",\"old_name\"=>\"Bella Pizza\",\"shop\"=>\"e-cigarette\"" }, "geometry": { "type": "Point", "coordinates": [ -1.5001431, 53.6826764 ] } },
	{ "type": "Feature", "properties": { "osm_id": "2091013185", "name": "Herman Vapes", "other_tags": "\"addr:city\"=>\"Leeds\",\"addr:housenumber\"=>\"37-39\",\"addr:postcode\"=>\"LS1 6DS\",\"addr:street\"=>\"Vicar Lane\",\"shop\"=>\"e-cigarette\"" }, "geometry": { "type": "Point", "coordinates": [ -1.5405473, 53.7971888 ] } },
	{ "type": "Feature", "properties": { "osm_id": "2128107697", "name": "Vape Suite", "other_tags": "\"addr:city\"=>\"Leeds\",\"addr:housenumber\"=>\"37\",\"addr:postcode\"=>\"LS1 6PU\",\"addr:street\"=>\"The Headrow\",\"old_name\"=>\"Greens of Leeds\",\"shop\"=>\"e-cigarette\"" }, "geometry": { "type": "Point", "coordinates": [ -1.5415754, 53.7989274 ] } },
	{ "type": "Feature", "properties": { "osm_id": "2128107776", "name": "Totally Wicked", "other_tags": "\"shop\"=>\"e-cigarette\"" }, "geometry": { "type": "Point", "coordinates": [ -1.5401166, 53.797135 ] } },
	{ "type": "Feature", "properties": { "osm_id": "4411803724", "name": "E-Vape Outlet", "other_tags": "\"shop\"=>\"e-cigarette\",\"addr:street\"=>\"Kirkgate\",\"addr:postcode\"=>\"WF1 1HS\",\"addr:housenumber\"=>\"25\"" }, "geometry": { "type": "Point", "coordinates": [ -1.4951664, 53.6828339 ] } },
	{ "type": "Feature", "properties": { "osm_id": "4413109790", "name": "Vape", "other_tags": "\"addr:city\"=>\"Wakefield\",\"addr:postcode\"=>\"WF1 1JY\",\"addr:street\"=>\"Westgate\",\"shop\"=>\"e-cigarette\"" }, "geometry": { "type": "Point", "coordinates": [ -1.4994151, 53.6825306 ] } },
	{ "type": "Feature", "properties": { "osm_id": "4468401794", "name": "Mirage Electronic Cigarettes", "other_tags": "\"shop\"=>\"e-cigarette\",\"addr:city\"=>\"Wakefield\",\"addr:street\"=>\"The Springs\",\"addr:postcode\"=>\"WF1 1PU\",\"addr:housenumber\"=>\"11\"" }, "geometry": { "type": "Point", "coordinates": [ -1.4959022, 53.6830393 ] } },
	{ "type": "Feature", "properties": { "osm_id": "4471283682", "name": "wow Vape", "other_tags": "\"shop\"=>\"e-cigarette\"" }, "geometry": { "type": "Point", "coordinates": [ -1.4507785, 53.8060583 ] } },
	{ "type": "Feature", "properties": { "osm_id": "4489200792", "name": "Mirage", "other_tags": "\"shop\"=>\"e-cigarette\"" }, "geometry": { "type": "Point", "coordinates": [ -1.4503634, 53.8070342 ] } }
]
}
