{
"type": "FeatureCollection",
"crs": { "type": "name", "properties": { "name": "urn:ogc:def:crs:OGC:1.3:CRS84" } },
"features": [
	{ "type": "Feature", "properties": { "osm_id": "2128107759", "name": "Stitches", "other_tags": "\"shop\"=>\"tailor\"" }, "geometry": { "type": "Point", "coordinates": [ -1.5416342, 53.7989348 ] } },
	{ "type": "Feature", "properties": { "osm_id": "3718205540", "name": "Sew Quick", "other_tags": "\"addr:city\"=>\"Yeadon\",\"addr:housenumber\"=>\"35\",\"addr:postcode\"=>\"LS19 7SP\",\"addr:street\"=>\"High Street\",\"phone\"=>\"+44 113 250 4182\",\"shop\"=>\"tailor\"" }, "geometry": { "type": "Point", "coordinates": [ -1.6841065, 53.8662668 ] } },
	{ "type": "Feature", "properties": { "osm_id": "4411803755", "name": "Stitch Express", "other_tags": "\"shop\"=>\"tailor\",\"addr:street\"=>\"Westmorland Street\",\"addr:postcode\"=>\"WF1 1PJ\",\"addr:housenumber\"=>\"20\"" }, "geometry": { "type": "Point", "coordinates": [ -1.4965166, 53.6832276 ] } },
	{ "type": "Feature", "properties": { "osm_id": "4468401789", "name": "Hem and Stitch", "other_tags": "\"shop\"=>\"tailor\",\"addr:city\"=>\"Wakefield\",\"addr:street\"=>\"The Springs\",\"addr:postcode\"=>\"WF1 1PU\",\"addr:housenumber\"=>\"6\"" }, "geometry": { "type": "Point", "coordinates": [ -1.49529, 53.6830445 ] } },
	{ "type": "Feature", "properties": { "osm_id": "4998540245", "name": "Mr. Tailor", "other_tags": "\"addr:city\"=>\"Leeds\",\"addr:housenumber\"=>\"2\",\"addr:postcode\"=>\"LS6 4ES\",\"addr:street\"=>\"Wilton Grove\",\"phone\"=>\"+44 113 887 8446\",\"shop\"=>\"tailor\"" }, "geometry": { "type": "Point", "coordinates": [ -1.571084, 53.8258023 ] } },
	{ "type": "Feature", "properties": { "osm_id": "5694793445", "name": "Stitchy Buckle Alterations", "other_tags": "\"addr:city\"=>\"Bingley\",\"addr:housenumber\"=>\"5\",\"addr:postcode\"=>\"BD16 2LT\",\"addr:street\"=>\"Queens Court\",\"shop\"=>\"tailor\",\"website\"=>\"http:\/\/www.alterations-hire-bingley.co.uk\/\"" }, "geometry": { "type": "Point", "coordinates": [ -1.8390544, 53.8486075 ] } },
	{ "type": "Feature", "properties": { "osm_id": "5794581341", "name": "Stitch in Time", "other_tags": "\"addr:city\"=>\"Bingley\",\"addr:housenumber\"=>\"100\",\"addr:postcode\"=>\"BD16 2JH\",\"addr:street\"=>\"Main Street\",\"shop\"=>\"tailor\"" }, "geometry": { "type": "Point", "coordinates": [ -1.8401021, 53.8501861 ] } },
	{ "type": "Feature", "properties": { "osm_id": "5918770665", "name": "The Zip Yard", "other_tags": "\"addr:city\"=>\"Leeds\",\"addr:housenumber\"=>\"114 a\",\"addr:postcode\"=>\"LS7 4NY\",\"addr:street\"=>\"Harrogate Road\",\"shop\"=>\"tailor\"" }, "geometry": { "type": "Point", "coordinates": [ -1.5379807, 53.8293953 ] } },
	{ "type": "Feature", "properties": { "osm_id": "5940390389", "name": "The Gentlemans Tailor", "other_tags": "\"addr:city\"=>\"Leeds\",\"addr:housenumber\"=>\"23\",\"addr:postcode\"=>\"LS1 6PG\",\"addr:street\"=>\"Grand Arcade\",\"shop\"=>\"tailor\"" }, "geometry": { "type": "Point", "coordinates": [ -1.540405, 53.8003063 ] } },
	{ "type": "Feature", "properties": { "osm_id": "5941346391", "name": "Michelsberg Tailoring", "other_tags": "\"addr:city\"=>\"Leeds\",\"addr:housenumber\"=>\"24a\",\"addr:postcode\"=>\"LS1 6BE\",\"addr:street\"=>\"Queen Victoria Street\",\"shop\"=>\"tailor\"" }, "geometry": { "type": "Point", "coordinates": [ -1.5410498, 53.7982635 ] } },
	{ "type": "Feature", "properties": { "osm_id": "5941346420", "name": "T M Lewin", "other_tags": "\"addr:city\"=>\"Leeds\",\"addr:housenumber\"=>\"20-22\",\"addr:postcode\"=>\"LS1 6BE\",\"addr:street\"=>\"Queen Victoria Street\",\"shop\"=>\"tailor\"" }, "geometry": { "type": "Point", "coordinates": [ -1.5411695, 53.7982475 ] } },
	{ "type": "Feature", "properties": { "osm_id": "5981576297", "name": "Vena Alterations", "other_tags": "\"addr:city\"=>\"Leeds\",\"addr:housename\"=>\"Kirkgate Market\",\"addr:street\"=>\"Kirkgate\",\"addr:unit\"=>\"7-9\",\"shop\"=>\"tailor\"" }, "geometry": { "type": "Point", "coordinates": [ -1.5400143, 53.7974245 ] } },
	{ "type": "Feature", "properties": { "osm_id": "6551413437", "name": "Alisons Alterations", "other_tags": "\"shop\"=>\"tailor\"" }, "geometry": { "type": "Point", "coordinates": [ -1.4980103, 53.6854292 ] } },
	{ "type": "Feature", "properties": { "osm_id": "6606842520", "name": "Stitch In Time", "other_tags": "\"addr:housenumber\"=>\"16\",\"addr:postcode\"=>\"WF8 1PQ\",\"addr:street\"=>\"Gillygate\",\"addr:town\"=>\"Pontefract\",\"shop\"=>\"tailor\"" }, "geometry": { "type": "Point", "coordinates": [ -1.3091971, 53.6917394 ] } },
	{ "type": "Feature", "properties": { "osm_id": "6606842529", "name": "Sewing Room", "other_tags": "\"addr:housename\"=>\"Horsefair House\",\"addr:postcode\"=>\"WF8 1NX\",\"addr:street\"=>\"Horsefair\",\"addr:town\"=>\"Pontefract\",\"addr:unit\"=>\"2\",\"shop\"=>\"tailor\"" }, "geometry": { "type": "Point", "coordinates": [ -1.3086833, 53.6925705 ] } },
	{ "type": "Feature", "properties": { "osm_id": "6969267535", "name": "Goodall's Tailors", "other_tags": "\"shop\"=>\"tailor\"" }, "geometry": { "type": "Point", "coordinates": [ -1.4801811, 53.7482635 ] } },
	{ "type": "Feature", "properties": { "osm_id": null, "centroid": { "latitude": 53.796588, "longitude": -1.541111 }, "osm_way_id": "639133106", "name": "Alter 8", "building": "yes", "shop": "tailor", "other_tags": "\"addr:city\"=>\"Leeds\",\"addr:housenumber\"=>\"22\",\"addr:postcode\"=>\"LS1 6DE\",\"addr:street\"=>\"Central Road\"" }, "geometry": { "type": "MultiPolygon", "coordinates": [ [ [ [ -1.5410091, 53.7965893 ], [ -1.5410239, 53.7965555 ], [ -1.5412134, 53.7965889 ], [ -1.5411979, 53.796621 ], [ -1.5410091, 53.7965893 ] ] ] ] } }
]
}
