{
"type": "FeatureCollection",
"crs": { "type": "name", "properties": { "name": "urn:ogc:def:crs:OGC:1.3:CRS84" } },
"features": [
	{ "type": "Feature", "properties": { "osm_id": "243894487", "amenity": "fuel" }, "geometry": { "type": "Point", "coordinates": [ -1.9161657, 53.7139498 ] } },
	{ "type": "Feature", "properties": { "osm_id": "368341662", "amenity": "fuel", "other_tags": "\"addr:city\"=>\"Brighouse\",\"addr:country\"=>\"GB\",\"addr:postcode\"=>\"HD6 1QH\",\"addr:street\"=>\"Wakefield Road\",\"brand\"=>\"Shell\",\"opening_hours\"=>\"Mo-Fr 06:00-21:00; Sa-Su 07:30-21:00\",\"operator\"=>\"Shell\",\"phone\"=>\"+44 1484 720371\",\"ref:navads\"=>\"NVDS353_10019703\"" }, "geometry": { "type": "Point", "coordinates": [ -1.7713769, 53.7010937 ] } },
	{ "type": "Feature", "properties": { "osm_id": "374406248", "amenity": "fuel", "other_tags": "\"addr:city\"=>\"Brighouse\",\"addr:country\"=>\"GB\",\"addr:postcode\"=>\"HD6 4DH\",\"addr:street\"=>\"Bradford Road\",\"brand\"=>\"Shell\",\"opening_hours\"=>\"Mo-Sa 06:00-22:00; Su 08:00-22:00\",\"operator\"=>\"Shell\",\"phone\"=>\"+44 1484 721193\",\"ref:navads\"=>\"NVDS353_10019562\"" }, "geometry": { "type": "Point", "coordinates": [ -1.777746, 53.71826 ] } },
	{ "type": "Feature", "properties": { "osm_id": "391577797", "name": "Headlands", "amenity": "fuel", "other_tags": "\"shop\"=>\"convenience\",\"operator\"=>\"murco\"" }, "geometry": { "type": "Point", "coordinates": [ -1.8153274, 53.7301369 ] } },
	{ "type": "Feature", "properties": { "osm_id": "843387811", "name": "Hartshead Moor Services", "amenity": "fuel", "other_tags": "\"addr:city\"=>\"Brighouse\",\"addr:country\"=>\"GB\",\"addr:hamlet\"=>\"Clifton\",\"addr:postcode\"=>\"HD6 4JX\",\"addr:street\"=>\"Highmoor Lane\",\"brand\"=>\"Shell\",\"fuel:diesel\"=>\"yes\",\"fuel:HGV_diesel\"=>\"yes\",\"fuel:octane_95\"=>\"yes\",\"opening_hours\"=>\"24\/7\",\"phone\"=>\"+44 1274 876584\",\"ref:navads\"=>\"NVDS353_10018820\",\"shop\"=>\"kiosk\"" }, "geometry": { "type": "Point", "coordinates": [ -1.7439057, 53.7120646 ] } },
	{ "type": "Feature", "properties": { "osm_id": "951556778", "amenity": "fuel", "other_tags": "\"operator\"=>\"Shell\",\"fuel:diesel\"=>\"yes\"" }, "geometry": { "type": "Point", "coordinates": [ -1.8751001, 53.7270205 ] } },
	{ "type": "Feature", "properties": { "osm_id": "1067451352", "name": "Hartshead Moor Services", "amenity": "fuel", "other_tags": "\"addr:city\"=>\"Brighouse\",\"addr:country\"=>\"GB\",\"addr:hamlet\"=>\"Clifton\",\"addr:postcode\"=>\"HD6 4JX\",\"addr:street\"=>\"Highmoor Lane\",\"brand\"=>\"Shell\",\"opening_hours\"=>\"24\/7\",\"phone\"=>\"+44 1274 876584\",\"ref:navads\"=>\"NVDS353_10018821\"" }, "geometry": { "type": "Point", "coordinates": [ -1.7464985, 53.7144507 ] } }
]
}
