{
"type": "FeatureCollection",
"crs": { "type": "name", "properties": { "name": "urn:ogc:def:crs:OGC:1.3:CRS84" } },
"features": [
	{ "type": "Feature", "properties": { "osm_id": "243894487", "amenity": "fuel" }, "geometry": { "type": "Point", "coordinates": [ -1.9161657, 53.7139498 ] } },
	{ "type": "Feature", "properties": { "osm_id": "368341662", "amenity": "fuel", "other_tags": "\"brand\"=>\"Shell\",\"phone\"=>\"+44 1484 720371\",\"operator\"=>\"Shell\",\"addr:city\"=>\"Brighouse\",\"ref:navads\"=>\"NVDS353_10019703\",\"addr:street\"=>\"Wakefield Road\",\"addr:country\"=>\"GB\",\"addr:postcode\"=>\"HD6 1QH\",\"opening_hours\"=>\"Mo-Fr 06:00-21:00; Sa-Su 07:30-21:00\"" }, "geometry": { "type": "Point", "coordinates": [ -1.7713769, 53.7010937 ] } },
	{ "type": "Feature", "properties": { "osm_id": "374406248", "amenity": "fuel", "other_tags": "\"brand\"=>\"Shell\",\"phone\"=>\"+44 1484 721193\",\"operator\"=>\"Shell\",\"addr:city\"=>\"Brighouse\",\"ref:navads\"=>\"NVDS353_10019562\",\"addr:street\"=>\"Bradford Road\",\"addr:country\"=>\"GB\",\"addr:postcode\"=>\"HD6 4DH\",\"opening_hours\"=>\"Mo-Sa 06:00-22:00; Su 08:00-22:00\"" }, "geometry": { "type": "Point", "coordinates": [ -1.777746, 53.71826 ] } },
	{ "type": "Feature", "properties": { "osm_id": "391577797", "name": "Headlands", "amenity": "fuel", "other_tags": "\"shop\"=>\"convenience\",\"operator\"=>\"murco\"" }, "geometry": { "type": "Point", "coordinates": [ -1.8153274, 53.7301369 ] } },
	{ "type": "Feature", "properties": { "osm_id": "843387811", "name": "Hartshead Moor Services", "amenity": "fuel", "other_tags": "\"shop\"=>\"kiosk\",\"brand\"=>\"Shell\",\"phone\"=>\"+44 1274 876584\",\"addr:city\"=>\"Brighouse\",\"ref:navads\"=>\"NVDS353_10018820\",\"addr:hamlet\"=>\"Clifton\",\"addr:street\"=>\"Highmoor Lane\",\"fuel:diesel\"=>\"yes\",\"addr:country\"=>\"GB\",\"addr:postcode\"=>\"HD6 4JX\",\"opening_hours\"=>\"24\/7\",\"fuel:octane_95\"=>\"yes\",\"fuel:HGV_diesel\"=>\"yes\"" }, "geometry": { "type": "Point", "coordinates": [ -1.7439057, 53.7120646 ] } },
	{ "type": "Feature", "properties": { "osm_id": "951556778", "amenity": "fuel", "other_tags": "\"operator\"=>\"Shell\",\"fuel:diesel\"=>\"yes\"" }, "geometry": { "type": "Point", "coordinates": [ -1.8751001, 53.7270205 ] } },
	{ "type": "Feature", "properties": { "osm_id": "1067451352", "name": "Hartshead Moor Services", "amenity": "fuel", "other_tags": "\"brand\"=>\"Shell\",\"phone\"=>\"+44 1274 876584\",\"addr:city\"=>\"Brighouse\",\"ref:navads\"=>\"NVDS353_10018821\",\"addr:hamlet\"=>\"Clifton\",\"addr:street\"=>\"Highmoor Lane\",\"addr:country\"=>\"GB\",\"addr:postcode\"=>\"HD6 4JX\",\"opening_hours\"=>\"24\/7\"" }, "geometry": { "type": "Point", "coordinates": [ -1.7464985, 53.7144507 ] } },
	{ "type": "Feature", "properties": { "osm_id": "5212715833", "amenity": "fuel", "other_tags": "\"brand\"=>\"Shell\",\"phone\"=>\"+44 1422 834462\",\"addr:city\"=>\"Sowerby Bridge\",\"ref:navads\"=>\"NVDS353_12220145\",\"addr:street\"=>\"Rochdale Road\",\"addr:country\"=>\"GB\",\"addr:postcode\"=>\"HX6 3BL\",\"opening_hours\"=>\"Mo-Su 06:00-22:00\"" }, "geometry": { "type": "Point", "coordinates": [ -1.9185451, 53.7033673 ] } }
]
}
