{
"type": "FeatureCollection",
"crs": { "type": "name", "properties": { "name": "urn:ogc:def:crs:OGC:1.3:CRS84" } },
"features": [
	{ "type": "Feature", "properties": { "osm_id": "1366105823", "name": "Lyall's", "other_tags": "\"shop\"=>\"books\"" }, "geometry": { "type": "Point", "coordinates": [ -2.0980152, 53.7132574 ] } },
	{ "type": "Feature", "properties": { "osm_id": "2579496277", "name": "The Bookcase", "other_tags": "\"addr:city\"=>\"Hebden Bridge\",\"addr:country\"=>\"GB\",\"addr:housenumber\"=>\"29\",\"addr:postcode\"=>\"HX7 6EU\",\"addr:street\"=>\"Market Street\",\"shop\"=>\"books\",\"website\"=>\"https:\/\/www.bookcase.co.uk\/\"" }, "geometry": { "type": "Point", "coordinates": [ -2.0163655, 53.7412741 ] } },
	{ "type": "Feature", "properties": { "osm_id": "5452280971", "name": "The Works", "other_tags": "\"brand\"=>\"The Works\",\"brand:wikidata\"=>\"Q7775853\",\"brand:wikipedia\"=>\"en:The Works (retailer)\",\"shop\"=>\"books\"" }, "geometry": { "type": "Point", "coordinates": [ -1.858862, 53.7234166 ] } },
	{ "type": "Feature", "properties": { "osm_id": "5569969822", "name": "Legacy Comics", "other_tags": "\"shop\"=>\"books\"" }, "geometry": { "type": "Point", "coordinates": [ -1.8586072, 53.7218438 ] } },
	{ "type": "Feature", "properties": { "osm_id": "8287678798", "name": "Just Books", "other_tags": "\"shop\"=>\"books\"" }, "geometry": { "type": "Point", "coordinates": [ -1.7799714, 53.7022786 ] } },
	{ "type": "Feature", "properties": { "osm_id": "8404971759", "name": "The Thoughtful Spot", "other_tags": "\"addr:city\"=>\"Halifax\",\"addr:housenumber\"=>\"334\",\"addr:postcode\"=>\"HX3 0LX\",\"addr:street\"=>\"Skircoat Green Road\",\"books\"=>\"children\",\"opening_hours\"=>\"Tu-Fr 10:00-17:00; Sa 10:00-16:00\",\"opening_hours:covid19\"=>\"same\",\"phone\"=>\"+44 7974 681794\",\"shop\"=>\"books\",\"website\"=>\"https:\/\/www.thethoughtfulspotbooks.com\"" }, "geometry": { "type": "Point", "coordinates": [ -1.8634709, 53.7037736 ] } },
	{ "type": "Feature", "properties": { "osm_id": "10266344266", "other_tags": "\"second_hand\"=>\"only\",\"shop\"=>\"books\"" }, "geometry": { "type": "Point", "coordinates": [ -2.0423774, 53.7650306 ] } },
	{ "type": "Feature", "properties": { "osm_way_id": "993780233", "name": "Page", "building": "yes", "shop": "books", "other_tags": "\"addr:city\"=>\"Brighouse\",\"addr:housenumber\"=>\"48\",\"addr:postcode\"=>\"HD6 1JL\",\"addr:street\"=>\"Park Street\",\"phone\"=>\"+44 1484 716284\",\"website\"=>\"https:\/\/www.pagebookshops.com\/\"" }, "geometry": { "type": "Polygon", "coordinates": [ [ [ -1.7804413, 53.7012594 ], [ -1.780523, 53.7012578 ], [ -1.7805259, 53.7013067 ], [ -1.7805286, 53.7013543 ], [ -1.7805299, 53.7013761 ], [ -1.7804481, 53.7013777 ], [ -1.7804479, 53.7013733 ], [ -1.7804413, 53.7012594 ] ] ] } }
]
}
