{
"type": "FeatureCollection",
"crs": { "type": "name", "properties": { "name": "urn:ogc:def:crs:OGC:1.3:CRS84" } },
"features": [
	{ "type": "Feature", "properties": { "osm_id": "946931541", "name": "Heath Pharmacy", "amenity": "pharmacy", "other_tags": "\"fhrs:id\"=>\"347749\",\"website\"=>\"http:\/\/www.heathpharmacy.co.uk\/\",\"addr:city\"=>\"Halifax\",\"dispensing\"=>\"yes\",\"addr:street\"=>\"Free School Lane\",\"source:addr\"=>\"FHRS Open Data\",\"addr:postcode\"=>\"HX1 2YF\",\"addr:housenumber\"=>\"96\"" }, "geometry": { "type": "Point", "coordinates": [ -1.8683356, 53.7126981 ] } },
	{ "type": "Feature", "properties": { "osm_id": "1026886386", "name": "Boots", "amenity": "pharmacy", "other_tags": "\"brand\"=>\"Boots\",\"fhrs:id\"=>\"348096\",\"addr:city\"=>\"Brighouse\",\"dispensing\"=>\"yes\",\"healthcare\"=>\"pharmacy\",\"addr:street\"=>\"Commercial Street\",\"source:addr\"=>\"FHRS Open Data\",\"addr:country\"=>\"GB\",\"addr:postcode\"=>\"HD6 1AF\",\"brand:wikidata\"=>\"Q6123139\",\"brand:wikipedia\"=>\"en:Boots UK\",\"addr:housenumber\"=>\"59\"" }, "geometry": { "type": "Point", "coordinates": [ -1.7820689, 53.7018912 ] } },
	{ "type": "Feature", "properties": { "osm_id": "1366081806", "name": "Boots", "amenity": "pharmacy" }, "geometry": { "type": "Point", "coordinates": [ -2.0971874, 53.7141835 ] } },
	{ "type": "Feature", "properties": { "osm_id": "2353972075", "amenity": "pharmacy", "other_tags": "\"dispensing\"=>\"yes\"" }, "geometry": { "type": "Point", "coordinates": [ -1.8314983, 53.7122282 ] } },
	{ "type": "Feature", "properties": { "osm_id": "2459892897", "name": "King Cross Pharmacy", "amenity": "pharmacy", "ref": "1093315", "other_tags": "\"phone\"=>\"+44 1422 384123\",\"fhrs:id\"=>\"348491\",\"website\"=>\"http:\/\/www.kingcrosspharmacy.co.uk\",\"operator\"=>\"NHS\",\"addr:city\"=>\"Halifax\",\"addr:street\"=>\"King Cross Road\",\"addr:postcode\"=>\"HX1 3JP\",\"addr:housenumber\"=>\"206\"" }, "geometry": { "type": "Point", "coordinates": [ -1.8808449, 53.7154639 ] } },
	{ "type": "Feature", "properties": { "osm_id": "5315538143", "name": "J Swire & Son Ltd", "amenity": "pharmacy", "ref": "1039549", "other_tags": "\"phone\"=>\"+44 1422 361134\",\"fhrs:id\"=>\"348493\",\"addr:city\"=>\"Halifax\",\"dispensing\"=>\"yes\",\"addr:street\"=>\"King Cross Road\",\"addr:country\"=>\"GB\",\"addr:postcode\"=>\"HX1 3JP\",\"addr:housenumber\"=>\"210-212\"" }, "geometry": { "type": "Point", "coordinates": [ -1.8809742, 53.7154204 ] } },
	{ "type": "Feature", "properties": { "osm_id": "5502173701", "name": "Boots", "amenity": "pharmacy", "ref": "1039558", "other_tags": "\"shop\"=>\"chemist\",\"operator\"=>\"Boots\",\"addr:city\"=>\"Halifax\",\"dispensing\"=>\"yes\",\"addr:street\"=>\"Market Street\",\"addr:country\"=>\"GB\",\"addr:postcode\"=>\"HX1 1PB\",\"addr:housenumber\"=>\"7-11\"" }, "geometry": { "type": "Point", "coordinates": [ -1.8587735, 53.7228881 ] } }
]
}
