{
"type": "FeatureCollection",
"crs": { "type": "name", "properties": { "name": "urn:ogc:def:crs:OGC:1.3:CRS84" } },
"features": [
	{ "type": "Feature", "properties": { "osm_id": "946931541", "name": "Heath Pharmacy", "amenity": "pharmacy", "other_tags": "\"addr:city\"=>\"Halifax\",\"addr:housenumber\"=>\"96\",\"addr:postcode\"=>\"HX1 2YF\",\"addr:street\"=>\"Free School Lane\",\"dispensing\"=>\"yes\",\"fhrs:id\"=>\"347749\",\"source:addr\"=>\"FHRS Open Data\",\"website\"=>\"http:\/\/www.heathpharmacy.co.uk\/\"" }, "geometry": { "type": "Point", "coordinates": [ -1.8683356, 53.7126981 ] } },
	{ "type": "Feature", "properties": { "osm_id": "1026886386", "name": "Boots", "amenity": "pharmacy", "other_tags": "\"addr:city\"=>\"Brighouse\",\"addr:country\"=>\"GB\",\"addr:housenumber\"=>\"59\",\"addr:postcode\"=>\"HD6 1AF\",\"addr:street\"=>\"Commercial Street\",\"brand\"=>\"Boots\",\"brand:wikidata\"=>\"Q6123139\",\"brand:wikipedia\"=>\"en:Boots UK\",\"dispensing\"=>\"yes\",\"fhrs:id\"=>\"348096\",\"healthcare\"=>\"pharmacy\",\"source:addr\"=>\"FHRS Open Data\"" }, "geometry": { "type": "Point", "coordinates": [ -1.7820689, 53.7018912 ] } },
	{ "type": "Feature", "properties": { "osm_id": "1366081806", "name": "Boots", "amenity": "pharmacy" }, "geometry": { "type": "Point", "coordinates": [ -2.0971874, 53.7141835 ] } },
	{ "type": "Feature", "properties": { "osm_id": "2353972075", "amenity": "pharmacy", "other_tags": "\"dispensing\"=>\"yes\"" }, "geometry": { "type": "Point", "coordinates": [ -1.8314983, 53.7122282 ] } },
	{ "type": "Feature", "properties": { "osm_id": "2459892897", "name": "King Cross Pharmacy", "amenity": "pharmacy", "ref": "1093315", "other_tags": "\"addr:city\"=>\"Halifax\",\"addr:housenumber\"=>\"206\",\"addr:postcode\"=>\"HX1 3JP\",\"addr:street\"=>\"King Cross Road\",\"fhrs:id\"=>\"348491\",\"operator\"=>\"NHS\",\"phone\"=>\"+44 1422 384123\",\"website\"=>\"http:\/\/www.kingcrosspharmacy.co.uk\"" }, "geometry": { "type": "Point", "coordinates": [ -1.8808449, 53.7154639 ] } }
]
}
