{
"type": "FeatureCollection",
"crs": { "type": "name", "properties": { "name": "urn:ogc:def:crs:OGC:1.3:CRS84" } },
"features": [
	{ "type": "Feature", "properties": { "osm_id": "299515538", "amenity": "library" }, "geometry": { "type": "Point", "coordinates": [ -1.8321397, 53.7098602 ] } },
	{ "type": "Feature", "properties": { "osm_id": "329007661", "name": "Hebden Bridge Library", "amenity": "library" }, "geometry": { "type": "Point", "coordinates": [ -2.0121584, 53.7412826 ] } },
	{ "type": "Feature", "properties": { "osm_id": "626171016", "name": "Hipperholme Library", "amenity": "library" }, "geometry": { "type": "Point", "coordinates": [ -1.8108636, 53.7258619 ] } },
	{ "type": "Feature", "properties": { "osm_id": "1235277024", "name": "Skircoat Library", "amenity": "library", "other_tags": "\"wheelchair\"=>\"yes\",\"opening_hours\"=>\"Mo,Th,Fr 10:00-12:30, Mo,Th 13:30-18:00, Fr 13:30-16:00; Sa 10:00-16:00\"" }, "geometry": { "type": "Point", "coordinates": [ -1.8633038, 53.7057223 ] } },
	{ "type": "Feature", "properties": { "osm_id": "1235277032", "name": "King Cross Library", "amenity": "library" }, "geometry": { "type": "Point", "coordinates": [ -1.8812381, 53.7146065 ] } },
	{ "type": "Feature", "properties": { "osm_id": "1446309046", "name": "Walsden Library", "amenity": "library" }, "geometry": { "type": "Point", "coordinates": [ -2.1010402, 53.6944212 ] } }
]
}
