{
"type": "FeatureCollection",
"crs": { "type": "name", "properties": { "name": "urn:ogc:def:crs:OGC:1.3:CRS84" } },
"features": [
	{ "type": "Feature", "properties": { "osm_id": "30304811", "name": "Parish Church of Saint Mary's Luddenden", "amenity": "place_of_worship", "other_tags": "\"religion\"=>\"christian\"" }, "geometry": { "type": "Point", "coordinates": [ -1.9391472, 53.7324159 ] } },
	{ "type": "Feature", "properties": { "osm_id": "114287501", "name": "St. Michael's", "amenity": "place_of_worship", "other_tags": "\"fhrs:id\"=>\"347294\",\"religion\"=>\"christian\"" }, "geometry": { "type": "Point", "coordinates": [ -1.9811997, 53.7301828 ] } },
	{ "type": "Feature", "properties": { "osm_id": "224427399", "name": "Steep Lane Baptist Chapel", "amenity": "place_of_worship", "other_tags": "\"denomination\"=>\"baptist\",\"religion\"=>\"christian\"" }, "geometry": { "type": "Point", "coordinates": [ -1.9573869, 53.7094075 ] } },
	{ "type": "Feature", "properties": { "osm_id": "230259682", "name": "St Mary's Church", "amenity": "place_of_worship", "other_tags": "\"religion\"=>\"christian\",\"denomination\"=>\"anglican\"" }, "geometry": { "type": "Point", "coordinates": [ -1.9578999, 53.6913831 ] } },
	{ "type": "Feature", "properties": { "osm_id": "245978097", "name": "Elim Church", "amenity": "place_of_worship", "other_tags": "\"addr:city\"=>\"Sowerby Bridge\",\"addr:country\"=>\"GB\",\"addr:housename\"=>\"Oasis Family Centre\",\"addr:postcode\"=>\"HX6 3AZ\",\"addr:street\"=>\"Ryburn Street\",\"building\"=>\"church\",\"denomination\"=>\"pentecostal\",\"fhrs:id\"=>\"346849\",\"religion\"=>\"christian\",\"source:addr\"=>\"FHRS Open Data\"" }, "geometry": { "type": "Point", "coordinates": [ -1.9161072, 53.7056637 ] } },
	{ "type": "Feature", "properties": { "osm_id": "310644680", "name": "Stainland and Holywell Green United Reformed Church", "amenity": "place_of_worship", "other_tags": "\"religion\"=>\"christian\",\"denomination\"=>\"united_reformed\"" }, "geometry": { "type": "Point", "coordinates": [ -1.8674318, 53.6756532 ] } },
	{ "type": "Feature", "properties": { "osm_id": "329041421", "name": "Hope Baptist Chapel", "amenity": "place_of_worship", "other_tags": "\"denomination\"=>\"baptist\",\"religion\"=>\"christian\"" }, "geometry": { "type": "Point", "coordinates": [ -2.0124379, 53.7409462 ] } },
	{ "type": "Feature", "properties": { "osm_id": "734193034", "name": "St Joseph's RC Church", "amenity": "place_of_worship", "other_tags": "\"denomination\"=>\"roman_catholic\",\"religion\"=>\"christian\"" }, "geometry": { "type": "Point", "coordinates": [ -2.0976202, 53.7171117 ] } },
	{ "type": "Feature", "properties": { "osm_id": "946974394", "name": "St. Andrew's Methodist Church", "amenity": "place_of_worship", "other_tags": "\"addr:city\"=>\"Halifax\",\"addr:country\"=>\"GB\",\"addr:postcode\"=>\"HX3 0AT\",\"addr:street\"=>\"Huddersfield Road\",\"denomination\"=>\"methodist\",\"fhrs:id\"=>\"347755\",\"religion\"=>\"christian\",\"source:addr\"=>\"FHRS Open Data\"" }, "geometry": { "type": "Point", "coordinates": [ -1.8567259, 53.706741 ] } },
	{ "type": "Feature", "properties": { "osm_id": "1301896013", "name": "Christ Church Centre", "amenity": "place_of_worship", "other_tags": "\"religion\"=>\"christian\"" }, "geometry": { "type": "Point", "coordinates": [ -1.8018776, 53.7281548 ] } },
	{ "type": "Feature", "properties": { "osm_id": "1371042597", "name": "St Anne-in-the-Grove", "amenity": "place_of_worship", "other_tags": "\"religion\"=>\"christian\"" }, "geometry": { "type": "Point", "coordinates": [ -1.8193152, 53.7092237 ] } },
	{ "type": "Feature", "properties": { "osm_id": "1474265437", "name": "Pepper Hill Unitarian Chapel", "amenity": "place_of_worship" }, "geometry": { "type": "Point", "coordinates": [ -1.8309907, 53.7558762 ] } },
	{ "type": "Feature", "properties": { "osm_id": "1634144868", "amenity": "place_of_worship" }, "geometry": { "type": "Point", "coordinates": [ -1.8499601, 53.7128433 ] } },
	{ "type": "Feature", "properties": { "osm_id": "1634144918", "amenity": "place_of_worship" }, "geometry": { "type": "Point", "coordinates": [ -1.8497992, 53.7133386 ] } },
	{ "type": "Feature", "properties": { "osm_id": "1660623766", "amenity": "place_of_worship" }, "geometry": { "type": "Point", "coordinates": [ -1.7906701, 53.685609 ] } },
	{ "type": "Feature", "properties": { "osm_id": "2389313528", "amenity": "place_of_worship" }, "geometry": { "type": "Point", "coordinates": [ -1.8079642, 53.7564148 ] } },
	{ "type": "Feature", "properties": { "osm_id": "3120470553", "name": "St Mary the Virgin", "amenity": "place_of_worship", "other_tags": "\"religion\"=>\"christian\",\"wheelchair\"=>\"yes\",\"denomination\"=>\"anglican\"" }, "geometry": { "type": "Point", "coordinates": [ -1.8378754, 53.6868192 ] } }
]
}
