{
"type": "FeatureCollection",
"crs": { "type": "name", "properties": { "name": "urn:ogc:def:crs:OGC:1.3:CRS84" } },
"features": [
	{ "type": "Feature", "properties": { "osm_id": "1026886423", "name": "The Charity Shop", "other_tags": "\"shop\"=>\"charity\",\"operator\"=>\"RSPCA\"" }, "geometry": { "type": "Point", "coordinates": [ -1.7822573, 53.7018413 ] } },
	{ "type": "Feature", "properties": { "osm_id": "5463222472", "name": "Marie Curie", "other_tags": "\"shop\"=>\"charity\"" }, "geometry": { "type": "Point", "coordinates": [ -1.8600449, 53.7232531 ] } },
	{ "type": "Feature", "properties": { "osm_id": "5463222485", "name": "Mind", "other_tags": "\"shop\"=>\"charity\"" }, "geometry": { "type": "Point", "coordinates": [ -1.8597981, 53.7230182 ] } },
	{ "type": "Feature", "properties": { "osm_id": "5463222488", "name": "British Heart Foundation", "other_tags": "\"shop\"=>\"charity\",\"operator\"=>\"British Heart Foundation\"" }, "geometry": { "type": "Point", "coordinates": [ -1.8595192, 53.7228659 ] } },
	{ "type": "Feature", "properties": { "osm_id": "5483736333", "name": "Helping Hands", "other_tags": "\"shop\"=>\"charity\"" }, "geometry": { "type": "Point", "coordinates": [ -1.8597552, 53.723826 ] } },
	{ "type": "Feature", "properties": { "osm_id": "5572259407", "name": "RSPCA", "other_tags": "\"shop\"=>\"charity\"" }, "geometry": { "type": "Point", "coordinates": [ -1.8585348, 53.7213962 ] } }
]
}
