{
"type": "FeatureCollection",
"crs": { "type": "name", "properties": { "name": "urn:ogc:def:crs:OGC:1.3:CRS84" } },
"features": [
	{ "type": "Feature", "properties": { "osm_id": "5452280960", "name": "Clinton", "other_tags": "\"shop\"=>\"stationery\"" }, "geometry": { "type": "Point", "coordinates": [ -1.8573815, 53.7232467 ] } },
	{ "type": "Feature", "properties": { "osm_id": "5452280969", "name": "Card Factory", "other_tags": "\"shop\"=>\"stationery\"" }, "geometry": { "type": "Point", "coordinates": [ -1.8587333, 53.7234134 ] } },
	{ "type": "Feature", "properties": { "osm_id": "5463222480", "name": "WHSmiths", "other_tags": "\"shop\"=>\"stationery\",\"addr:city\"=>\"Halifax\",\"addr:street\"=>\"Market Street\",\"addr:postcode\"=>\"HX1 1PB\",\"opening_hours\"=>\"Mo-Sa 09:00-17:30; Su 11:00-15:00\",\"addr:housenumber\"=>\"5\"" }, "geometry": { "type": "Point", "coordinates": [ -1.8588433, 53.7231277 ] } },
	{ "type": "Feature", "properties": { "osm_id": "5469277354", "name": "cardmarket", "other_tags": "\"shop\"=>\"stationery\"" }, "geometry": { "type": "Point", "coordinates": [ -1.859951, 53.7226468 ] } },
	{ "type": "Feature", "properties": { "osm_id": "5569969823", "name": "Card Guys", "other_tags": "\"shop\"=>\"stationery\"" }, "geometry": { "type": "Point", "coordinates": [ -1.8586206, 53.7219184 ] } }
]
}
