{
"type": "FeatureCollection",
"crs": { "type": "name", "properties": { "name": "urn:ogc:def:crs:OGC:1.3:CRS84" } },
"features": [
	{ "type": "Feature", "properties": { "osm_id": "244038597", "name": "The Treasure House", "amenity": "restaurant" }, "geometry": { "type": "Point", "coordinates": [ -1.9206065, 53.7238102 ] } },
	{ "type": "Feature", "properties": { "osm_id": "329031805", "name": "Rick's Mexican Street Food", "amenity": "restaurant", "other_tags": "\"addr:city\"=>\"Hebden Bridge\",\"addr:housenumber\"=>\"4\",\"addr:postcode\"=>\"HX7 8EH\",\"addr:street\"=>\"Crown Street\",\"cuisine\"=>\"mexican\",\"phone\"=>\"+44 1422 706123\",\"website\"=>\"https:\/\/www.ricksmexicanstreetfood.co.uk\"" }, "geometry": { "type": "Point", "coordinates": [ -2.0129654, 53.7411927 ] } },
	{ "type": "Feature", "properties": { "osm_id": "330013958", "name": "Rim Nan Thai", "amenity": "restaurant", "other_tags": "\"cuisine\"=>\"thai\",\"wheelchair\"=>\"yes\"" }, "geometry": { "type": "Point", "coordinates": [ -2.0121718, 53.7403451 ] } },
	{ "type": "Feature", "properties": { "osm_id": "946940523", "name": "The Lodge Fisheries", "amenity": "restaurant", "other_tags": "\"cuisine\"=>\"fish_and_chips\",\"addr:street\"=>\"Saville Park Road\"" }, "geometry": { "type": "Point", "coordinates": [ -1.8703365, 53.7093769 ] } },
	{ "type": "Feature", "properties": { "osm_id": "949007886", "name": "The Hairy Lemon", "amenity": "restaurant", "other_tags": "\"addr:city\"=>\"Halifax\",\"addr:country\"=>\"GB\",\"addr:housenumber\"=>\"7\",\"addr:postcode\"=>\"HX1 5AE\",\"addr:street\"=>\"Lord Street\",\"website\"=>\"http:\/\/www.hairylemonhalifax.co.uk\/\"" }, "geometry": { "type": "Point", "coordinates": [ -1.8651035, 53.7218073 ] } },
	{ "type": "Feature", "properties": { "osm_id": "950807678", "name": "Red Pepper Bistro", "amenity": "restaurant", "other_tags": "\"addr:city\"=>\"Halifax\",\"addr:country\"=>\"GB\",\"addr:housenumber\"=>\"39\",\"addr:postcode\"=>\"HX1 1YA\",\"addr:street\"=>\"Broad Street\",\"wheelchair\"=>\"yes\"" }, "geometry": { "type": "Point", "coordinates": [ -1.8628504, 53.7237102 ] } },
	{ "type": "Feature", "properties": { "osm_id": "973778138", "name": "Lane Head Hotel", "amenity": "restaurant", "other_tags": "\"addr:city\"=>\"Brighouse\",\"addr:country\"=>\"GB\",\"addr:housenumber\"=>\"2\",\"addr:postcode\"=>\"HD6 2AL\",\"addr:street\"=>\"Brighouse Wood Lane\",\"fhrs:id\"=>\"348082\",\"source:addr\"=>\"FHRS Open Data\"" }, "geometry": { "type": "Point", "coordinates": [ -1.788788, 53.7051423 ] } },
	{ "type": "Feature", "properties": { "osm_id": "1029362470", "name": "Nags Head", "amenity": "restaurant", "other_tags": "\"addr:city\"=>\"Huddersfield\",\"addr:country\"=>\"GB\",\"addr:postcode\"=>\"HD2 2EA\",\"addr:street\"=>\"New Hey Road\",\"addr:suburb\"=>\"Ainley Top\",\"fhrs:id\"=>\"348557\",\"source:addr\"=>\"FHRS Open Data\"" }, "geometry": { "type": "Point", "coordinates": [ -1.8262772, 53.672566 ] } },
	{ "type": "Feature", "properties": { "osm_id": "1231462121", "name": "Moorlands Inn", "amenity": "restaurant", "other_tags": "\"addr:city\"=>\"Halifax\",\"addr:country\"=>\"GB\",\"addr:hamlet\"=>\"Illingworth\",\"addr:postcode\"=>\"HX2 8XD\",\"addr:street\"=>\"Keighley Road\",\"fhrs:id\"=>\"347643\",\"wifi\"=>\"free\"" }, "geometry": { "type": "Point", "coordinates": [ -1.8957761, 53.7659745 ] } },
	{ "type": "Feature", "properties": { "osm_id": "1235254958", "name": "Desi Spice", "amenity": "restaurant", "other_tags": "\"addr:city\"=>\"Halifax\",\"addr:country\"=>\"GB\",\"addr:housename\"=>\"Desi Spice\",\"addr:postcode\"=>\"HX3 0NS\",\"addr:street\"=>\"Huddersfield Road\",\"cuisine\"=>\"asian\",\"delivery\"=>\"yes\",\"fhrs:id\"=>\"347757\",\"old_name\"=>\"Stafford Arms\",\"opening_hours\"=>\"Su-Th 17:30-22:30; Fr-Sa 17:30-23:00\",\"outdoor_seating\"=>\"no\",\"phone\"=>\"+44 1422 322253\",\"smoking\"=>\"outside\",\"takeaway\"=>\"yes\",\"website\"=>\"http:\/\/desi-spice-group.co.uk\/\"" }, "geometry": { "type": "Point", "coordinates": [ -1.8583645, 53.7077235 ] } },
	{ "type": "Feature", "properties": { "osm_id": "1535400538", "name": "Vedas", "amenity": "restaurant", "other_tags": "\"addr:city\"=>\"Todmorden\",\"addr:country\"=>\"GB\",\"addr:housenumber\"=>\"26-30\",\"addr:postcode\"=>\"OL14 7LD\",\"addr:street\"=>\"Rochdale Road\",\"cuisine\"=>\"indian\",\"fhrs:id\"=>\"348447\",\"source:addr\"=>\"FHRS Open Data\"" }, "geometry": { "type": "Point", "coordinates": [ -2.0991238, 53.7122148 ] } },
	{ "type": "Feature", "properties": { "osm_id": "2211761697", "name": "Yorkshireman Restaurant", "amenity": "restaurant" }, "geometry": { "type": "Point", "coordinates": [ -1.8139015, 53.7282089 ] } },
	{ "type": "Feature", "properties": { "osm_id": "2459892895", "name": "Le'Taj Restaurant", "amenity": "restaurant", "other_tags": "\"addr:city\"=>\"Halifax\",\"addr:country\"=>\"GB\",\"addr:housenumber\"=>\"194\",\"addr:postcode\"=>\"HX1 3JP\",\"addr:street\"=>\"King Cross Road\",\"fhrs:id\"=>\"348482\",\"source:addr\"=>\"FHRS Open Data\"" }, "geometry": { "type": "Point", "coordinates": [ -1.8804119, 53.7156239 ] } },
	{ "type": "Feature", "properties": { "osm_id": "2797640557", "name": "Design House", "amenity": "restaurant", "other_tags": "\"addr:city\"=>\"Halifax\",\"addr:street\"=>\"Dean Clough Mills\",\"addr:postcode\"=>\"HX3 5AX\"" }, "geometry": { "type": "Point", "coordinates": [ -1.8628799, 53.7281942 ] } },
	{ "type": "Feature", "properties": { "osm_id": "2839252713", "name": "Fryer Tuck Inn", "amenity": "restaurant", "other_tags": "\"addr:city\"=>\"Halifax\",\"addr:country\"=>\"GB\",\"addr:hamlet\"=>\"Hipperholme\",\"addr:housenumber\"=>\"2\",\"addr:postcode\"=>\"HX3 8DY\",\"addr:street\"=>\"George Street\",\"cuisine\"=>\"fish_and_chips\",\"fhrs:id\"=>\"348194\",\"smoking\"=>\"no\",\"source:addr\"=>\"FHRS Open Data\"" }, "geometry": { "type": "Point", "coordinates": [ -1.8114984, 53.7253565 ] } },
	{ "type": "Feature", "properties": { "osm_id": "3008795413", "name": "Jing Jing Chinese takreaway", "amenity": "restaurant", "other_tags": "\"addr:city\"=>\"Sowerby Bridge\",\"addr:housenumber\"=>\"78\",\"addr:postcode\"=>\"HX6 2AF\",\"addr:street\"=>\"Wharf Street\",\"cuisine\"=>\"chinese\",\"fhrs:id\"=>\"346777\",\"phone\"=>\"+44 1422 832584\",\"smoking\"=>\"no\",\"website\"=>\"https:\/\/take-a-way.co.uk\/menu\/691\/jing-jing-sowerby-bridge\/\"" }, "geometry": { "type": "Point", "coordinates": [ -1.9055369, 53.7098778 ] } }
]
}
