{
"type": "FeatureCollection",
"crs": { "type": "name", "properties": { "name": "urn:ogc:def:crs:OGC:1.3:CRS84" } },
"features": [
	{ "type": "Feature", "properties": { "osm_id": "1366105823", "name": "Lyall's", "other_tags": "\"shop\"=>\"books\"" }, "geometry": { "type": "Point", "coordinates": [ -2.0980152, 53.7132574 ] } },
	{ "type": "Feature", "properties": { "osm_id": "2579496277", "name": "The Bookcase", "other_tags": "\"shop\"=>\"books\",\"website\"=>\"https:\/\/www.bookcase.co.uk\/\",\"addr:city\"=>\"Hebden Bridge\",\"addr:street\"=>\"Market Street\",\"addr:country\"=>\"GB\",\"addr:postcode\"=>\"HX7 6EU\",\"addr:housenumber\"=>\"29\"" }, "geometry": { "type": "Point", "coordinates": [ -2.0163655, 53.7412741 ] } },
	{ "type": "Feature", "properties": { "osm_id": "5452280971", "name": "The Works", "other_tags": "\"brand\"=>\"The Works\",\"brand:wikidata\"=>\"Q7775853\",\"brand:wikipedia\"=>\"en:The Works (retailer)\",\"shop\"=>\"books\"" }, "geometry": { "type": "Point", "coordinates": [ -1.858862, 53.7234166 ] } },
	{ "type": "Feature", "properties": { "osm_id": "5569969822", "name": "Legacy Comics", "other_tags": "\"shop\"=>\"books\"" }, "geometry": { "type": "Point", "coordinates": [ -1.8586072, 53.7218438 ] } },
	{ "type": "Feature", "properties": { "osm_id": "8287678798", "name": "Just Books", "other_tags": "\"shop\"=>\"books\"" }, "geometry": { "type": "Point", "coordinates": [ -1.7799714, 53.7022786 ] } },
	{ "type": "Feature", "properties": { "osm_id": "8404971759", "name": "The Thoughtful Spot", "other_tags": "\"addr:city\"=>\"Halifax\",\"addr:housenumber\"=>\"334\",\"addr:postcode\"=>\"HX3 0LX\",\"addr:street\"=>\"Skircoat Green Road\",\"books\"=>\"children\",\"opening_hours\"=>\"Tu-Fr 10:00-17:00; Sa 10:00-16:00\",\"opening_hours:covid19\"=>\"same\",\"phone\"=>\"+44 7974 681794\",\"shop\"=>\"books\",\"website\"=>\"https:\/\/www.thethoughtfulspotbooks.com\"" }, "geometry": { "type": "Point", "coordinates": [ -1.8634709, 53.7037736 ] } }
]
}
